time,.header.seq,.header.stamp.secs,.header.stamp.nsecs,.header.frame_id,.twist.linear.x,.twist.linear.y,.twist.linear.z,.twist.angular.x,.twist.angular.y,.twist.angular.z
2025/07/05/17:44:13.324279,7262,1751712253,319540352,base_link,0.143818404577926,0.008755746425052655,0.024009981328367923,0.050090543925762177,0.00469380151480437,0.059499915689229965
2025/07/05/17:44:13.463101,7263,1751712253,459556736,base_link,0.14496977444872458,0.038199094900465164,0.02497834534065946,0.009537645615637302,0.011190029792487627,0.03996887803077698
2025/07/05/17:44:13.604635,7264,1751712253,600564160,base_link,0.14564179303170743,0.04333349372863082,0.01921545780941092,0.027201686054468155,0.00841787829995155,-0.021758118644356728
2025/07/05/17:44:13.704524,7265,1751712253,700573888,base_link,0.15358733637762625,0.03919114628806236,0.018692063463794612,-0.017845118418335915,-0.005024480633437638,-0.03644620627164841
2025/07/05/17:44:13.804513,7266,1751712253,800580032,base_link,0.1546561959188466,0.045370075492472954,0.016363924349539684,-0.048516929149627686,-0.017032090574502952,-0.04450508952140808
2025/07/05/17:44:13.923508,7267,1751712253,919580032,base_link,0.15667593146781633,0.05896893777186028,0.02398985736330397,-0.032561492174863815,-0.014552284032106406,-0.0545208640396595
2025/07/05/17:44:14.005306,7268,1751712254,586944,base_link,0.1589886432026968,0.06253421678519969,0.027326040550932875,0.007523084059357643,-0.00038171769119799896,-0.06186039373278618
2025/07/05/17:44:14.104153,7269,1751712254,100592576,base_link,0.16270104470295338,0.06452359036469073,0.03097905090920583,0.025448646396398544,0.008823568001389497,-0.06317910552024841
2025/07/05/17:44:14.205048,7270,1751712254,200597184,base_link,0.20848118404831847,0.07476121159902505,0.02513224081474228,0.035455573350191116,0.005793916061520569,-0.06304968893527985
2025/07/05/17:44:14.323725,7271,1751712254,319604864,base_link,0.2630187511137561,0.11593804552798131,0.03210974112628598,0.0702476054430008,-0.014535050839185725,-0.07899649441242218
2025/07/05/17:44:14.482416,7272,1751712254,478617152,base_link,0.2544529777219574,0.09323664877528962,0.029121654371491973,0.1138821691274643,-0.019956378266215342,-0.12835074961185455
2025/07/05/17:44:14.604096,7273,1751712254,600623808,base_link,0.23594767807257216,0.09126807448521962,0.025275899604002748,-0.10570719838142395,0.014075412414967996,-0.14554931223392487
2025/07/05/17:44:14.703923,7274,1751712254,699629696,base_link,0.2336998474110431,0.08690251042634045,0.02472503327232833,-0.12603063881397247,0.016480457037687284,-0.13929274678230286
2025/07/05/17:44:14.782654,7275,1751712254,778636352,base_link,0.2303904745527981,0.08480126405333481,0.024629691391031598,-0.06444963067770004,0.010424315929412826,-0.1262570470571518
2025/07/05/17:44:14.882998,7276,1751712254,878642496,base_link,0.22598649903313267,0.08016472984609327,0.023399298484548796,0.013765170238912106,0.0011997851543128367,-0.10132189095020294
2025/07/05/17:44:15.003958,7277,1751712254,999649152,base_link,0.21995802204771803,0.07544478072493314,0.021004463385027757,0.07318834960460663,-0.0027075372636318302,-0.07744685560464859
2025/07/05/17:44:15.086487,7278,1751712255,78655296,base_link,0.214932276567712,0.07203312978988624,0.01675398631934117,0.09877452254295349,-0.0010214555077254848,-0.0625181719660759
2025/07/05/17:44:15.205842,7279,1751712255,200661184,base_link,0.2089012221897609,0.06536448702391005,0.01121841992482486,0.08140432834625244,0.00020732171833514492,-0.0551307238638401
2025/07/05/17:44:15.304084,7280,1751712255,299667328,base_link,0.20261193825231674,0.062159876835691935,0.006825681313811494,0.033210184425115585,-0.0018965867348015373,-0.05384653061628342
2025/07/05/17:44:15.384998,7281,1751712255,378673216,base_link,0.1983595814589232,0.06247351237735308,0.003925585024550045,-0.01633652113378048,-0.005425623618066318,-0.058021627366542816
2025/07/05/17:44:15.543821,7282,1751712255,539683200,base_link,0.18993138509375368,0.06350492968595454,0.0026102673182070504,-0.04149918630719185,-0.010305475443601617,-0.0668443813920021
2025/07/05/17:44:15.628612,7283,1751712255,622688320,base_link,0.18559808020067808,0.06372298720064418,0.0039022973736971,-0.03010755032300949,-0.008525302633643159,-0.0684802308678627
2025/07/05/17:44:15.722253,7284,1751712255,719696768,base_link,0.21715364653022207,0.06467043099179415,0.003393517022033086,-0.00767561886459589,-0.004321943502873191,-0.06801781803369522
2025/07/05/17:44:15.825761,7285,1751712255,822704960,base_link,0.24997032628631338,0.08889403680004562,0.007300639850914038,0.041997168213129044,-0.015742538496851928,-0.06401357054710388
2025/07/05/17:44:15.942637,7286,1751712255,938712640,base_link,0.268359856797417,0.09083160864921307,0.010770021373671945,0.10053285956382751,-0.010771456174552451,-0.0857352614402771
2025/07/05/17:44:16.026201,7287,1751712256,22718272,base_link,0.27569179670086597,0.09386227332729853,0.01843722316052939,0.054365064948797226,0.009079598821699607,-0.10025698691606522
2025/07/05/17:44:16.123812,7288,1751712256,119725440,base_link,0.276712669097394,0.09438853664459373,0.014828727604387398,-0.003989848308265209,0.01949219964444636,-0.11115141212940216
2025/07/05/17:44:16.225460,7289,1751712256,222732864,base_link,0.2910627931732193,0.09286283832966827,0.012877788154179393,-0.048315007239580154,0.016607845202088342,-0.11729436367750168
2025/07/05/17:44:16.322729,7290,1751712256,319740544,base_link,0.28648121618152095,0.09159218388965804,0.014272790057136279,-0.04679175093770027,0.0033113188110291815,-0.11707038432359695
2025/07/05/17:44:16.462973,7291,1751712256,458753600,base_link,0.2732434922847338,0.08331972258387994,0.008597268180872086,-0.020341377705335617,-0.006941952742636218,-0.11146456003189087
2025/07/05/17:44:16.584406,7292,1751712256,578759744,base_link,0.26022983414668005,0.07974729171074668,0.01154767297150706,0.01468178816139698,-8.501717820764656e-05,-0.08717116713523865
2025/07/05/17:44:16.663515,7293,1751712256,659767680,base_link,0.28932726329728753,0.07746407772304105,0.011727087189373226,0.029848434031009674,0.003215855918824663,-0.07924925535917282
2025/07/05/17:44:16.742851,7294,1751712256,738767680,base_link,0.32670261637289194,0.09584480817074394,0.01747857916706611,0.04761588200926781,-0.012920456938445577,-0.0715775117278099
2025/07/05/17:44:16.827892,7295,1751712256,822775872,base_link,0.35124224692296563,0.10628946042648883,0.020417505947232857,0.09317275881767273,-0.03166825696825982,-0.08359219133853912
2025/07/05/17:44:16.942887,7296,1751712256,938782528,base_link,0.41060632644901046,0.109546050171334,0.026323050581400477,0.0941850021481514,-0.022749055176973357,-0.10158771276473999
2025/07/05/17:44:17.062945,7297,1751712257,59794048,base_link,0.45960795223746753,0.12257018074958743,0.03748724616770579,0.03602222725749016,-0.011341985315084475,-0.14377856254577637
2025/07/05/17:44:17.163689,7298,1751712257,159801728,base_link,0.48628781101811547,0.13108422463862976,0.03056609381453671,-0.019782209768891335,-0.0002053785137832373,-0.1699191778898239
2025/07/05/17:44:17.226170,7299,1751712257,222801728,base_link,0.5048365890379884,0.12371262175649074,0.03912073791183221,-0.056842658668756485,0.004897180479019859,-0.17799969017505646
2025/07/05/17:44:17.323430,7300,1751712257,319808896,base_link,0.5252442779302187,0.1496972204917766,0.041804950154963744,-0.06605026125907898,0.008889781311154343,-0.18026621639728546
2025/07/05/17:44:17.523533,7301,1751712257,519819904,base_link,0.5570360656351975,0.15394939720782874,0.048669211878622304,-0.009956149384379387,0.017226254567503905,-0.18890932202339172
2025/07/05/17:44:17.625875,7302,1751712257,622826816,base_link,0.563400760825844,0.15623821787329475,0.05596447261793357,0.04671093821525574,0.004376676399260737,-0.1873587667942047
2025/07/05/17:44:17.723808,7303,1751712257,719833728,base_link,0.5596020705041251,0.16213274558152396,0.056039360755199996,0.04472065344452858,-0.0042669512331485965,-0.17887789011001587
2025/07/05/17:44:17.805799,7304,1751712257,800841920,base_link,0.5402211988433869,0.16355815553087008,0.05290720622400773,0.04577066749334335,-0.0026916984934359997,-0.17013126611709595
2025/07/05/17:44:17.904275,7305,1751712257,900847808,base_link,0.5310718660678506,0.15545932316062883,0.05570352514893293,0.03428390622138977,0.002883458975702506,-0.150180384516716
2025/07/05/17:44:18.027426,7306,1751712258,22852928,base_link,0.515085564234688,0.1470465310435171,0.052529554300954406,0.024472087621688843,0.008886137977242454,-0.12246869504451752
2025/07/05/17:44:18.103870,7307,1751712258,99858048,base_link,0.49814979538578297,0.14889981045006975,0.051053311476088284,0.020891275256872177,0.010006401687860475,-0.1094367578625679
2025/07/05/17:44:18.204548,7308,1751712258,200863936,base_link,0.4788149778383807,0.1513598219588203,0.04746288164764449,0.015935219824314117,0.006689633242785918,-0.1038074940443039
2025/07/05/17:44:18.284147,7309,1751712258,279870592,base_link,0.46636247550128174,0.15738827685816037,0.04701757945163533,0.009882957674562931,0.0010269812773913017,-0.10443026572465897
2025/07/05/17:44:18.444246,7310,1751712258,438876224,base_link,0.443598711292266,0.16529991639796787,0.0458398728447158,0.0024106204509735107,-0.005135518033057464,-0.10838663578033447
2025/07/05/17:44:18.584251,7311,1751712258,578889792,base_link,0.4236912695411438,0.1717270346339805,0.04334362258364453,0.008873764425516129,-0.007514640688896193,-0.11625777184963226
2025/07/05/17:44:18.642127,7312,1751712258,639889792,base_link,0.4158179017804542,0.1730947463281304,0.041624794366890316,0.01409680861979723,-0.00827892124652864,-0.11446765065193176
2025/07/05/17:44:18.742909,7313,1751712258,738897984,base_link,0.4058222777362238,0.1647335184449267,0.04125166364990253,0.01579168625175953,-0.012064400129020228,-0.1088414192199707
2025/07/05/17:44:18.825415,7314,1751712258,822904384,base_link,0.39775062669059846,0.15600821434404386,0.03948694438173862,0.016447454690933228,-0.014054190367460263,-0.09838949143886566
2025/07/05/17:44:18.923971,7315,1751712258,919910272,base_link,0.3858483883670259,0.14763717710671387,0.0381521075721026,0.01564398780465126,-0.013103997334837924,-0.08228744566440582
2025/07/05/17:44:19.025424,7316,1751712259,21916672,base_link,0.37529138275085805,0.14003003711703427,0.037957602279602945,0.028720539063215256,-0.0017641021404415443,-0.06048110872507095
2025/07/05/17:44:19.103440,7317,1751712259,100922048,base_link,0.4008082318840753,0.1360187021577906,0.03715342440616007,0.033125340938568115,0.008506570011377328,-0.05002091825008392
2025/07/05/17:44:19.205435,7318,1751712259,200930752,base_link,0.428611589376151,0.15055902116132822,0.04167836675411449,0.03545890003442764,-0.0024040341377258357,-0.04441097006201744
2025/07/05/17:44:19.304027,7319,1751712259,300937920,base_link,0.4079194966769845,0.15878164021513938,0.055678826971069,0.05781220644712448,-0.0024077873677015404,-0.08045698702335358
2025/07/05/17:44:19.462571,7320,1751712259,459950464,base_link,0.3993163573967708,0.14980511172366942,0.05342958012801968,0.014037929475307465,0.017645267769694314,-0.11645426601171494
2025/07/05/17:44:19.606158,7321,1751712259,600957888,base_link,0.39011956486726496,0.15503708039202005,0.04919340761274668,-0.07963204383850098,0.00832176581025122,-0.1296754777431488
2025/07/05/17:44:19.683949,7322,1751712259,678963520,base_link,0.38290447336123207,0.1546554296256848,0.04485058323077562,-0.04320628196001053,-0.002338615013286486,-0.1206779032945633
2025/07/05/17:44:19.804134,7323,1751712259,800968640,base_link,0.3742595347647112,0.14496405765735548,0.038384188311383294,0.031243683770298958,-0.015594108030200017,-0.09835813194513321
2025/07/05/17:44:19.882772,7324,1751712259,878974272,base_link,0.36420934491370494,0.13684214568581313,0.0359913121351139,0.08894114196300507,-0.02293340675532819,-0.07114183157682419
2025/07/05/17:44:20.004991,7325,1751712260,982976,base_link,0.34698762983654946,0.12249672407239166,0.03507638923832096,0.10627198219299316,-0.0148982871323824,-0.05301788076758385
2025/07/05/17:44:20.123933,7326,1751712260,119991936,base_link,0.3363281473535721,0.11205322658399867,0.03828905403429929,0.05990203469991684,0.0027576270513236458,-0.05266191065311432
2025/07/05/17:44:20.226011,7327,1751712260,223000384,base_link,0.32780161757047205,0.11145559332549754,0.04250519289432659,-0.017206700518727303,0.018760284408926957,-0.06403234601020813
2025/07/05/17:44:20.304273,7328,1751712260,301009088,base_link,0.3252013603079407,0.11376735217320554,0.04210214649309296,-0.07587024569511414,0.023628078401088704,-0.08124074339866638
2025/07/05/17:44:20.483580,7329,1751712260,479022656,base_link,0.33374523213011026,0.1252754257593926,0.03857891550202088,-0.09236489236354828,0.008996941149234761,-0.08762937784194946
2025/07/05/17:44:20.604391,7330,1751712260,601028800,base_link,0.3285465180242744,0.12206083933665655,0.03773162180801026,0.05322735384106636,-0.023689812049269687,-0.07813644409179688
2025/07/05/17:44:20.704753,7331,1751712260,701037248,base_link,0.3313348213024494,0.11552200038703447,0.0343140090235395,0.11589227616786957,-0.0205384660512209,-0.06260888278484344
2025/07/05/17:44:20.805053,7332,1751712260,801043136,base_link,0.32105723724243146,0.10320785701971982,0.03698714298969817,0.11328612267971039,-0.007086183410137898,-0.04944350942969322
2025/07/05/17:44:20.943331,7333,1751712260,939051072,base_link,0.31562308370660774,0.08727807666627899,0.0360895230497802,0.053059689700603485,0.006138968281447881,-0.04725957289338112
2025/07/05/17:44:21.025692,7334,1751712261,23057216,base_link,0.31619915253351716,0.09785667928061274,0.039675213919917844,-0.03809013590216637,0.013613671995699399,-0.06358049064874649
2025/07/05/17:44:21.104218,7335,1751712261,101062592,base_link,0.3128529080631595,0.1025309382123568,0.04223647922822951,-0.07865223288536072,0.013368921354413022,-0.08282651752233505
2025/07/05/17:44:21.205786,7336,1751712261,201068736,base_link,0.3131895706022984,0.1126336678990195,0.04970864455089092,-0.09552547335624695,0.008588518016040313,-0.10031917691230774
2025/07/05/17:44:21.303998,7337,1751712261,301074880,base_link,0.3091125831697436,0.11829448906804016,0.05507692738575031,-0.04994070529937744,0.0004514288157224524,-0.1069910004734993
2025/07/05/17:44:21.442581,7338,1751712261,440081280,base_link,0.30671111304379084,0.12248037994614143,0.04730027095241476,0.038818296045064926,-0.0068554230965674045,-0.10096663236618042
2025/07/05/17:44:21.582655,7339,1751712261,579097664,base_link,0.30512464752451796,0.11061092039212572,0.03771869344508744,0.12611623108386993,-0.012552552856504926,-0.07313454151153564
2025/07/05/17:44:21.684345,7340,1751712261,680103808,base_link,0.2975840096916806,0.09128699804141902,0.03902573518198387,0.07687036693096161,-0.009956967085599906,-0.06233516335487366
2025/07/05/17:44:21.763512,7341,1751712261,759109952,base_link,0.29738000182266366,0.08903818983800563,0.03865580360565212,0.014360939152538776,-0.0061595840379595835,-0.06169706955552101
2025/07/05/17:44:21.863299,7342,1751712261,859116352,base_link,0.2913946770401196,0.08327263697784588,0.048106504147313336,-0.04616054892539978,0.000986903673037878,-0.07106442749500275
2025/07/05/17:44:21.984792,7343,1751712261,979121472,base_link,0.2915775893967773,0.08757373245425838,0.04900715453540024,-0.07114294171333313,0.009961845353245725,-0.08673436939716339
2025/07/05/17:44:22.084426,7344,1751712262,79128128,base_link,0.2940938756608149,0.0858322231270337,0.052041825355951025,-0.05888133868575096,0.015054609626531589,-0.09602366387844086
2025/07/05/17:44:22.183989,7345,1751712262,179134272,base_link,0.2978431860487573,0.09545148016114384,0.045837529321353744,-0.015495925210416317,0.008962356485426414,-0.09883090853691101
2025/07/05/17:44:22.282510,7346,1751712262,279140672,base_link,0.2981883235487559,0.09547057572271936,0.032674884222865824,0.04710259288549423,-0.0035162784624844907,-0.0957384780049324
2025/07/05/17:44:22.405428,7347,1751712262,401146560,base_link,0.29221538176540846,0.07851489303018998,0.03248950474449246,0.0944269448518753,-0.018010269850492488,-0.08276305347681046
2025/07/05/17:44:22.562605,7348,1751712262,559159616,base_link,0.28674800545135665,0.056022923247829745,0.037517777983631075,0.07725457847118378,-0.017155565321445472,-0.05625452101230621
2025/07/05/17:44:22.644105,7349,1751712262,640159616,base_link,0.2815858185257267,0.0607955888887115,0.042849653672378724,0.015502727590501308,-0.0005392953753471445,-0.05760859325528145
2025/07/05/17:44:22.743256,7350,1751712262,739166016,base_link,0.27656649279541373,0.05197504294062927,0.04632362701291826,-0.02769707329571247,0.012438958510756484,-0.07483590394258499
2025/07/05/17:44:22.825552,7351,1751712262,823172416,base_link,0.27842340113982283,0.054022664748828886,0.04753068615606067,-0.07554814964532852,0.019778842106461515,-0.09371300786733627
2025/07/05/17:44:22.923998,7352,1751712262,920177536,base_link,0.27153101435970933,0.054508746684546985,0.04633223398392895,-0.10246659070253372,0.018925141543149934,-0.10763714462518692
2025/07/05/17:44:23.026001,7353,1751712263,23184448,base_link,0.2699612820907497,0.057034455104211464,0.03990692033069069,-0.05432714894413948,0.002638311823829995,-0.10946387052536011
2025/07/05/17:44:23.104386,7354,1751712263,101191872,base_link,0.2733951020147022,0.06235859496248361,0.03281999155530339,0.0305173322558403,-0.01081997621804477,-0.09680883586406708
2025/07/05/17:44:23.204826,7355,1751712263,201197760,base_link,0.2835972373102798,0.052962813022320594,0.03097042284300995,0.13204190135002136,-0.02094794064760209,-0.0736260935664177
2025/07/05/17:44:23.323661,7356,1751712263,320203904,base_link,0.27811235198539846,0.03809951307106431,0.03137409356688953,0.1614406257867813,-0.02387656085193158,-0.058646026998758316
2025/07/05/17:44:23.483042,7357,1751712263,479214144,base_link,0.26748320092190386,0.02638480345111717,0.03740671808239775,0.08324634283781052,-0.009842280298471458,-0.06142697110772133
2025/07/05/17:44:23.583520,7358,1751712263,580220032,base_link,0.26511591199935347,0.027928175101755947,0.04230664152608812,-0.1031898632645607,0.019373469054698934,-0.09802470356225967
2025/07/05/17:44:23.683491,7359,1751712263,680225152,base_link,0.26660283731147205,0.03481115702053474,0.046772436788717266,-0.13691529631614685,0.020914236083626733,-0.1199488565325737
2025/07/05/17:44:23.784844,7360,1751712263,779230528,base_link,0.2666879233208503,0.041769770370477015,0.04542747746107577,-0.06994649767875671,0.008377165533602224,-0.11373604089021683
2025/07/05/17:44:23.862753,7361,1751712263,859236160,base_link,0.27002793304682665,0.054064210049778676,0.04315104805933752,0.031099870800971985,-0.005537949036806834,-0.09914984554052353
2025/07/05/17:44:23.962795,7362,1751712263,959243072,base_link,0.2668412300058739,0.04524729272181638,0.040483839478027195,0.12911824882030487,-0.0176273211836815,-0.07987925410270691
2025/07/05/17:44:24.042352,7363,1751712264,40243072,base_link,0.2673046738964339,0.042780497782246775,0.034994843277901776,0.172062486410141,-0.01916483789682389,-0.0564686618745327
2025/07/05/17:44:24.143036,7364,1751712264,139249216,base_link,0.2613990372248637,0.024446309928309685,0.033625297033535374,0.11649544537067413,-0.010043044574558742,-0.054030537605285645
2025/07/05/17:44:24.226596,7365,1751712264,223255872,base_link,0.2570071936078225,0.023821552048471167,0.035398382779874636,-0.003195476718246937,0.007091253995895377,-0.06979227811098099
2025/07/05/17:44:24.323973,7366,1751712264,320263040,base_link,0.25298571952536186,0.02085450815984056,0.04070786505333952,-0.08917879313230515,0.018963143229484548,-0.09243675321340561
2025/07/05/17:44:24.504068,7367,1751712264,501276864,base_link,0.24672156766087783,0.025577920952365964,0.04500747529314152,-0.15192139148712158,0.018369339406490312,-0.11131969094276428
2025/07/05/17:44:24.625844,7368,1751712264,623285312,base_link,0.24337642367227272,0.014111095186312237,0.04064622141573302,-0.015690576285123825,-0.01750834845006467,-0.07871484011411667
2025/07/05/17:44:24.722983,7369,1751712264,720290432,base_link,0.23750303949121923,0.010639391247913658,0.034805495358409336,0.07569702714681625,-0.023047018796205524,-0.033722326159477234
2025/07/05/17:44:24.804920,7370,1751712264,801296832,base_link,0.2336695708447942,-0.011472426960788953,0.03036445554309411,0.17293553054332733,-0.01130937971174717,0.002409856999292971
2025/07/05/17:44:24.922917,7371,1751712264,920303232,base_link,0.22734931268342295,-0.023832094400504936,0.03467992438618375,0.1314132809638977,0.007815336808562282,0.030738865956664085
2025/07/05/17:44:25.026106,7372,1751712265,23310144,base_link,0.2223107977980159,-0.030067393257494423,0.04330322345642344,-0.022614581510424614,0.022954750806093216,0.003328858874738214
2025/07/05/17:44:25.123773,7373,1751712265,120316800,base_link,0.2197918177224515,-0.02873070331079985,0.050196246447782575,-0.1178489625453949,0.017168760299682614,-0.019724717363715175
2025/07/05/17:44:25.225734,7374,1751712265,223324736,base_link,0.21779048101434934,-0.023554248124239268,0.05040795055112435,-0.1680835336446762,-0.0017919635865837377,-0.033232927322387695
2025/07/05/17:44:25.304406,7375,1751712265,301329600,base_link,0.21483283128977188,-0.021888654227653362,0.04393389795867747,-0.11431516706943512,-0.016370497643947605,-0.024326534941792485
2025/07/05/17:44:25.462966,7376,1751712265,459341888,base_link,0.20792690491416768,-0.02893916882467122,0.03163669999915118,0.031452637165784836,-0.023860454559326172,0.01231931243091822
2025/07/05/17:44:25.584011,7377,1751712265,579347264,base_link,0.20198149674573718,-0.04216821539074668,0.03154176788490973,0.1816491186618805,0.00620508752763272,0.05818065628409386
2025/07/05/17:44:25.684424,7378,1751712265,679353408,base_link,0.19524709918590066,-0.04684574946667163,0.03928234870856489,0.08520085364580154,0.021784249693155292,0.04242905229330063
2025/07/05/17:44:25.804203,7379,1751712265,800358016,base_link,0.18904711396916465,-0.044790505021004505,0.04917895089559743,-0.07143018394708633,0.021205540746450424,0.00260860822163522
2025/07/05/17:44:25.883960,7380,1751712265,879363648,base_link,0.18755174423070403,-0.03916742138423521,0.04860473735090242,-0.18750368058681488,0.00490182405337691,-0.02885567955672741
2025/07/05/17:44:25.983505,7381,1751712265,979368768,base_link,0.18585714438743312,-0.03355479645058652,0.04073492990970876,-0.1813776195049286,-0.012090410105884079,-0.03275918960571289
2025/07/05/17:44:26.083881,7382,1751712266,80374144,base_link,0.18485028584227403,-0.03386239372334524,0.03239878670569366,-0.009680328890681267,-0.023422515019774437,0.0018169241957366495
2025/07/05/17:44:26.184327,7383,1751712266,180379008,base_link,0.18164030958688998,-0.038774047416947344,0.029569637591915273,0.15129314363002777,-0.012403480708599085,0.04350085183978081
2025/07/05/17:44:26.304089,7384,1751712266,300384896,base_link,0.17667786278302214,-0.046353535396516744,0.03647742560820591,0.1934724897146225,0.009134646505117423,0.057935930788517
2025/07/05/17:44:26.426789,7385,1751712266,423389504,base_link,0.17290379816223847,-0.04414979925359528,0.04676241632272886,0.08135294169187546,0.022796452045440677,0.03783237934112549
2025/07/05/17:44:26.543121,7386,1751712266,539394880,base_link,0.17544463459693865,-0.03694071002921853,0.049363381426444634,-0.1472163200378418,0.012165895663201807,-0.0187934972345829
2025/07/05/17:44:26.604772,7387,1751712266,601399744,base_link,0.17599117935118286,-0.03223519681156948,0.0442849903496029,-0.19075973331928253,-0.008569639176130298,-0.032186612486839294
2025/07/05/17:44:26.704511,7388,1751712266,701405120,base_link,0.1765293900194636,-0.030412923673124537,0.03405480885271154,-0.10437403619289398,-0.02157278917729855,-0.01849425211548805
2025/07/05/17:44:26.805474,7389,1751712266,801413312,base_link,0.1726088348892506,-0.033684924640973786,0.027691801399011524,0.06736849248409271,-0.0210321694612503,0.019823797047138218
2025/07/05/17:44:26.942353,7390,1751712266,939421504,base_link,0.17055980599570214,-0.04155697853100499,0.031976694859779824,0.1784379482269287,-0.0016463936772197429,0.04609965533018112
2025/07/05/17:44:27.025666,7391,1751712267,23427392,base_link,0.16789211973801627,-0.03899548230295217,0.0402053818288924,0.11290234327316284,0.02159335464239121,0.034984637051820755
2025/07/05/17:44:27.122959,7392,1751712267,120433024,base_link,0.16549884864797032,-0.03460032600597651,0.04901751352385587,-0.012891038320958614,0.02245841547846794,0.005821800790727136
2025/07/05/17:44:27.204762,7393,1751712267,201433024,base_link,0.16575874546939337,-0.028944245411334262,0.049604701956204825,-0.15588976442813873,0.007349440827965733,-0.0281244907528162
2025/07/05/17:44:27.303726,7394,1751712267,301439680,base_link,0.16493646043200927,-0.019054878144237578,0.04137893847211611,-0.1674652397632599,-0.013731112703680996,-0.03241068124771118
2025/07/05/17:44:27.442559,7395,1751712267,439445824,base_link,0.1632499672643923,-0.020899493502975545,0.029287187782422362,-0.02304389327764511,-0.023505333811044693,-0.0067371609620749924
2025/07/05/17:44:27.603856,7396,1751712267,601458880,base_link,0.15971557536838699,-0.026769435245940564,0.03622644534079648,0.17002835869789124,0.007098482921719556,0.03984450548887253
2025/07/05/17:44:27.684443,7397,1751712267,679464000,base_link,0.157411158741788,-0.024371317874596562,0.04577475115757253,0.08717092126607895,0.021895539015531543,0.02458544075489044
2025/07/05/17:44:27.804034,7398,1751712267,801470656,base_link,0.15503572109126584,-0.020747827418733305,0.053702543830479094,-0.06207973510026932,0.015842191874980927,-0.010697013698518278
2025/07/05/17:44:27.923961,7399,1751712267,920476544,base_link,0.15497388400977258,-0.012067248872540069,0.046804569143824415,-0.15553626418113708,-0.005456077400594953,-0.03032490238547325
2025/07/05/17:44:28.004490,7400,1751712268,1482688,base_link,0.15369878429564732,-0.009645529341043036,0.03732213342997836,-0.07603616267442703,-0.02155452407896519,-0.01485422998666763
2025/07/05/17:44:28.122898,7401,1751712268,120488832,base_link,0.15275606365604144,-0.011189171668804225,0.02983970342763692,0.06987066566944122,-0.012054938822984694,0.015165995806455614
2025/07/05/17:44:28.204750,7402,1751712268,201488832,base_link,0.14987917239092527,-0.012334409911622808,0.034272933586627946,0.1374836415052414,0.009408945217728618,0.032206714153289795
2025/07/05/17:44:28.304390,7403,1751712268,300493440,base_link,0.14639267084438978,-0.011468691124497554,0.0440260624583427,0.07819768786430359,0.020660305395722393,0.019156485795974728
2025/07/05/17:44:28.462886,7404,1751712268,460507008,base_link,0.14287280286910448,-0.0032916079086260405,0.053125037719477006,-0.05002710968255997,0.012223256751894949,-0.010119034908711912
2025/07/05/17:44:28.605911,7405,1751712268,601507008,base_link,0.1416241588115978,0.0010465254864488458,0.040890492880190615,-0.08060494810342789,-0.01803411915898323,-0.014033824205398558
2025/07/05/17:44:28.705120,7406,1751712268,701507008,base_link,0.1385227648585121,-0.0012810510152268583,0.032754958200036065,0.054151300340890884,-0.013206416741013525,0.015783565118908882
2025/07/05/17:44:28.804425,7407,1751712268,801507008,base_link,0.13519834271769224,-0.005823425850064177,0.03338399615395839,0.12865208089351654,0.003978286869823937,0.03493515029549599
2025/07/05/17:44:28.922867,7408,1751712268,920512384,base_link,0.1306130210157718,-0.005383199348444834,0.04275111638203054,0.07904555648565292,0.015625115483999256,0.02271218784153461
2025/07/05/17:44:29.004093,7409,1751712269,1519040,base_link,0.12769277544403748,-0.0012847336520859236,0.047264226413137905,-0.04640870541334152,0.011140822432935236,-0.007371402345597746
2025/07/05/17:44:29.102888,7410,1751712269,100524160,base_link,0.12702421443578524,0.002084691416143987,0.04704163757718111,-0.12266263365745544,4.4113956391808504e-05,-0.02342962473630905
2025/07/05/17:44:29.184334,7411,1751712269,180524160,base_link,0.12651331087138645,0.00409860071858644,0.0418352326665177,-0.10511112213134766,-0.013029737398028375,-0.01707402803003788
2025/07/05/17:44:29.284113,7412,1751712269,279529024,base_link,0.12444745719859997,-0.0009742230664982247,0.03468107150361367,0.020335782319307327,-0.012230709195137022,0.009821351617574694
2025/07/05/17:44:29.425573,7413,1751712269,423533632,base_link,0.12091143790690499,-0.008423327269803044,0.034740672479908044,0.1204395592212677,0.0018540665041655345,0.0346749909222126
2025/07/05/17:44:29.562946,7414,1751712269,560545664,base_link,0.11736545451590848,-0.010931608255568371,0.04612773938382966,0.01585671678185463,0.01410565059632063,0.008503954857587813
2025/07/05/17:44:29.662882,7415,1751712269,660552320,base_link,0.11510330277101055,-0.0074890237837204965,0.049142155153377984,-0.10835158079862595,0.0009188544936478114,-0.019109899178147316
2025/07/05/17:44:29.742730,7416,1751712269,739552320,base_link,0.11448507973849506,-0.0061180323980416906,0.0441636463069649,-0.13883282244205475,-0.010480678640306,-0.02359568327665329
2025/07/05/17:44:29.825647,7417,1751712269,823557184,base_link,0.11449290731810516,-0.006971022359095735,0.036874210872240534,-0.07598622143268585,-0.01724061369895935,-0.009174381382763384
2025/07/05/17:44:29.942863,7418,1751712269,939557184,base_link,0.11416747136022455,-0.010991696414129178,0.029706907496783376,0.03737375885248184,-0.012768693268299101,0.016624506562948227
2025/07/05/17:44:30.025849,7419,1751712270,23563072,base_link,0.11287018576206577,-0.012994377657279992,0.031877461208043786,0.13434477150440216,0.008372813463211065,0.041699331253767014
2025/07/05/17:44:30.103867,7420,1751712270,101568192,base_link,0.11034810226521767,-0.014198675335640676,0.03769865193401925,0.09989925473928452,0.017343237996101383,0.03234328329563141
2025/07/05/17:44:30.205591,7421,1751712270,201568192,base_link,0.10909973433678863,-0.012839260203502071,0.04337359702597923,-0.022596348077058792,0.013135069981217384,0.0032303927000612003
2025/07/05/17:44:30.323053,7422,1751712270,320568192,base_link,0.10596833102026688,-0.011001783034944061,0.0388860693017923,-0.12229293584823608,-0.003674039151519539,-0.017835065722465515
2025/07/05/17:44:30.445664,7423,1751712270,442573312,base_link,0.10440660393202955,-0.01236950837130681,0.02937881895519104,-0.10154209285974503,-0.01753346621990204,-0.010301459580659865
2025/07/05/17:44:30.583706,7424,1751712270,579587392,base_link,0.09927115093717115,-0.02325114758243321,0.026761354467277797,0.05735522508621216,-0.007062071003019807,0.02438228391110897
2025/07/05/17:44:30.663096,7425,1751712270,660594304,base_link,0.0962073749886629,-0.02408019150118435,0.031661879263305256,0.0981440544128418,0.014092417433857921,0.034285858273506165
2025/07/05/17:44:30.762572,7426,1751712270,760600704,base_link,0.095142353620392,-0.02445603623702072,0.03949809112973527,0.029249798506498337,0.016555568203330043,0.0145038990303874
2025/07/05/17:44:30.862011,7427,1751712270,859606848,base_link,0.09465266767043892,-0.020004909246224157,0.0404523591750596,-0.0694940909743309,0.0013282831059768787,-0.006907247938215733
2025/07/05/17:44:30.984187,7428,1751712270,979613504,base_link,0.09585381627099607,-0.01601153561864235,0.030897641919227344,-0.08155442774295807,-0.016620684415102005,-0.007542999926954506
2025/07/05/17:44:31.102583,7429,1751712271,100613504,base_link,0.09664127269356154,-0.0189494853661364,0.02527032490278594,0.006424983963370323,-0.014503965154290198,0.010517441667616369
2025/07/05/17:44:31.204112,7430,1751712271,201618112,base_link,0.09592279928306906,-0.0191459912185902,0.027915345301631228,0.07529821246862411,0.0032708509825170075,0.02783510833978653
2025/07/05/17:44:31.282849,7431,1751712271,280622976,base_link,0.09456779501054063,-0.01842335735011655,0.0336758539650827,0.061220474541187286,0.017309296876192096,0.02219128794968128
2025/07/05/17:44:31.404040,7432,1751712271,401628352,base_link,0.09322509394286423,-0.013129320418476647,0.040595694104206013,-0.01718142069876194,0.013252906501293182,0.0014171118382364496
2025/07/05/17:44:31.563191,7433,1751712271,559639872,base_link,0.09485604191335492,-0.008893955412450407,0.03234661251260208,-0.07946661859750748,-0.0064239241182804125,-0.014245648868381977
2025/07/05/17:44:31.625485,7434,1751712271,623639872,base_link,0.09443138126296652,-0.010647157141119978,0.027347811564512797,0.0010940348729491234,-0.014470729976892471,0.0032199956476688402
2025/07/05/17:44:31.723150,7435,1751712271,720639872,base_link,0.09125536655118056,-0.014702869327200241,0.026163288387096126,0.06097088009119034,-0.004896155558526514,0.017623314633965492
2025/07/05/17:44:31.825743,7436,1751712271,823639872,base_link,0.08798840420442101,-0.01364607875867476,0.032340670584778186,0.06710996478796005,0.010439643636345867,0.02135585807263851
2025/07/05/17:44:31.922828,7437,1751712271,920639872,base_link,0.08494650571157328,-0.010425163869568564,0.03959940667481554,0.020072048529982567,0.014551433734595777,0.008947281166911123
2025/07/05/17:44:32.022739,7438,1751712272,20646528,base_link,0.08148708156846185,-0.0058620431789304,0.039969946643665114,-0.06956429779529572,0.002454272704198955,-0.01218424178659916
2025/07/05/17:44:32.102237,7439,1751712272,101651648,base_link,0.07960136774123126,-0.006043533337375044,0.03313102169936842,-0.07594643533229828,-0.009373507462441923,-0.014489954337477682
2025/07/05/17:44:32.203501,7440,1751712272,201655488,base_link,0.07686577111199357,-0.01085030155457446,0.025580326013777525,-0.0063367486000061035,-0.014006899669766426,-0.0017096841474995
2025/07/05/17:44:32.303275,7441,1751712272,301661120,base_link,0.07495346491222721,-0.01380788158030519,0.024151682172456643,0.06797827780246735,-0.0023320107720792276,0.014542111195623875
2025/07/05/17:44:32.482126,7442,1751712272,479673664,base_link,0.0685055224804301,-0.009397181025729399,0.03621747684883146,0.0654623806476593,0.01338623557239771,0.01396689750254154
2025/07/05/17:44:32.604280,7443,1751712272,601679296,base_link,0.06673989314729817,-0.005911443730595939,0.036844417098655866,-0.06887451559305191,-7.277680560946669e-05,-0.01668582111597061
2025/07/05/17:44:32.722927,7444,1751712272,720679296,base_link,0.06433608747453971,-0.00665332923027022,0.025968166682881388,-0.052971091121435165,-0.01471511833369732,-0.013135260902345179
2025/07/05/17:44:32.825251,7445,1751712272,823683136,base_link,0.06115192877173628,-0.011974935945966199,0.021506173661364376,0.03849882259964943,-0.009743504226207733,0.004855998791754247
2025/07/05/17:44:32.903210,7446,1751712272,901683136,base_link,0.05802587916749373,-0.014498809771144002,0.02380661407594778,0.061932507902383804,0.004199803806841374,0.010322501882910728
2025/07/05/17:44:33.025788,7447,1751712273,23687488,base_link,0.05453354526548941,-0.014384411577995413,0.029136919317817738,0.01404811441898346,0.01576714776456356,-0.0004399468889459987
2025/07/05/17:44:33.102593,7448,1751712273,100692096,base_link,0.051863319346868775,-0.013329773087100644,0.02987655524628688,-0.035507459193468094,0.009293435141444205,-0.010302148759365084
2025/07/05/17:44:33.203993,7449,1751712273,201692096,base_link,0.04911401474979852,-0.014108182046879823,0.02525506491500197,-0.050775863230228424,-0.007338218856602909,-0.011580934748053549
2025/07/05/17:44:33.302659,7450,1751712273,300696960,base_link,0.04594691784084808,-0.016759967057526158,0.01897642171257061,-0.01219726912677288,-0.015278792008757591,-0.003128399606794117
2025/07/05/17:44:33.383319,7451,1751712273,380701824,base_link,0.042772057530100424,-0.019668695233419638,0.017203027974843906,0.047220099717378616,-0.009513350203633307,0.007572348229587079
2025/07/05/17:44:33.542003,7452,1751712273,540706944,base_link,0.03432544702792698,-0.019714138053462935,0.02165072212446896,0.016824759542942047,0.01241734717041254,-0.00045906309969723376
2025/07/05/17:44:33.625331,7453,1751712273,623712320,base_link,0.03182646856852566,-0.01784131647613056,0.022571743039012753,-0.04707280173897743,0.010750059038400648,-0.012311926111578943
2025/07/05/17:44:33.741881,7454,1751712273,739712320,base_link,0.028613897695355914,-0.01746730831438875,0.017873214547195013,-0.06687615066766739,0.0018348414450883848,-0.01469443365931511
2025/07/05/17:44:33.825801,7455,1751712273,823716928,base_link,0.026525030406051267,-0.01911309842171153,0.011626898705833895,-0.020829999819397926,-0.008627120405435562,-0.005057822912931441
2025/07/05/17:44:33.922936,7456,1751712273,920716928,base_link,0.022660174976557135,-0.026946691216635264,0.006256429348092264,0.04105009883642197,-0.009045283310115337,0.005588752683252097
2025/07/05/17:44:34.025801,7457,1751712274,23722816,base_link,0.0172406671823677,-0.03090691798760402,0.007919163336412962,0.06693702936172485,0.0004985639825463311,0.013427731581032276
2025/07/05/17:44:34.103329,7458,1751712274,101726912,base_link,0.012728280886928692,-0.0323258004739471,0.009619618751266951,0.02894573286175728,0.005702036432921887,0.0060045337304472915
2025/07/05/17:44:34.203610,7459,1751712274,201726912,base_link,0.00728087695815772,-0.029715118800289937,0.010682656035337528,-0.0431305430829525,0.0042646550573408595,-0.0063009774312376985
2025/07/05/17:44:34.281919,7460,1751712274,279731776,base_link,0.00443921007636063,-0.029475191888478823,0.007153435460987499,-0.0681605339050293,-0.0010590611491352333,-0.010327816009521484
2025/07/05/17:44:34.403772,7461,1751712274,401738176,base_link,-0.0001235027702777121,-0.03022285295712788,-0.0005106330837441776,-0.028648391366004944,-0.005787612870335579,-0.0026130015030503264
2025/07/05/17:44:34.562907,7462,1751712274,560751232,base_link,-0.008172011577191971,-0.039465729664664724,-0.0007306474862827732,0.057813309133052826,0.0010902644135057944,0.014155486598610878
2025/07/05/17:44:34.663015,7463,1751712274,660757376,base_link,-0.012437265921105186,-0.039496718322267005,0.0030538631960733385,0.014164416119456291,0.008530076593160631,0.007264366373419761
2025/07/05/17:44:34.781666,7464,1751712274,779763520,base_link,-0.016433624767168194,-0.03713287702877043,0.003859026749214787,-0.04499111324548721,0.005004942882806062,-0.004956766031682492
2025/07/05/17:44:34.881744,7465,1751712274,879768896,base_link,-0.019530932462959356,-0.03801913719322667,-0.0010985109421426025,-0.0387059785425663,-0.0062141353264451036,-0.003561158897355198
2025/07/05/17:44:34.981743,7466,1751712274,979774528,base_link,-0.02301222023810632,-0.04216533285018219,-0.005412025084547354,0.012374510057270527,-0.010389951057732105,0.007029173430055381
2025/07/05/17:44:35.061937,7467,1751712275,59779136,base_link,-0.026363727400654256,-0.0480764648977385,-0.003812534051141652,0.05432586371898651,-0.005170296877622603,0.017497563734650612
2025/07/05/17:44:35.123208,7468,1751712275,121779136,base_link,-0.02892853697262055,-0.04898841011206501,-0.00036282951711618,0.036308370530605316,0.002582471119239928,0.015361188910901546
2025/07/05/17:44:35.224831,7469,1751712275,223784768,base_link,-0.03333464390705459,-0.0481123239854818,0.0031883298146677696,-0.007760828360915184,0.007977832108736038,0.00504616368561983
2025/07/05/17:44:35.322593,7470,1751712275,320784768,base_link,-0.03503617609141195,-0.047771494556850695,0.0017909001630445637,-0.04589466005563736,0.00698524247854948,-0.005675699096173049
2025/07/05/17:44:35.481974,7471,1751712275,479792960,base_link,-0.03764764150961072,-0.052666543859620815,-0.003827270655956081,-0.038630541414022446,-0.00035528885200619757,-0.004903062712401152
2025/07/05/17:44:35.582081,7472,1751712275,579797312,base_link,-0.040053569229266346,-0.05818007703596737,-0.002674441271154739,0.04346663877367973,-0.0034863827750086767,0.014838808216154575
2025/07/05/17:44:35.681640,7473,1751712275,679802432,base_link,-0.04379228029994467,-0.05856455682341176,0.0009944148053177056,0.020547106862068176,0.003900245297700168,0.011066891252994537
2025/07/05/17:44:35.781814,7474,1751712275,779807040,base_link,-0.04544947733087121,-0.057895003208855524,0.002087731535030589,-0.027775727212429047,0.005565276835113764,-0.0026921292301267394
2025/07/05/17:44:35.902546,7475,1751712275,900810624,base_link,-0.04494735904343731,-0.05953548802038766,-0.0024903150065905986,-0.040871426463127136,-0.002106491010636092,-0.006828021258115768
2025/07/05/17:44:35.982864,7476,1751712275,980810624,base_link,-0.04657315810526036,-0.06296450140084622,-0.004253893785679679,0.0024473508819937706,-0.008635262958705425,0.006276875268667937
2025/07/05/17:44:36.081839,7477,1751712276,79815488,base_link,-0.049847301360166484,-0.06775175223530926,-0.001824798163003702,0.044011201709508896,-0.0042579043656587575,0.020970676094293594
2025/07/05/17:44:36.181993,7478,1751712276,179819840,base_link,-0.053606236796687565,-0.06796101964762657,0.003155931494035105,0.02683393657207489,0.007079043891280892,0.019417088478803635
2025/07/05/17:44:36.281749,7479,1751712276,280824704,base_link,-0.05555895940533317,-0.06592863449336901,0.005181367332346797,-0.026065882295370102,0.011667932383716106,0.002252050908282398
2025/07/05/17:44:36.382012,7480,1751712276,380829312,base_link,-0.05585446297057116,-0.06506500574357718,0.002021926322917325,-0.051182109862565994,0.0032688535284250966,-0.00880054384469986
2025/07/05/17:44:36.562703,7481,1751712276,560840064,base_link,-0.057336346420420584,-0.06896227251197014,-0.0037421564094747067,0.013627715408802032,-0.00976792350411415,0.010077419690787794
2025/07/05/17:44:36.662816,7482,1751712276,660845696,base_link,-0.05966750129651347,-0.0717941900675109,-0.00037034512036361947,0.03263925015926361,-0.0018324812408536649,0.018818745389580727
2025/07/05/17:44:36.741641,7483,1751712276,739845696,base_link,-0.06075727698981976,-0.07195703267212371,0.0012075872297537225,0.011592925526201725,0.00530432350933552,0.01190793514251709
2025/07/05/17:44:36.825267,7484,1751712276,823850048,base_link,-0.06181797256224527,-0.07296388780166202,0.0008280089187933789,-0.014473184011876583,0.006813126150518656,-0.0003596362366806724
2025/07/05/17:44:36.962001,7485,1751712276,959854400,base_link,-0.061129411176251446,-0.07838500019090171,-0.004181907538912078,-0.009655090048909187,-0.00140321534126997,0.0001293325767619537
2025/07/05/17:44:37.061859,7486,1751712277,59858752,base_link,-0.061731514089394326,-0.08269871922297548,-0.0032682174675089325,0.01786556839942932,-0.005406213924288748,0.013042321428656578
2025/07/05/17:44:37.161788,7487,1751712277,160862592,base_link,-0.0630857302191578,-0.08393641021846754,0.0007516707704741041,0.01001956406980753,-0.0004650668706744891,0.01518223062157631
2025/07/05/17:44:37.242060,7488,1751712277,240862592,base_link,-0.06376541924199207,-0.08140317118211192,0.002886117605654468,-0.02505507320165634,0.005468779243528844,0.004745912738144397
2025/07/05/17:44:37.341564,7489,1751712277,339867712,base_link,-0.06337879088853357,-0.07933594168250209,0.0012281583623099251,-0.041364483535289764,0.005243310704827308,-0.0038805636577308182
2025/07/05/17:44:37.523409,7490,1751712277,520875904,base_link,-0.06200980077319531,-0.08001493406076664,-0.004890873178930015,-0.020421795547008514,0.0002480861730873582,-0.002286431845277548
2025/07/05/17:44:37.603721,7491,1751712277,601879744,base_link,-0.06289627692600973,-0.0807633122533873,-0.005300654509439189,0.04065902531147003,-0.001637191977351902,0.015577557496726513
2025/07/05/17:44:37.682126,7492,1751712277,679884096,base_link,-0.06371416366334393,-0.07965491525579291,-0.003227831600184934,0.03194531053304672,0.0008792390581220409,0.016568368300795555
2025/07/05/17:44:37.804025,7493,1751712277,801888448,base_link,-0.0640582835079064,-0.07792716242712336,-0.001963649766394739,-0.005398663692176342,0.0018460151040926587,0.00844083447009325
2025/07/05/17:44:37.881970,7494,1751712277,879893312,base_link,-0.06401179428219568,-0.0782841263409982,-0.0033036213059852645,-0.02731700986623764,-0.0023811121936887503,0.0017508235760033133
2025/07/05/17:44:38.003474,7495,1751712278,1898432,base_link,-0.0653166424617475,-0.0808525663416776,-0.0050116955767899665,-0.002982783131301403,-0.00629122694954276,0.007581176701933146
2025/07/05/17:44:38.103204,7496,1751712278,101898432,base_link,-0.06660241802111272,-0.08159238848869303,-0.0018661473710014443,0.01636562868952751,-0.0016835737042129022,0.01427482534199953
2025/07/05/17:44:38.203779,7497,1751712278,201902528,base_link,-0.06802304800660898,-0.07995769589095837,0.0021230076372086067,0.0008103232830762863,0.005768611095845701,0.013356411829590797
2025/07/05/17:44:38.322873,7498,1751712278,320906624,base_link,-0.0666334811664038,-0.07579328022426372,0.0019229563428919969,-0.02748960070312023,0.007978560402989388,0.004502976778894662
2025/07/05/17:44:38.481956,7499,1751712278,480906624,base_link,-0.06535719336196645,-0.07595417833801515,-0.004166757984782837,-0.02699362486600876,0.0034446651116013527,9.498078725300687e-05
2025/07/05/17:44:38.603497,7500,1751712278,601910464,base_link,-0.06626125222499997,-0.07780883256293795,-0.0013773528688708772,0.04239822179079056,-0.003442649496719239,0.017763659358024597
2025/07/05/17:44:38.703016,7501,1751712278,701910464,base_link,-0.06619191747419291,-0.07636539773575171,0.002198906885139419,0.02335396409034729,-0.0022705739829689243,0.01832442730665207
2025/07/05/17:44:38.803713,7502,1751712278,801914304,base_link,-0.06612803910088447,-0.07428665700024242,0.002995916676316414,-0.021093016490340233,-0.0019314950332045542,0.00999677088111639
2025/07/05/17:44:38.881699,7503,1751712278,880918912,base_link,-0.06482460990295197,-0.07340173913686851,0.0016612999115420291,-0.037515707314014435,-0.002511424710974097,0.004104244988411665
2025/07/05/17:44:39.002845,7504,1751712279,1923520,base_link,-0.06381983957587707,-0.07461362976476134,0.0021831695624773897,-0.01631920225918293,-0.001384220551699399,0.006575721316039562
2025/07/05/17:44:39.081717,7505,1751712279,79928640,base_link,-0.06259092434823625,-0.07346940749321368,0.005122304930095451,0.011912901885807514,0.0030564707703888434,0.013696668669581413
2025/07/05/17:44:39.204035,7506,1751712279,201933504,base_link,-0.062262514895653896,-0.06786393874771805,0.00824434094218845,0.004928795620799065,0.008581826463341715,0.013394933193922041
2025/07/05/17:44:39.302706,7507,1751712279,300937856,base_link,-0.06201580753103158,-0.06364904090420756,0.005549017789362771,-0.021102139726281166,0.007269288878887893,0.006249041762202977
2025/07/05/17:44:39.441869,7508,1751712279,440942208,base_link,-0.05982990131696014,-0.06436383950385242,-0.00029401987890646103,-0.009913517162203789,-0.003925807774066924,0.004137589130550624
2025/07/05/17:44:39.581784,7509,1751712279,580950400,base_link,-0.06072411787923107,-0.06688834951309539,0.0006854391154759451,0.04750577360391617,-0.00947135034948587,0.021680349484086037
2025/07/05/17:44:39.681902,7510,1751712279,679954496,base_link,-0.061925917372281494,-0.06559794685964022,0.004332645380947731,0.014886653050780296,0.0010407939553260825,0.017650889232754707
2025/07/05/17:44:39.761784,7511,1751712279,759954496,base_link,-0.06091300184211679,-0.06379128970272102,0.004177190478151859,-0.03028067573904991,0.0077216215431690225,0.007269180379807948
2025/07/05/17:44:39.861699,7512,1751712279,859954496,base_link,-0.058108247964659764,-0.0625437052160367,0.0013580837859524866,-0.053840674459934235,0.007460911758244038,-0.0010661936830729255
2025/07/05/17:44:39.961983,7513,1751712279,959954496,base_link,-0.05559521709583163,-0.061876938066018065,-0.0011099621954066222,-0.029812784865498543,0.0029033988248556857,0.0027341828681528564
2025/07/05/17:44:40.061482,7514,1751712280,60959104,base_link,-0.05389847070959196,-0.06125347349709041,-0.0008980760997679554,0.019969582557678223,-0.0010198885574936847,0.015236224979162216
2025/07/05/17:44:40.162051,7515,1751712280,160963200,base_link,-0.05266914019538944,-0.05867928146705346,0.00025921046810542525,0.021215636283159256,0.002043832093477251,0.014406959526240826
2025/07/05/17:44:40.261898,7516,1751712280,259968064,base_link,-0.048947776905797505,-0.05663448199861675,-8.604329520691886e-05,-0.0013249265030026436,0.0010274706874042758,0.006400448735803366
2025/07/05/17:44:40.341553,7517,1751712280,339968064,base_link,-0.04646184386705494,-0.05579083779878404,-0.004024531032575459,-0.007213570177555084,-0.004858164116740226,0.005605272483080626
2025/07/05/17:44:40.522755,7518,1751712280,520972672,base_link,-0.04248831368615625,-0.055327986268852374,-0.004493463371122131,0.010919115506112576,-0.010851000435650347,0.012769348919391634
2025/07/05/17:44:40.604039,7519,1751712280,601976256,base_link,-0.04187792443602808,-0.0532997085032146,-0.0008160579877247564,0.009499927051365376,0.002471750136464836,0.01460955385118723
2025/07/05/17:44:40.702875,7520,1751712280,701976256,base_link,-0.03912231933834014,-0.05083665686602787,0.0011596899022310436,-0.025435857474803925,0.010858135297894478,0.004958649165928362
2025/07/05/17:44:40.803727,7521,1751712280,801979840,base_link,-0.03716415695231017,-0.04785985896475476,-0.0008064928853786699,-0.03924209997057915,0.007965117692947388,0.00024082080926746032
2025/07/05/17:44:40.922941,7522,1751712280,920983424,base_link,-0.03337450651994001,-0.047468038754567406,-0.0019974557422905706,-0.009311923757195473,-0.0008054049685597413,0.0054849968291819096
2025/07/05/17:44:41.003853,7523,1751712281,1987520,base_link,-0.031554876994960214,-0.04640312359757955,-0.0006109854666272942,0.030558399856090546,-0.004527113400399683,0.01440368965268135
2025/07/05/17:44:41.122903,7524,1751712281,120987520,base_link,-0.02899096026787777,-0.04512287398139739,0.0021623696049250926,0.026543155312538147,-0.002378138015046714,0.012778121046721935
2025/07/05/17:44:41.204132,7525,1751712281,201987520,base_link,-0.02672627050282785,-0.04337818235198839,0.0034006755563451836,-0.0020797941833734512,-0.001108870841562747,0.006637334357947111
2025/07/05/17:44:41.302498,7526,1751712281,300991360,base_link,-0.025135048613343224,-0.04443833376326169,0.002153281477331994,-0.015487823635339737,-0.0038163918070495124,0.0044309571385383615
2025/07/05/17:44:41.425747,7527,1751712281,423994944,base_link,-0.0231310006009587,-0.04500321406940114,0.0019515510820422208,-0.005820143036544323,-0.004304612986743449,0.008889516815543175
2025/07/05/17:44:41.561808,7528,1751712281,560999808,base_link,-0.021373474831701697,-0.04268748489464609,0.00440733079991586,-0.0008356105536222458,0.008231290616095068,0.009706154465675352
2025/07/05/17:44:41.663149,7529,1751712281,661005440,base_link,-0.01993872132925948,-0.04056903949058765,0.004615662450507717,-0.01622532308101654,0.009116986766457558,0.0028238750528544175
2025/07/05/17:44:41.741870,7530,1751712281,740005440,base_link,-0.018857263381842484,-0.040717888386792134,0.003019637153518262,-0.016933944076299667,0.003761811414733529,0.001146353548392653
2025/07/05/17:44:41.825826,7531,1751712281,824010048,base_link,-0.017324586179841152,-0.041416829294821315,0.002923314499738878,-0.002272137440741062,-0.003421572037041187,0.004662252496927977
2025/07/05/17:44:41.902894,7532,1751712281,902013632,base_link,-0.017741357673128864,-0.042340382626963144,0.0021424330645396406,0.01398767065256834,-0.007358920760452746,0.011292739771306516
2025/07/05/17:44:42.025684,7533,1751712282,24013632,base_link,-0.016849932429929906,-0.041702176345090665,0.0032199977654028948,0.013473639264702797,-0.0034783140290528523,0.011564969085156918
2025/07/05/17:44:42.102717,7534,1751712282,101013632,base_link,-0.016362160080416466,-0.0417455893588792,0.004211377988333948,0.002349237911403179,-4.801177419721993e-05,0.007119017653167248
2025/07/05/17:44:42.202943,7535,1751712282,201017984,base_link,-0.015141790008130089,-0.04307736668762312,0.0038331137941133276,-0.005727784708142281,0.0012586897937580947,0.004044673405587673
2025/07/05/17:44:42.302716,7536,1751712282,302021568,base_link,-0.01595767293142325,-0.04396324839544164,0.0025854622518033947,-0.0015941793099045753,0.0010695962700992831,0.007153461221605539
2025/07/05/17:44:42.444946,7537,1751712282,443026176,base_link,-0.015421887791699358,-0.042941175460756785,0.0030618145851852925,-0.0016679530963301659,0.00261773611418903,0.010047382675111294
2025/07/05/17:44:42.561929,7538,1751712282,561030528,base_link,-0.015557050816268285,-0.04146293237281771,0.004183111397582439,-0.011784227564930916,0.004466718528419734,0.005070333834737538
2025/07/05/17:44:42.661414,7539,1751712282,660030528,base_link,-0.014834229598196372,-0.040804499586647155,0.0030583794889969475,-0.009171873331069946,0.0008072855416685345,0.002037575701251626
2025/07/05/17:44:42.743348,7540,1751712282,740030528,base_link,-0.01567686394542691,-0.04122722572069952,0.0027398230812572797,8.005928248167038e-05,-0.003407812910154461,0.005603875499218702
2025/07/05/17:44:42.824762,7541,1751712282,824030528,base_link,-0.01545510537264869,-0.040963326134599964,0.0030190435678630286,0.008761848323047161,-0.005987050943076609,0.011006648652255535
2025/07/05/17:44:42.903466,7542,1751712282,902030528,base_link,-0.01659242853263554,-0.04152455405357677,0.004043849844107316,0.011252366937696934,-0.005906331352889536,0.012996004894375801
2025/07/05/17:44:43.003594,7543,1751712283,2030528,base_link,-0.01717093900575484,-0.04221210069117964,0.005064076003238651,0.008493926376104355,-0.0005422749090939747,0.010593939572572708
2025/07/05/17:44:43.102426,7544,1751712283,102034112,base_link,-0.017034420732481036,-0.046237082396982015,0.005669691037174638,0.0005469787865877151,0.004913605749607087,0.007227198220789432
2025/07/05/17:44:43.203818,7545,1751712283,202034112,base_link,-0.0163793395633756,-0.04857139564820999,0.005643932111124938,-0.007836597040295601,0.005524238571524621,0.006615417078137397
2025/07/05/17:44:43.303432,7546,1751712283,301034112,base_link,-0.015242360483211915,-0.04844041567817824,0.005924252634114749,-0.014800593256950378,0.002724409336224199,0.00811117421835661
2025/07/05/17:44:43.462823,7547,1751712283,461039488,base_link,-0.015649441225588145,-0.04703783288734869,0.004614324370184149,-0.012383140623569489,-0.0014919110108166924,0.00776364840567112
2025/07/05/17:44:43.603818,7548,1751712283,602039488,base_link,-0.014673192687333811,-0.04720318385314188,0.00499552708176584,0.010070223361253738,-0.001962387468665837,0.009539848193526268
2025/07/05/17:44:43.722632,7549,1751712283,721044608,base_link,-0.01486846709965177,-0.04714765408927922,0.004353765386668568,0.009090091101825237,-0.00013882713392376753,0.011914869770407677
2025/07/05/17:44:43.803628,7550,1751712283,802044608,base_link,-0.014658866308805033,-0.0459077826972238,0.004142905301720314,0.0004036957398056984,0.0011760250199586166,0.011129472404718399
2025/07/05/17:44:43.922920,7551,1751712283,921044608,base_link,-0.017438748478785945,-0.04846151270149885,0.0023950983007183617,-0.0062426114454865456,0.0011010628659278163,0.0075593795627355576
2025/07/05/17:44:44.025028,7552,1751712284,24048192,base_link,-0.018413707176039056,-0.05051632839186174,0.002390112244059167,-0.007619410753250122,0.0007186741568148146,0.00803965050727129
2025/07/05/17:44:44.102313,7553,1751712284,102051264,base_link,-0.019238762488633262,-0.05030478716608964,0.0018566258012669874,-0.0065106479451060295,-0.0003096989821642626,0.009309097193181515
2025/07/05/17:44:44.203950,7554,1751712284,202051264,base_link,-0.020016023595782372,-0.048131180433787044,0.0017455373785876267,-0.004749833606183529,-0.0011866446584463106,0.00988182332366705
2025/07/05/17:44:44.322891,7555,1751712284,321054592,base_link,-0.019881699529686776,-0.04626165538343521,0.0012864383374468782,-0.0008323974907398224,-0.0008359286002814759,0.009037962183356285
2025/07/05/17:44:44.522860,7556,1751712284,521057920,base_link,-0.018595729373539906,-0.04601763261782015,-2.1286037744424908e-05,0.005332125350832939,0.0012950523523613821,0.008638435043394566
2025/07/05/17:44:44.624818,7557,1751712284,624057920,base_link,-0.0182175976846194,-0.04367641306787169,-0.0012014858376660329,0.002456570975482464,0.002843648195266725,0.008966506458818913
2025/07/05/17:44:44.722899,7558,1751712284,721057920,base_link,-0.01668323462872444,-0.04187033260178318,-0.0007418363088825585,0.0003675529733300209,0.0014186586486175665,0.007306911051273346
2025/07/05/17:44:44.803883,7559,1751712284,802057920,base_link,-0.01574367561641911,-0.04174806288392861,-0.0007110638980409557,-0.0022965464740991592,-0.00023114774376153878,0.005629760213196278
2025/07/05/17:44:44.902638,7560,1751712284,901062016,base_link,-0.013922900153556584,-0.042054643413814485,0.0008755880135845372,-0.007029127329587936,-0.0017021773383021348,0.004742122255265713
2025/07/05/17:44:44.981830,7561,1751712284,981065344,base_link,-0.012982638715455968,-0.041407159718397105,0.0015837879617553374,-0.012515360489487648,-0.0018839428666979068,0.00551198935136199
2025/07/05/17:44:45.081810,7562,1751712285,80069184,base_link,-0.010424782523402098,-0.04071435575499384,0.0004735895663612647,-0.007791217882186174,7.560243830084866e-05,0.00529393320903182
2025/07/05/17:44:45.202541,7563,1751712285,202073024,base_link,-0.007738770288411721,-0.041363642250448265,-0.0016868340028951148,0.005245167762041092,-0.00029776548035442764,0.00543659133836627
2025/07/05/17:44:45.302621,7564,1751712285,301077632,base_link,-0.00594002739544992,-0.039299143065222905,-0.001737440267054467,0.011908085085451603,-0.00016071647405624292,0.007918947376310825
2025/07/05/17:44:45.381957,7565,1751712285,380081472,base_link,-0.00448574611303575,-0.037068400713677056,-0.0021949660486622335,0.0069123925641179085,0.0006575044244527828,0.008646552450954914
2025/07/05/17:44:45.561862,7566,1751712285,560086848,base_link,-0.002651659701451191,-0.03340190816051852,0.000970853794310646,-0.006762324832379818,0.001956411171704531,0.004156279843300581
2025/07/05/17:44:45.641439,7567,1751712285,640086848,base_link,-0.002177405638126305,-0.03298130423754645,0.0007471627736543114,-0.0070716217160224915,-0.0004966135602444408,0.0018527291249483824
2025/07/05/17:44:45.742014,7568,1751712285,740086848,base_link,-0.001832468028377895,-0.03222817573645236,0.0016331445001408157,-0.005738423205912113,-0.0016506277024745937,0.002898961305618286
2025/07/05/17:44:45.824759,7569,1751712285,823086848,base_link,-0.0008740795167778271,-0.0312025160145469,0.0020928730838025086,-0.002703777514398098,-0.0016728516202419992,0.0037174345925450325
2025/07/05/17:44:45.922731,7570,1751712285,921086848,base_link,-0.00014515123287297177,-0.029595756576500647,0.003110867724387565,0.002085716463625431,-0.0008695889264345164,0.0041419267654418945
2025/07/05/17:44:46.025799,7571,1751712286,24086848,base_link,0.001668207885635659,-0.029145847024827518,0.003966981123128064,0.011049049906432629,-0.0005768276751041408,0.0032911603339016438
2025/07/05/17:44:46.122695,7572,1751712286,121090432,base_link,0.003081761200710153,-0.028680811203406466,0.006072534411876548,0.011181214824318886,0.00030836625955998946,0.004117421805858612
2025/07/05/17:44:46.203866,7573,1751712286,202090432,base_link,0.004784791226406227,-0.027818615885777404,0.008216062759108234,0.0005014985799789429,0.001986904069781304,0.0034770451020449396
2025/07/05/17:44:46.302706,7574,1751712286,302090432,base_link,0.006600876984615683,-0.024023976113143428,0.010613721598302369,-0.012000655755400658,0.0024859202094376087,0.0007086828700266775
2025/07/05/17:44:46.461761,7575,1751712286,461098112,base_link,0.00981633851198838,-0.019311233823578577,0.012745518925497624,-0.015759490430355072,0.0008353656157851216,-0.0024964327458292246
2025/07/05/17:44:46.603914,7576,1751712286,602098112,base_link,0.013257804683844682,-0.017201336427754302,0.013626442528308564,0.004916069097816944,-0.0021877724211663008,0.0008038751548156144
2025/07/05/17:44:46.702319,7577,1751712286,702098112,base_link,0.015408903760929543,-0.014866172653653304,0.014263844154906856,0.012349759228527546,-0.0002790489234030243,0.003158323932439089
2025/07/05/17:44:46.803764,7578,1751712286,803098112,base_link,0.01659264718259818,-0.013286098313671751,0.015072641639338809,0.012940356507897377,9.797443635761764e-05,0.0021576215513050556
