time,.header.seq,.header.stamp.secs,.header.stamp.nsecs,.header.frame_id,.pose.position.x,.pose.position.y,.pose.position.z,.pose.orientation.x,.pose.orientation.y,.pose.orientation.z,.pose.orientation.w
2025/07/05/17:44:13.324253,3127,1751712253,319540352,map,-1.0774632692337036,4.226789951324463,-1.4659595489501953,0.04739217200733256,-0.04955308406723787,-0.8080883945083868,-0.5850569378724694
2025/07/05/17:44:13.463080,3128,1751712253,459556736,map,-1.095981240272522,4.249342918395996,-1.4661086797714233,0.047501254327954275,-0.05054697968649939,-0.8094963250485459,-0.5830131502931496
2025/07/05/17:44:13.604517,3129,1751712253,600564160,map,-1.1143592596054077,4.270423889160156,-1.4689850807189941,0.04707315177501695,-0.05248613534063549,-0.8088288728707265,-0.5838023453101578
2025/07/05/17:44:13.704368,3130,1751712253,700573888,map,-1.1273150444030762,4.2863359451293945,-1.4708253145217896,0.04755659493633993,-0.05138077065008003,-0.8078938602629534,-0.5851545925948869
2025/07/05/17:44:13.804396,3131,1751712253,800580032,map,-1.1392955780029297,4.301883697509766,-1.471722960472107,0.04838305258871069,-0.04879793114439782,-0.8067777626273898,-0.5868453662321683
2025/07/05/17:44:13.923487,3132,1751712253,919580032,map,-1.1582499742507935,4.320827484130859,-1.4722275733947754,0.04889889029382628,-0.04706069765370475,-0.8053219929666002,-0.5889402999529597
2025/07/05/17:44:14.005085,3133,1751712254,586944,map,-1.1698631048202515,4.3329057693481445,-1.4729914665222168,0.04871701531655393,-0.047154322090830404,-0.8031965781016521,-0.5918432049560068
2025/07/05/17:44:14.104139,3134,1751712254,100592576,map,-1.1856426000595093,4.344609260559082,-1.4756065607070923,0.04862029396377315,-0.04805952174773448,-0.8016801711957305,-0.593830996577174
2025/07/05/17:44:14.204897,3135,1751712254,200597184,map,-1.2009247541427612,4.359140872955322,-1.477942943572998,0.047768274680306796,-0.049386722614431756,-0.7997448623783032,-0.5963952537227143
2025/07/05/17:44:14.323715,3136,1751712254,319604864,map,-1.2240253686904907,4.386248588562012,-1.4841920137405396,0.04490496530300175,-0.051943982973188946,-0.7972327015101378,-0.5997544383886333
2025/07/05/17:44:14.482381,3137,1751712254,478617152,map,-1.2528886795043945,4.423895359039307,-1.4940170049667358,0.04152139362061101,-0.05529649350029712,-0.7930791226764617,-0.6051807803070975
2025/07/05/17:44:14.604086,3138,1751712254,600623808,map,-1.2695095539093018,4.451241493225098,-1.5022920370101929,0.045947706902170565,-0.051067741108255675,-0.7844363033621145,-0.6163932024415203
2025/07/05/17:44:14.703900,3139,1751712254,699629696,map,-1.2841053009033203,4.475418567657471,-1.5099904537200928,0.049426849704298455,-0.04762128104097591,-0.7813220241025767,-0.6203427236395844
2025/07/05/17:44:14.782632,3140,1751712254,778636352,map,-1.2950242757797241,4.494045257568359,-1.513403058052063,0.05181437600643625,-0.04534463981079964,-0.777636184292914,-0.6249328755617275
2025/07/05/17:44:14.882940,3141,1751712254,878642496,map,-1.3078495264053345,4.514880657196045,-1.5195515155792236,0.051530392092437635,-0.045775301875059425,-0.7745831246694658,-0.6287051959434831
2025/07/05/17:44:15.003928,3142,1751712254,999649152,map,-1.322012186050415,4.53879976272583,-1.5227375030517578,0.0492146754109921,-0.04835872954311017,-0.7721098520470577,-0.6317323209817888
2025/07/05/17:44:15.086441,3143,1751712255,78655296,map,-1.3325270414352417,4.553603649139404,-1.5273171663284302,0.04625093110418143,-0.05190505424848324,-0.770012976343632,-0.6342292432377108
2025/07/05/17:44:15.205810,3144,1751712255,200661184,map,-1.346526026725769,4.575498104095459,-1.5308817625045776,0.04393518926905953,-0.054693593493020595,-0.7681775837831128,-0.6363815755879886
2025/07/05/17:44:15.304045,3145,1751712255,299667328,map,-1.3585494756698608,4.594740390777588,-1.534500241279602,0.04307713452888998,-0.055552485625528725,-0.7664944548997938,-0.6383921462780328
2025/07/05/17:44:15.384664,3146,1751712255,378673216,map,-1.367307186126709,4.609605312347412,-1.5369919538497925,0.04360112800863066,-0.05450442669323356,-0.7648086256291076,-0.6404654364370749
2025/07/05/17:44:15.543767,3147,1751712255,539683200,map,-1.3839502334594727,4.643369197845459,-1.5419723987579346,0.04534441898593499,-0.051301661862811654,-0.761859750272356,-0.6441131453959663
2025/07/05/17:44:15.628413,3148,1751712255,622688320,map,-1.392694115638733,4.659358501434326,-1.5437170267105103,0.04613079147780195,-0.04980658638378241,-0.7598721040456285,-0.646518089092406
2025/07/05/17:44:15.722223,3149,1751712255,719696768,map,-1.4067753553390503,4.679325103759766,-1.5466010570526123,0.04599655228131813,-0.04953456613817162,-0.7582852246558387,-0.6484089465795327
2025/07/05/17:44:15.825711,3150,1751712255,822704960,map,-1.4214942455291748,4.702851295471191,-1.5505937337875366,0.044193681258559825,-0.0504795417129311,-0.7562073561672724,-0.6508833757930627
2025/07/05/17:44:15.942571,3151,1751712255,938712640,map,-1.440139889717102,4.734696865081787,-1.5564526319503784,0.04029913959232719,-0.05430399207686765,-0.7527085021625084,-0.654871717640109
2025/07/05/17:44:16.026169,3152,1751712256,22718272,map,-1.4518301486968994,4.756892204284668,-1.5598200559616089,0.039393038229074875,-0.055970436031709175,-0.7494157638961221,-0.6585525883735442
2025/07/05/17:44:16.123806,3153,1751712256,119725440,map,-1.4656338691711426,4.785621166229248,-1.5638054609298706,0.04066918226293289,-0.055970852071551204,-0.746507655217563,-0.6617700522341765
2025/07/05/17:44:16.225407,3154,1751712256,222732864,map,-1.478724718093872,4.81427526473999,-1.5653035640716553,0.04312938901744654,-0.05442575116964298,-0.7428367929584374,-0.6658612411304817
2025/07/05/17:44:16.322651,3155,1751712256,319740544,map,-1.4909449815750122,4.842120170593262,-1.565252661705017,0.04441788020136558,-0.05290250169767563,-0.7399190118907246,-0.6691399204017036
2025/07/05/17:44:16.462944,3156,1751712256,458753600,map,-1.5058761835098267,4.880751609802246,-1.565283179283142,0.045084092932613506,-0.05160285125955123,-0.7364057995983079,-0.6730609694703034
2025/07/05/17:44:16.584288,3157,1751712256,578759744,map,-1.5158854722976685,4.912395000457764,-1.5631353855133057,0.04475959654167094,-0.05186092590997548,-0.7309429591118669,-0.6789914678447548
2025/07/05/17:44:16.663505,3158,1751712256,659767680,map,-1.5239019393920898,4.936385154724121,-1.5621896982192993,0.04415534091927906,-0.052814946180575285,-0.7288199451725947,-0.6812359171732366
2025/07/05/17:44:16.742772,3159,1751712256,738767680,map,-1.532526969909668,4.964156627655029,-1.561140537261963,0.04225422033923621,-0.0535165567933917,-0.7269766909233825,-0.6832682122465465
2025/07/05/17:44:16.827866,3160,1751712256,822775872,map,-1.5421411991119385,4.993619441986084,-1.561251163482666,0.038163254561833435,-0.055629595841602514,-0.7239772437106203,-0.6865171990976788
2025/07/05/17:44:16.942796,3161,1751712256,938782528,map,-1.5557808876037598,5.041443347930908,-1.564720630645752,0.03544596349830686,-0.057474749020685834,-0.720982327216172,-0.6896555087423276
2025/07/05/17:44:17.062851,3162,1751712257,59794048,map,-1.5698086023330688,5.096843242645264,-1.5704280138015747,0.03367732489338984,-0.05822729636326814,-0.7143346908789951,-0.6965639734820196
2025/07/05/17:44:17.163591,3163,1751712257,159801728,map,-1.5807467699050903,5.1467156410217285,-1.5750200748443604,0.03492195414057575,-0.05712386449188477,-0.7086237371020092,-0.7024028192142305
2025/07/05/17:44:17.226155,3164,1751712257,222801728,map,-1.5878360271453857,5.179477214813232,-1.5782039165496826,0.03731612960904918,-0.05528822998617307,-0.7038436490171371,-0.7072162581800828
2025/07/05/17:44:17.323417,3165,1751712257,319808896,map,-1.6031535863876343,5.239626884460449,-1.582275629043579,0.03954587734572168,-0.05358290336736995,-0.6989222045020814,-0.7120904072557297
2025/07/05/17:44:17.523504,3166,1751712257,519819904,map,-1.6308742761611938,5.36110258102417,-1.5828667879104614,0.04198424875221405,-0.052997172341114764,-0.6896656659438352,-0.7209645565482431
2025/07/05/17:44:17.625839,3167,1751712257,622826816,map,-1.6456657648086548,5.422058582305908,-1.5803643465042114,0.0412246673093173,-0.05455887309213807,-0.6790444286462469,-0.730905274366415
2025/07/05/17:44:17.723793,3168,1751712257,719833728,map,-1.6658333539962769,5.4822564125061035,-1.5780500173568726,0.04044295071751373,-0.05505239175158306,-0.6740474288045281,-0.735522715911409
2025/07/05/17:44:17.805513,3169,1751712257,800841920,map,-1.6798877716064453,5.5291337966918945,-1.5768115520477295,0.039085598011250985,-0.05614580663102915,-0.6677787189617088,-0.7412095162150262
2025/07/05/17:44:17.904238,3170,1751712257,900847808,map,-1.687752604484558,5.5951313972473145,-1.5750874280929565,0.03853453674727755,-0.05696565932184178,-0.6623793413467154,-0.7460051013852332
2025/07/05/17:44:18.027300,3171,1751712258,22852928,map,-1.6979345083236694,5.666193008422852,-1.572817087173462,0.038176845583163185,-0.05801534878135767,-0.6569623524175099,-0.7507178000241824
2025/07/05/17:44:18.103824,3172,1751712258,99858048,map,-1.709527611732483,5.702380180358887,-1.5699124336242676,0.03809860552031786,-0.058609413894264537,-0.6538128649719603,-0.7534203146036978
2025/07/05/17:44:18.204468,3173,1751712258,200863936,map,-1.7224810123443604,5.747419357299805,-1.566747784614563,0.038022242005216686,-0.05902330116746182,-0.6500181988680523,-0.756668289392733
2025/07/05/17:44:18.284034,3174,1751712258,279870592,map,-1.735600233078003,5.785609722137451,-1.5634454488754272,0.038021420959146,-0.05896466033960525,-0.6469847619101374,-0.7592682386583578
2025/07/05/17:44:18.444027,3175,1751712258,438876224,map,-1.7588788270950317,5.859666347503662,-1.5605236291885376,0.03814673846185478,-0.05848933308156394,-0.6430640981087586,-0.7626220492379994
2025/07/05/17:44:18.584230,3176,1751712258,578889792,map,-1.7771207094192505,5.921863079071045,-1.555041790008545,0.037909937186945374,-0.05788734625546929,-0.6363353720633892,-0.7683027958213671
2025/07/05/17:44:18.642090,3177,1751712258,639889792,map,-1.781335711479187,5.947721481323242,-1.5516852140426636,0.03740049481361245,-0.05767250748585788,-0.6312646044974232,-0.77251542636811
2025/07/05/17:44:18.742923,3178,1751712258,738897984,map,-1.7859212160110474,5.989638328552246,-1.5458383560180664,0.036825449566167484,-0.05749320098890531,-0.6281022153993591,-0.7751296827723191
2025/07/05/17:44:18.825385,3179,1751712258,822904384,map,-1.789299726486206,6.022456645965576,-1.5427758693695068,0.0361863195042559,-0.05729168711126923,-0.6253034093199055,-0.7774341510131793
2025/07/05/17:44:18.923905,3180,1751712258,919910272,map,-1.7928212881088257,6.061203479766846,-1.5419164896011353,0.03555605852690639,-0.05718211173098219,-0.6230367316182863,-0.7792889091052305
2025/07/05/17:44:19.025362,3181,1751712259,21916672,map,-1.7954646348953247,6.100132942199707,-1.5422980785369873,0.034377725378201496,-0.05799594951237159,-0.6203214123414984,-0.7814448075383368
2025/07/05/17:44:19.103357,3182,1751712259,100922048,map,-1.7953379154205322,6.133552074432373,-1.5431559085845947,0.033681375838782175,-0.0589036921536152,-0.61891013031254,-0.7825255079349129
2025/07/05/17:44:19.205312,3183,1751712259,200930752,map,-1.7957109212875366,6.179112911224365,-1.5451785326004028,0.032268441369949864,-0.05984518300729317,-0.6172290783470411,-0.7838402685530004
2025/07/05/17:44:19.303901,3184,1751712259,300937920,map,-1.7957285642623901,6.222713947296143,-1.544247031211853,0.030464233498788434,-0.06149374619578928,-0.6138946760763531,-0.7863992474190501
2025/07/05/17:44:19.462513,3185,1751712259,459950464,map,-1.795994758605957,6.291360378265381,-1.5390039682388306,0.031094170243195406,-0.06217394045119488,-0.6094787007840302,-0.7897488632446832
2025/07/05/17:44:19.606015,3186,1751712259,600957888,map,-1.796044945716858,6.350879192352295,-1.534446120262146,0.03835540612419331,-0.05831966572952343,-0.6000920418212295,-0.7968796777136888
2025/07/05/17:44:19.683871,3187,1751712259,678963520,map,-1.7942782640457153,6.383721351623535,-1.5361732244491577,0.039519852840870735,-0.05723689712471501,-0.5966015417878039,-0.7995178041641012
2025/07/05/17:44:19.804094,3188,1751712259,800968640,map,-1.7929400205612183,6.432089328765869,-1.5397062301635742,0.03785863582370225,-0.057443837301864496,-0.5929048336522456,-0.8023283539059357
2025/07/05/17:44:19.882732,3189,1751712259,878974272,map,-1.7893751859664917,6.457469463348389,-1.5430861711502075,0.03378795098014645,-0.0590399650632128,-0.5900997989396802,-0.8044593738562853
2025/07/05/17:44:20.004934,3190,1751712260,982976,map,-1.7851479053497314,6.495950698852539,-1.5475127696990967,0.028386133150528903,-0.0618394080381006,-0.5873945821190564,-0.8064351926568167
2025/07/05/17:44:20.123847,3191,1751712260,119991936,map,-1.7778040170669556,6.5389814376831055,-1.5495679378509521,0.026532543332799342,-0.06344254813366591,-0.5852677089276117,-0.807918793021443
2025/07/05/17:44:20.225928,3192,1751712260,223000384,map,-1.7728456258773804,6.572610378265381,-1.5499839782714844,0.028220765326234874,-0.0634585651126333,-0.5828665372433457,-0.8095944655691508
2025/07/05/17:44:20.304204,3193,1751712260,301009088,map,-1.7686669826507568,6.596523761749268,-1.5481239557266235,0.03230004531447604,-0.061941134637205846,-0.579960394636674,-0.8116439758695998
2025/07/05/17:44:20.483527,3194,1751712260,479022656,map,-1.7604655027389526,6.654555320739746,-1.544195532798767,0.03647093768787225,-0.059630289579146734,-0.5768814681503696,-0.8138315986575776
2025/07/05/17:44:20.604253,3195,1751712260,601028800,map,-1.7547683715820312,6.695692539215088,-1.5452178716659546,0.03452688702699936,-0.0583792119759836,-0.5706780484591697,-0.8183680875303736
2025/07/05/17:44:20.704498,3196,1751712260,701037248,map,-1.7494697570800781,6.728942394256592,-1.5453345775604248,0.029670130012135497,-0.06077694361102587,-0.5680871673142124,-0.820184623632557
2025/07/05/17:44:20.804936,3197,1751712260,801043136,map,-1.7446587085723877,6.76209020614624,-1.545792818069458,0.02526054099566021,-0.06347983763273382,-0.5659946760342757,-0.821573029002038
2025/07/05/17:44:20.943018,3198,1751712260,939051072,map,-1.731512427330017,6.8018412590026855,-1.549803376197815,0.02356409103151258,-0.06486989646254492,-0.5640548331399067,-0.8228479661263733
2025/07/05/17:44:21.025567,3199,1751712261,23057216,map,-1.725620985031128,6.825554847717285,-1.550394892692566,0.0262450802826555,-0.06430636037512474,-0.561313445815187,-0.8246836383264446
2025/07/05/17:44:21.104128,3200,1751712261,101062592,map,-1.7209198474884033,6.8502984046936035,-1.5483410358428955,0.029418716047870778,-0.06265249479969379,-0.5588676303994805,-0.8263632226407096
2025/07/05/17:44:21.205708,3201,1751712261,201068736,map,-1.7166008949279785,6.882036209106445,-1.5457764863967896,0.0339406670039226,-0.06019393973687386,-0.5551983100932462,-0.8288422993621201
2025/07/05/17:44:21.303965,3202,1751712261,301074880,map,-1.7097938060760498,6.910584449768066,-1.5417619943618774,0.03600938836586549,-0.058766665455026436,-0.551142455196069,-0.8315598577740886
2025/07/05/17:44:21.442488,3203,1751712261,440081280,map,-1.7026264667510986,6.952573776245117,-1.5367013216018677,0.03424443385993304,-0.05947302125379774,-0.5471060879938238,-0.8342452918492573
2025/07/05/17:44:21.582545,3204,1751712261,579097664,map,-1.695530652999878,6.994998455047607,-1.5330370664596558,0.02528483970730717,-0.0640107767372941,-0.5409627915586255,-0.838225838000454
2025/07/05/17:44:21.684268,3205,1751712261,680103808,map,-1.6844648122787476,7.0218424797058105,-1.5342708826065063,0.02224690769983968,-0.06530017407629522,-0.5383813270241766,-0.8398729124546683
2025/07/05/17:44:21.763475,3206,1751712261,759109952,map,-1.6753178834915161,7.043044090270996,-1.536465048789978,0.02239600708278782,-0.0651243649803817,-0.5364750843998549,-0.8411014919561242
2025/07/05/17:44:21.863266,3207,1751712261,859116352,map,-1.663250207901001,7.070446491241455,-1.5398805141448975,0.02452924471877083,-0.06373536831784256,-0.5338565658939824,-0.8428127229882088
2025/07/05/17:44:21.984701,3208,1751712261,979121472,map,-1.6498411893844604,7.10432243347168,-1.542209267616272,0.028682112805752273,-0.06188075645703516,-0.5300336517147404,-0.8452292212383815
2025/07/05/17:44:22.084198,3209,1751712262,79128128,map,-1.6352617740631104,7.1284894943237305,-1.5413905382156372,0.031898458144875755,-0.060897477400836425,-0.5262950073378585,-0.8475184663860945
2025/07/05/17:44:22.183935,3210,1751712262,179134272,map,-1.6223371028900146,7.153627872467041,-1.5406074523925781,0.032742732822156555,-0.06062548799053255,-0.522424211309383,-0.8498972920835881
2025/07/05/17:44:22.282478,3211,1751712262,279140672,map,-1.6060125827789307,7.180078029632568,-1.54202401638031,0.030735617493008096,-0.06155730426337904,-0.5184732839238201,-0.8523212269833476
2025/07/05/17:44:22.405329,3212,1751712262,401146560,map,-1.5882285833358765,7.212798118591309,-1.5427943468093872,0.02625784521169101,-0.06312101628965287,-0.5149695504754547,-0.8544779838887064
2025/07/05/17:44:22.562573,3213,1751712262,559159616,map,-1.5595057010650635,7.254770755767822,-1.546351671218872,0.020474519964906932,-0.06514793259792405,-0.5108845214304913,-0.8569326383521408
2025/07/05/17:44:22.644047,3214,1751712262,640159616,map,-1.5447627305984497,7.274774074554443,-1.548274040222168,0.019582250240559335,-0.06555665617797882,-0.5080908033974483,-0.8585817350778049
2025/07/05/17:44:22.742869,3215,1751712262,739166016,map,-1.526270866394043,7.299061298370361,-1.5506495237350464,0.02142061690313081,-0.06517928466010772,-0.5056296616413112,-0.8600182924166088
2025/07/05/17:44:22.825425,3216,1751712262,823172416,map,-1.5122562646865845,7.3172149658203125,-1.5517123937606812,0.025160669840984733,-0.06404049492795967,-0.5027185373946917,-0.8617075071404896
2025/07/05/17:44:22.923967,3217,1751712262,920177536,map,-1.4932105541229248,7.335082054138184,-1.5526765584945679,0.029341593542494018,-0.062464213240866415,-0.49937149858941987,-0.8636349919665969
2025/07/05/17:44:23.025934,3218,1751712263,23184448,map,-1.47641921043396,7.35483455657959,-1.555159091949463,0.032355438162030264,-0.06070425570772519,-0.494167590574195,-0.8666409356742899
2025/07/05/17:44:23.104258,3219,1751712263,101191872,map,-1.4614824056625366,7.371655464172363,-1.5577375888824463,0.03069420282128139,-0.061049673830354236,-0.4911102859313724,-0.8684132025083331
2025/07/05/17:44:23.204769,3220,1751712263,201197760,map,-1.4449254274368286,7.39438009262085,-1.560955286026001,0.024490802934855747,-0.06326581819025005,-0.487874249129735,-0.8702737235240541
2025/07/05/17:44:23.323609,3221,1751712263,320203904,map,-1.4200376272201538,7.417949676513672,-1.5635813474655151,0.017199111036459137,-0.0660250615003703,-0.4850509346575571,-0.8718202065915072
2025/07/05/17:44:23.482988,3222,1751712263,479214144,map,-1.3886903524398804,7.452584266662598,-1.5645149946212769,0.01424597751533104,-0.06730721486445261,-0.482332103428761,-0.8732826191753791
2025/07/05/17:44:23.583438,3223,1751712263,580220032,map,-1.3708876371383667,7.4759650230407715,-1.5642367601394653,0.020932358212216118,-0.06505826332232766,-0.4767533908876467,-0.8763763250055817
2025/07/05/17:44:23.683366,3224,1751712263,680225152,map,-1.3525842428207397,7.502950191497803,-1.5607091188430786,0.02902100233286896,-0.062175836863103115,-0.4712762304569918,-0.8793126072906134
2025/07/05/17:44:23.784760,3225,1751712263,779230528,map,-1.3363096714019775,7.530845642089844,-1.5564980506896973,0.03213078419643754,-0.06087825436761959,-0.46675625682326477,-0.8817029247815887
2025/07/05/17:44:23.862737,3226,1751712263,859236160,map,-1.324501633644104,7.553470134735107,-1.5538100004196167,0.030452377019522345,-0.06143917144732907,-0.4635022187111728,-0.8834384948571952
2025/07/05/17:44:23.962776,3227,1751712263,959243072,map,-1.3110010623931885,7.581418991088867,-1.549490213394165,0.025283342356675263,-0.06328253515874868,-0.460688005460828,-0.8849421647586247
2025/07/05/17:44:24.042263,3228,1751712264,40243072,map,-1.2966736555099487,7.602785110473633,-1.5475924015045166,0.016000475378470644,-0.06673266875994795,-0.4572775190530799,-0.8866724345983119
2025/07/05/17:44:24.143020,3229,1751712264,139249216,map,-1.2756580114364624,7.62821102142334,-1.5465055704116821,0.012739144481683189,-0.06814867697127903,-0.45527372897164686,-0.887648186914833
2025/07/05/17:44:24.226553,3230,1751712264,223255872,map,-1.2590949535369873,7.648157119750977,-1.5452783107757568,0.013733996326242526,-0.06825992556957877,-0.452353949992368,-0.8891163387501371
2025/07/05/17:44:24.323958,3231,1751712264,320263040,map,-1.236665964126587,7.6739397048950195,-1.5433666706085205,0.01806577309685592,-0.06703676486402424,-0.44937255643934715,-0.8906424678388879
2025/07/05/17:44:24.504022,3232,1751712264,501276864,map,-1.2014963626861572,7.716411590576172,-1.5384429693222046,0.025560743031114264,-0.06429371809789428,-0.44513775947979994,-0.8927851596628102
2025/07/05/17:44:24.625787,3233,1751712264,623285312,map,-1.1794108152389526,7.742379665374756,-1.534280776977539,0.030939465796707977,-0.060542821695062005,-0.437900912269643,-0.896448608248587
2025/07/05/17:44:24.722786,3234,1751712264,720290432,map,-1.1599124670028687,7.762151718139648,-1.531402587890625,0.02728762039403542,-0.06131862741883487,-0.43701334976100453,-0.8969474587930817
2025/07/05/17:44:24.804771,3235,1751712264,801296832,map,-1.1450979709625244,7.776996612548828,-1.5307461023330688,0.019285668106761883,-0.06466744374342104,-0.4368250021292201,-0.8970117625985593
2025/07/05/17:44:24.922878,3236,1751712264,920303232,map,-1.1185227632522583,7.801478862762451,-1.5280109643936157,0.014104309633248425,-0.06765964006466182,-0.43801912209907734,-0.8963049091864015
2025/07/05/17:44:25.026078,3237,1751712265,23310144,map,-1.0973894596099854,7.820845603942871,-1.5256316661834717,0.015361881264612711,-0.06873491785230831,-0.43874185257023623,-0.895848821216552
2025/07/05/17:44:25.123694,3238,1751712265,120316800,map,-1.073883295059204,7.84098482131958,-1.5235880613327026,0.02056223110203753,-0.06684593481138291,-0.43844411691879515,-0.8960332426816521
2025/07/05/17:44:25.225727,3239,1751712265,223324736,map,-1.0528285503387451,7.859864234924316,-1.5217792987823486,0.027915588300888614,-0.06310574345470743,-0.437726288909946,-0.8964564022137219
2025/07/05/17:44:25.304288,3240,1751712265,301329600,map,-1.0368432998657227,7.873542785644531,-1.5206631422042847,0.03089635538407907,-0.060844341969892475,-0.4374500261196724,-0.8966497955847252
2025/07/05/17:44:25.462979,3241,1751712265,459341888,map,-1.0072251558303833,7.9021196365356445,-1.521957516670227,0.028427688902809403,-0.06078718462516446,-0.43827822964286195,-0.8963308418826778
2025/07/05/17:44:25.583905,3242,1751712265,579347264,map,-0.9856560826301575,7.924032211303711,-1.525222659111023,0.01472192363206952,-0.06743264411812808,-0.4419155070850893,-0.8943974441318232
2025/07/05/17:44:25.684349,3243,1751712265,679353408,map,-0.9666944146156311,7.9385457038879395,-1.5242855548858643,0.01194269895557229,-0.07000474133639763,-0.4436072622017986,-0.8934032152695137
2025/07/05/17:44:25.804120,3244,1751712265,800358016,map,-0.9453436136245728,7.9544525146484375,-1.518897533416748,0.016091313055573576,-0.06903180792839098,-0.4440393542464267,-0.8931991552944403
2025/07/05/17:44:25.883899,3245,1751712265,879363648,map,-0.930713415145874,7.967939376831055,-1.514510154724121,0.024637903679363415,-0.06495253979053059,-0.4435644530592884,-0.8935461472466095
2025/07/05/17:44:25.983471,3246,1751712265,979368768,map,-0.914019763469696,7.98415470123291,-1.5109360218048096,0.0303281461832013,-0.06145935719059588,-0.4430925405091173,-0.8938523096731277
2025/07/05/17:44:26.083869,3247,1751712266,80374144,map,-0.8994802236557007,8.003914833068848,-1.5066733360290527,0.03034881959370899,-0.05998434537640794,-0.44353532645236676,-0.8937321979473631
2025/07/05/17:44:26.184153,3248,1751712266,180379008,map,-0.8856366872787476,8.02250862121582,-1.5025207996368408,0.02305377906339807,-0.06305761906633009,-0.44529604580962245,-0.892862638671199
2025/07/05/17:44:26.304016,3249,1751712266,300384896,map,-0.8655304908752441,8.04464340209961,-1.4959958791732788,0.014924191280662259,-0.06772484267580356,-0.4473607600529612,-0.8916607900788242
2025/07/05/17:44:26.426723,3250,1751712266,423389504,map,-0.845170259475708,8.065698623657227,-1.4902539253234863,0.012460437610449125,-0.07023706467416148,-0.44883502332592284,-0.8907629393259083
2025/07/05/17:44:26.543016,3251,1751712266,539394880,map,-0.8225982785224915,8.090773582458496,-1.4868279695510864,0.020792950356847112,-0.06715019505809637,-0.44883813256809624,-0.8908438893947139
2025/07/05/17:44:26.604669,3252,1751712266,601399744,map,-0.8124029636383057,8.102277755737305,-1.4859318733215332,0.028794036189162237,-0.06264799583914354,-0.4482779393247417,-0.8912311828095105
2025/07/05/17:44:26.704396,3253,1751712266,701405120,map,-0.7966143488883972,8.119697570800781,-1.4850417375564575,0.031004024775029393,-0.06055572466786057,-0.44818998379626385,-0.8913458885765977
2025/07/05/17:44:26.805304,3254,1751712266,801413312,map,-0.7818130254745483,8.13537311553955,-1.484180212020874,0.02705345380468136,-0.06148308769273993,-0.4492027161724389,-0.890901150716682
2025/07/05/17:44:26.942321,3255,1751712266,939421504,map,-0.7595933079719543,8.163304328918457,-1.4826494455337524,0.01906918989749332,-0.06553841445858599,-0.45086898143484383,-0.8899765411553352
2025/07/05/17:44:27.025627,3256,1751712267,23427392,map,-0.7473726868629456,8.177385330200195,-1.4815022945404053,0.013672630013496638,-0.06966619604664614,-0.452430159560735,-0.8889694207545906
2025/07/05/17:44:27.122826,3257,1751712267,120433024,map,-0.7325179576873779,8.19474983215332,-1.479607105255127,0.015595792410010226,-0.06960966097772975,-0.4526221724571751,-0.8888444382217939
2025/07/05/17:44:27.204558,3258,1751712267,201433024,map,-0.7215366959571838,8.207634925842285,-1.477231740951538,0.022956888088064367,-0.0662223899888017,-0.45205264537576373,-0.8892333676613002
2025/07/05/17:44:27.303579,3259,1751712267,301439680,map,-0.7112956643104553,8.224869728088379,-1.4735031127929688,0.029689706456204723,-0.06197790466353329,-0.4514220502349772,-0.8896602684315581
2025/07/05/17:44:27.442492,3260,1751712267,439445824,map,-0.6965208649635315,8.249090194702148,-1.466180682182312,0.02953323099875801,-0.06078987654333249,-0.45152012309112177,-0.8896976776525827
2025/07/05/17:44:27.603755,3261,1751712267,601458880,map,-0.6776407361030579,8.277902603149414,-1.4595245122909546,0.01782459633825087,-0.06674774611036167,-0.4537561036438651,-0.8884438195859674
2025/07/05/17:44:27.684242,3262,1751712267,679464000,map,-0.6641084551811218,8.29003620147705,-1.4557127952575684,0.015067035519225934,-0.06936769462262653,-0.45462490688597673,-0.8878498191824569
2025/07/05/17:44:27.803948,3263,1751712267,801470656,map,-0.6460056304931641,8.30699348449707,-1.4509103298187256,0.01862263364394967,-0.06835910966221917,-0.45446396260348637,-0.8879429803411303
2025/07/05/17:44:27.923897,3264,1751712267,920476544,map,-0.6349613666534424,8.326925277709961,-1.4480787515640259,0.025375460292712735,-0.06452767891280235,-0.45385460931045873,-0.8883739405659702
2025/07/05/17:44:28.004425,3265,1751712268,1482688,map,-0.6279610395431519,8.33922290802002,-1.447189211845398,0.02885181071045407,-0.061382819274783604,-0.4536190833047423,-0.8886109664967976
2025/07/05/17:44:28.122835,3266,1751712268,120488832,map,-0.6196539998054504,8.362737655639648,-1.4466170072555542,0.02517834962936747,-0.06269988218103066,-0.4543446299409747,-0.8882599465968422
2025/07/05/17:44:28.204721,3267,1751712268,201488832,map,-0.6137288212776184,8.376477241516113,-1.445711374282837,0.019483891432230723,-0.06622321916730098,-0.45545446274826923,-0.8875787827457696
2025/07/05/17:44:28.304203,3268,1751712268,300493440,map,-0.601836085319519,8.390057563781738,-1.4425932168960571,0.017010176880207836,-0.06861698970643448,-0.456119624123405,-0.8871061103924689
2025/07/05/17:44:28.462838,3269,1751712268,460507008,map,-0.5868092179298401,8.411355018615723,-1.4367350339889526,0.019937559412513545,-0.06772843044331762,-0.4559391744315273,-0.8872061894808075
2025/07/05/17:44:28.605755,3270,1751712268,601507008,map,-0.5773269534111023,8.43008804321289,-1.4327811002731323,0.02830560460816488,-0.06200388887960992,-0.4553209489852701,-0.8877145621914312
2025/07/05/17:44:28.704999,3271,1751712268,701507008,map,-0.5717442631721497,8.44262409210205,-1.432241678237915,0.02521168922562991,-0.06292252991704278,-0.45612495780536166,-0.8873303493188353
2025/07/05/17:44:28.804324,3272,1751712268,801507008,map,-0.5655636191368103,8.45407772064209,-1.431022047996521,0.01970466270103934,-0.06605411273435888,-0.4574035430765676,-0.8865836560865068
2025/07/05/17:44:28.922812,3273,1751712268,920512384,map,-0.5565159320831299,8.466444969177246,-1.4280097484588623,0.017075368936765794,-0.06823519849339857,-0.45819507757245154,-0.8860641400884108
2025/07/05/17:44:29.003921,3274,1751712269,1519040,map,-0.5505843758583069,8.474534034729004,-1.425645112991333,0.019828963375424034,-0.06735559795586964,-0.45813252234450996,-0.8861064425935072
2025/07/05/17:44:29.102585,3275,1751712269,100524160,map,-0.5412859916687012,8.4850492477417,-1.4213544130325317,0.024423142220525506,-0.06487657586423812,-0.4577489324191889,-0.8863748952318655
2025/07/05/17:44:29.184284,3276,1751712269,180524160,map,-0.5343859195709229,8.493441581726074,-1.418711543083191,0.028333765951671794,-0.06212131213091184,-0.45760471645461753,-0.8865303512935238
2025/07/05/17:44:29.284021,3277,1751712269,279529024,map,-0.5258560180664062,8.503207206726074,-1.4163609743118286,0.0266289144614485,-0.06241398887781288,-0.458244060867137,-0.8862323485333632
2025/07/05/17:44:29.425435,3278,1751712269,423533632,map,-0.5130471587181091,8.5155029296875,-1.4113179445266724,0.021280636065587617,-0.06536488581947365,-0.45958710245169637,-0.8854683853704236
2025/07/05/17:44:29.562895,3279,1751712269,560545664,map,-0.4964909255504608,8.52523422241211,-1.406715989112854,0.017890158675149384,-0.06852655016669364,-0.46089111433572505,-0.8846261554301924
2025/07/05/17:44:29.662757,3280,1751712269,660552320,map,-0.4857690930366516,8.5328950881958,-1.403903603553772,0.02292949387664446,-0.06589447588379554,-0.46056838011164036,-0.884877914516969
2025/07/05/17:44:29.742730,3281,1751712269,739552320,map,-0.4778689742088318,8.539397239685059,-1.4029662609100342,0.027381601406070363,-0.06303643921345628,-0.46032248142227405,-0.8850874919085501
2025/07/05/17:44:29.825622,3282,1751712269,823557184,map,-0.4706627428531647,8.547216415405273,-1.4031010866165161,0.02882522951912472,-0.061499753124868016,-0.4604799199349998,-0.8850678673669077
2025/07/05/17:44:29.942575,3283,1751712269,939557184,map,-0.46068274974823,8.56308364868164,-1.4056755304336548,0.02641683033247853,-0.06231964090795234,-0.4612774279249617,-0.8846703046441768
2025/07/05/17:44:30.025807,3284,1751712270,23563072,map,-0.4537324607372284,8.572100639343262,-1.406507134437561,0.019785723434669136,-0.0663494602234587,-0.4630858021270357,-0.883605010253214
2025/07/05/17:44:30.103806,3285,1751712270,101568192,map,-0.4459981620311737,8.579221725463867,-1.4058510065078735,0.017246671986639355,-0.06848772537181988,-0.46394305823047244,-0.8830451984460002
2025/07/05/17:44:30.205559,3286,1751712270,201568192,map,-0.43678539991378784,8.587922096252441,-1.4041670560836792,0.019001856889036113,-0.06821639979610869,-0.4642486036200467,-0.882869574892273
2025/07/05/17:44:30.322973,3287,1751712270,320568192,map,-0.42519304156303406,8.595977783203125,-1.4036967754364014,0.024334734395713715,-0.06513267794421901,-0.4640508328952707,-0.8830755230754108
2025/07/05/17:44:30.445575,3288,1751712270,442573312,map,-0.4145055413246155,8.60384750366211,-1.4034900665283203,0.027892791170356212,-0.06228048950676316,-0.46420418825211907,-0.883095467340149
2025/07/05/17:44:30.583584,3289,1751712270,579587392,map,-0.4010277986526489,8.610897064208984,-1.4035543203353882,0.0249111596692943,-0.06316322428990301,-0.46557195455620287,-0.8824016071789259
2025/07/05/17:44:30.662859,3290,1751712270,660594304,map,-0.3932877779006958,8.615934371948242,-1.4029661417007446,0.020185557663864016,-0.06653773605397674,-0.46713353661241364,-0.8814485418415466
2025/07/05/17:44:30.762475,3291,1751712270,760600704,map,-0.3836835026741028,8.623310089111328,-1.4009199142456055,0.019647459930436435,-0.06767899198128402,-0.4677530496873813,-0.8810451837850506
2025/07/05/17:44:30.861944,3292,1751712270,859606848,map,-0.3748573064804077,8.633597373962402,-1.3984030485153198,0.022906643805496386,-0.06593266931001755,-0.4678297315519114,-0.881058176889183
2025/07/05/17:44:30.984148,3293,1751712270,979613504,map,-0.36512893438339233,8.649698257446289,-1.3976486921310425,0.026640714926549198,-0.06295524074168686,-0.46799283105861544,-0.8810843433231013
2025/07/05/17:44:31.102545,3294,1751712271,100613504,map,-0.35703063011169434,8.66747760772705,-1.397634506225586,0.02570612265738368,-0.0627812397533678,-0.46866349438542776,-0.8807679831961387
2025/07/05/17:44:31.204086,3295,1751712271,201618112,map,-0.3502785265445709,8.6804780960083,-1.3970606327056885,0.022514252507487925,-0.0647884381236357,-0.469809451355671,-0.8800992251652152
2025/07/05/17:44:31.282693,3296,1751712271,280622976,map,-0.34287136793136597,8.690167427062988,-1.3959540128707886,0.0205127013972071,-0.06688244966589399,-0.470636976751467,-0.8795492044918904
2025/07/05/17:44:31.403949,3297,1751712271,401628352,map,-0.3328302502632141,8.703123092651367,-1.3940167427062988,0.021889793036729655,-0.06682962368421218,-0.47085891768215227,-0.8794012269710726
2025/07/05/17:44:31.562802,3298,1751712271,559639872,map,-0.3223118185997009,8.723278999328613,-1.3913823366165161,0.025764726312578447,-0.0643777872337771,-0.4706569556146082,-0.8795872381523673
2025/07/05/17:44:31.625450,3299,1751712271,623639872,map,-0.3189147114753723,8.72981071472168,-1.391270637512207,0.025806703265625702,-0.06328464546175558,-0.47102707743301786,-0.8794672023675754
2025/07/05/17:44:31.723123,3300,1751712271,720639872,map,-0.3140000104904175,8.739606857299805,-1.3903744220733643,0.023389799954882606,-0.0645127016420327,-0.47166926762967937,-0.8791013198480585
2025/07/05/17:44:31.825738,3301,1751712271,823639872,map,-0.30846545100212097,8.748042106628418,-1.3887584209442139,0.0208937870068242,-0.0664616267682629,-0.47250544621601626,-0.8785698066335039
2025/07/05/17:44:31.922779,3302,1751712271,920639872,map,-0.301923543214798,8.755114555358887,-1.3861967325210571,0.021011109935171027,-0.06701062166099107,-0.47276073133992874,-0.8783879557159442
2025/07/05/17:44:32.022700,3303,1751712272,20646528,map,-0.2961232364177704,8.761995315551758,-1.3832898139953613,0.024606155639557217,-0.0652413324648072,-0.4726056265715234,-0.8785112562601551
2025/07/05/17:44:32.102202,3304,1751712272,101651648,map,-0.28970956802368164,8.764626502990723,-1.3816615343093872,0.026803328218026726,-0.06355122879183975,-0.47246272650200644,-0.8786477081184324
2025/07/05/17:44:32.203443,3305,1751712272,201655488,map,-0.2824150025844574,8.76821517944336,-1.3820823431015015,0.026370931500163095,-0.06302313898531935,-0.47262834631928363,-0.878609756478808
2025/07/05/17:44:32.303073,3306,1751712272,301661120,map,-0.2769543528556824,8.77521800994873,-1.382387399673462,0.02326849170234275,-0.06465631133879032,-0.4732226718079894,-0.8782587554843206
2025/07/05/17:44:32.482077,3307,1751712272,479673664,map,-0.26690158247947693,8.785402297973633,-1.3808329105377197,0.02098232200281572,-0.06669469114725769,-0.47370138433698983,-0.877905780145775
2025/07/05/17:44:32.604276,3308,1751712272,601679296,map,-0.2601526379585266,8.791043281555176,-1.3787732124328613,0.02493098749907561,-0.06524995237841058,-0.4733203623124167,-0.878116577794417
2025/07/05/17:44:32.722923,3309,1751712272,720679296,map,-0.25241896510124207,8.794404983520508,-1.3800857067108154,0.026619964177961974,-0.06347973255126146,-0.4731422299429063,-0.8782927366812494
2025/07/05/17:44:32.825225,3310,1751712272,823683136,map,-0.2458626627922058,8.79698657989502,-1.382272720336914,0.02446614118104487,-0.06402896673142115,-0.47342009505861604,-0.8781657662137067
2025/07/05/17:44:32.903144,3311,1751712272,901683136,map,-0.23876409232616425,8.797805786132812,-1.3829913139343262,0.02255046992242842,-0.06539397324155496,-0.4737291782958386,-0.8779497538020669
2025/07/05/17:44:33.025746,3312,1751712273,23687488,map,-0.2291051745414734,8.799020767211914,-1.3843570947647095,0.022261106234864075,-0.06656756909751185,-0.47380121318977264,-0.8778300588801613
2025/07/05/17:44:33.102559,3313,1751712273,100692096,map,-0.2219054102897644,8.79836368560791,-1.3847719430923462,0.023941290786407467,-0.06596720244340251,-0.47363008975643794,-0.8779235051384491
2025/07/05/17:44:33.203959,3314,1751712273,201692096,map,-0.214382141828537,8.798476219177246,-1.3854970932006836,0.025791198779132527,-0.0644988975006672,-0.4734813686109407,-0.8780604192565818
2025/07/05/17:44:33.302585,3315,1751712273,300696960,map,-0.20626120269298553,8.796189308166504,-1.3878393173217773,0.02545973753210768,-0.06397093235056298,-0.47360171056600003,-0.8780438151527261
2025/07/05/17:44:33.383307,3316,1751712273,380701824,map,-0.20067384839057922,8.795137405395508,-1.3901909589767456,0.023105740522104037,-0.06478427773736774,-0.4739414731470044,-0.877865936316144
2025/07/05/17:44:33.541959,3317,1751712273,540706944,map,-0.1874151974916458,8.790975570678711,-1.3955212831497192,0.021677236599334185,-0.06639233435665315,-0.4741217717227724,-0.877684852854685
2025/07/05/17:44:33.625299,3318,1751712273,623712320,map,-0.18119466304779053,8.788607597351074,-1.3972047567367554,0.02416944440604169,-0.065596528512607,-0.47386949622173924,-0.8778158314559799
2025/07/05/17:44:33.741781,3319,1751712273,739712320,map,-0.17021462321281433,8.781967163085938,-1.3981420993804932,0.026417784002681088,-0.06435033935925161,-0.4736692969970359,-0.877951326438471
2025/07/05/17:44:33.825731,3320,1751712273,823716928,map,-0.16339102387428284,8.77761173248291,-1.3994704484939575,0.02677288531676031,-0.0636695840260493,-0.47370189985466515,-0.8779726116205712
2025/07/05/17:44:33.922823,3321,1751712273,920716928,map,-0.15281009674072266,8.768963813781738,-1.4047538042068481,0.02478043290163469,-0.06438013876852851,-0.4739657374166633,-0.877836891245994
2025/07/05/17:44:34.025671,3322,1751712274,23722816,map,-0.14384675025939941,8.76144790649414,-1.4102542400360107,0.021360488002362663,-0.06622932681158383,-0.474557730338958,-0.8774692965556814
2025/07/05/17:44:34.103279,3323,1751712274,101726912,map,-0.13726836442947388,8.754463195800781,-1.4136744737625122,0.02090070390245531,-0.06672939118125196,-0.47473510827025,-0.877346525555664
2025/07/05/17:44:34.203582,3324,1751712274,201726912,map,-0.1307348608970642,8.747567176818848,-1.4160717725753784,0.023058070078693486,-0.06575288331358085,-0.47471991982287887,-0.8773744248971223
2025/07/05/17:44:34.281860,3325,1751712274,279731776,map,-0.12497344613075256,8.741154670715332,-1.4185506105422974,0.025359228327489054,-0.06439545240429487,-0.47466107570772753,-0.8774434445913102
2025/07/05/17:44:34.403717,3326,1751712274,401738176,map,-0.11844263225793839,8.733622550964355,-1.4228153228759766,0.02617578112021107,-0.06361659506841277,-0.4748234130118258,-0.8773884451999864
2025/07/05/17:44:34.562888,3327,1751712274,560751232,map,-0.10427170991897583,8.7181978225708,-1.428798794746399,0.02269983097964932,-0.06547226007226588,-0.4756337755090228,-0.8769096945692627
2025/07/05/17:44:34.662992,3328,1751712274,660757376,map,-0.09540750086307526,8.708256721496582,-1.4304496049880981,0.022219035814210905,-0.06628003135295699,-0.476088937480764,-0.8766142797717676
2025/07/05/17:44:34.781623,3329,1751712274,779763520,map,-0.08639088273048401,8.697579383850098,-1.4286446571350098,0.02440590405506459,-0.06534050953157094,-0.47614377952504106,-0.8765968690800914
2025/07/05/17:44:34.881729,3330,1751712274,879768896,map,-0.07844489812850952,8.687366485595703,-1.4288363456726074,0.026165856953468694,-0.06399132329110159,-0.47629602153606215,-0.876562923207606
2025/07/05/17:44:34.981730,3331,1751712274,979774528,map,-0.0718684121966362,8.678215980529785,-1.4308823347091675,0.025073964278509768,-0.06412583251660814,-0.47668628734234897,-0.8763728415344575
2025/07/05/17:44:35.061855,3332,1751712275,59779136,map,-0.06408181041479111,8.668521881103516,-1.4323711395263672,0.022638708214677127,-0.0652340277038988,-0.47741757618566094,-0.875959170549008
2025/07/05/17:44:35.123163,3333,1751712275,121779136,map,-0.05838286131620407,8.66136646270752,-1.4330869913101196,0.021799172188383186,-0.06588082540979455,-0.4779338993288794,-0.875650444416902
2025/07/05/17:44:35.224817,3334,1751712275,223784768,map,-0.049499593675136566,8.650126457214355,-1.4333034753799438,0.022591236506692827,-0.06583092678439448,-0.4781542409839407,-0.8755138188177718
2025/07/05/17:44:35.322561,3335,1751712275,320784768,map,-0.03851214051246643,8.637876510620117,-1.433343529701233,0.024448170647224255,-0.06510552325340568,-0.47813716638747616,-0.8755275026593166
2025/07/05/17:44:35.481735,3336,1751712275,479792960,map,-0.023908331990242004,8.619686126708984,-1.431764006614685,0.02591473410504979,-0.06427444037218136,-0.4782317833558765,-0.8754950509622343
2025/07/05/17:44:35.581975,3337,1751712275,579797312,map,-0.016024615615606308,8.608924865722656,-1.4301279783248901,0.023343239733959038,-0.0652892434553528,-0.4792170834006533,-0.8749533672286323
2025/07/05/17:44:35.681571,3338,1751712275,679802432,map,-0.005524063482880592,8.594168663024902,-1.4292937517166138,0.02277504965543789,-0.06585033513795263,-0.47972074304266854,-0.8746502381923882
2025/07/05/17:44:35.781700,3339,1751712275,779807040,map,0.0032030921429395676,8.580886840820312,-1.4291372299194336,0.024242602238136315,-0.06533127311224388,-0.4797933171091038,-0.8746099095297857
2025/07/05/17:44:35.902493,3340,1751712275,900810624,map,0.015239095315337181,8.564105987548828,-1.4289730787277222,0.025858628816985814,-0.06430992881196487,-0.47979554227232085,-0.8746380977224322
2025/07/05/17:44:35.982725,3341,1751712275,980810624,map,0.02198299579322338,8.554276466369629,-1.4298043251037598,0.02528546268037833,-0.06413079628985464,-0.4802670526862993,-0.8744091973717362
2025/07/05/17:44:36.081785,3342,1751712276,79815488,map,0.03051007352769375,8.538225173950195,-1.430733561515808,0.02326496954247654,-0.06509325739261775,-0.4811814489781066,-0.8738913102860881
2025/07/05/17:44:36.181932,3343,1751712276,179819840,map,0.037536777555942535,8.523442268371582,-1.4308005571365356,0.02248373244708324,-0.06595171743765339,-0.4820134631913995,-0.8733887302023682
2025/07/05/17:44:36.281702,3344,1751712276,280824704,map,0.04568370431661606,8.506428718566895,-1.429429054260254,0.024083379158811768,-0.0657087375840087,-0.4822437764990475,-0.8732372487940179
2025/07/05/17:44:36.381957,3345,1751712276,380829312,map,0.052329935133457184,8.491415023803711,-1.428534984588623,0.026296411707466053,-0.06458729780770361,-0.4821677928721788,-0.8732990319529628
2025/07/05/17:44:36.562585,3346,1751712276,560840064,map,0.0654987245798111,8.461655616760254,-1.4299598932266235,0.02579184514091581,-0.0641138471167558,-0.48283936622521917,-0.8729778586856283
2025/07/05/17:44:36.662761,3347,1751712276,660845696,map,0.07525873184204102,8.443254470825195,-1.4308518171310425,0.02409811701688101,-0.06492375092028316,-0.48381022374288085,-0.8724287103967552
2025/07/05/17:44:36.741602,3348,1751712276,739845696,map,0.0832415297627449,8.428863525390625,-1.4307811260223389,0.02400724892476495,-0.06526286734359449,-0.484208039190516,-0.8721851781178309
2025/07/05/17:44:36.825239,3349,1751712276,823850048,map,0.09098631888628006,8.414938926696777,-1.4305505752563477,0.0248015008718665,-0.06518555033690529,-0.48433779343897004,-0.872096686972521
2025/07/05/17:44:36.961939,3350,1751712276,959854400,map,0.10676689445972443,8.388751029968262,-1.4325835704803467,0.025036487864013093,-0.06494682045846911,-0.4845377247726111,-0.871996719064901
2025/07/05/17:44:37.061745,3351,1751712277,59858752,map,0.11698733270168304,8.370463371276855,-1.4334981441497803,0.023982303837140354,-0.06522644888738308,-0.4852870851074974,-0.8715886670305399
2025/07/05/17:44:37.161736,3352,1751712277,160862592,map,0.1260795146226883,8.353307723999023,-1.4349908828735352,0.023670861680637447,-0.06541495279905363,-0.48601272035184595,-0.8711786326086011
2025/07/05/17:44:37.242023,3353,1751712277,240862592,map,0.1330491453409195,8.339879035949707,-1.4370779991149902,0.025011453384032153,-0.0650061541531683,-0.48636140269555095,-0.8709771599128467
2025/07/05/17:44:37.341539,3354,1751712277,339867712,map,0.14114047586917877,8.32363510131836,-1.4397990703582764,0.026573660108041082,-0.0643472710458511,-0.486396759930712,-0.8709600801565587
2025/07/05/17:44:37.522742,3355,1751712277,520875904,map,0.15276502072811127,8.294580459594727,-1.4447035789489746,0.027283658487713008,-0.06395424419946215,-0.4865220552253223,-0.8708970928919959
2025/07/05/17:44:37.603651,3356,1751712277,601879744,map,0.1569681018590927,8.282933235168457,-1.4467822313308716,0.024868944378307774,-0.06512478477290487,-0.4874620666056886,-0.8703568415508105
2025/07/05/17:44:37.682040,3357,1751712277,679884096,map,0.1629384309053421,8.268964767456055,-1.4486602544784546,0.023999037178357167,-0.06568309500522379,-0.48802660563040356,-0.8700228786887807
2025/07/05/17:44:37.804002,3358,1751712277,801888448,map,0.16999544203281403,8.251235961914062,-1.4482754468917847,0.024401225286792397,-0.06556314212179344,-0.48850016831364673,-0.8697549310910283
2025/07/05/17:44:37.881928,3359,1751712277,879893312,map,0.17523500323295593,8.237178802490234,-1.4473165273666382,0.025482514956641385,-0.06478324036142348,-0.48879428709552564,-0.869617110056222
2025/07/05/17:44:38.003429,3360,1751712278,1898432,map,0.18174147605895996,8.219111442565918,-1.4454116821289062,0.025434765901158764,-0.06438197463712904,-0.48935745466268216,-0.8693315337611066
2025/07/05/17:44:38.103182,3361,1751712278,101898432,map,0.1886710673570633,8.20227336883545,-1.4438705444335938,0.024699809581256713,-0.06476829723071453,-0.4900393547473031,-0.8689398240841135
2025/07/05/17:44:38.203730,3362,1751712278,201902528,map,0.19429908692836761,8.187753677368164,-1.4426544904708862,0.024943838524212725,-0.06496028203902432,-0.49070130263360706,-0.8685448740685592
2025/07/05/17:44:38.322806,3363,1751712278,320906624,map,0.19957545399665833,8.169729232788086,-1.4424556493759155,0.026390051480425072,-0.06460298946612064,-0.4910448837185342,-0.8683345790124635
2025/07/05/17:44:38.481893,3364,1751712278,480906624,map,0.20634153485298157,8.146655082702637,-1.443057656288147,0.02751475513633195,-0.06411004342266122,-0.4912579756893998,-0.8682156655484196
2025/07/05/17:44:38.603479,3365,1751712278,601910464,map,0.2113698571920395,8.1299467086792,-1.4432158470153809,0.024842106413845485,-0.06530656350332695,-0.4924646317447443,-0.8675232037201208
2025/07/05/17:44:38.702971,3366,1751712278,701910464,map,0.2172563672065735,8.116804122924805,-1.443945288658142,0.023933480717758797,-0.06568392817459304,-0.4932730303695061,-0.867060855759486
2025/07/05/17:44:38.803686,3367,1751712278,801914304,map,0.22203662991523743,8.105167388916016,-1.444777250289917,0.024902032358332597,-0.06503322770650545,-0.4938497726025655,-0.8667542732394762
2025/07/05/17:44:38.881553,3368,1751712278,880918912,map,0.22704198956489563,8.095479965209961,-1.4443421363830566,0.02610332739817771,-0.06425002091416004,-0.4941630799153663,-0.8665987546493665
2025/07/05/17:44:39.002791,3369,1751712279,1923520,map,0.23330025374889374,8.08249282836914,-1.444353461265564,0.026627029161817185,-0.06389699251462058,-0.4946455060663374,-0.8663336533887964
2025/07/05/17:44:39.081607,3370,1751712279,79928640,map,0.23680850863456726,8.074118614196777,-1.4441008567810059,0.026183661108964522,-0.06438500753751139,-0.4953078702273189,-0.8659325033662859
2025/07/05/17:44:39.203993,3371,1751712279,201933504,map,0.24107502400875092,8.062800407409668,-1.442946195602417,0.026320574905491893,-0.06480407634229281,-0.4959532981726687,-0.8655275761393848
2025/07/05/17:44:39.302691,3372,1751712279,300937856,map,0.2453492432832718,8.050492286682129,-1.4401923418045044,0.027453974872583636,-0.06453965752441543,-0.4963537028048176,-0.8652825628557839
2025/07/05/17:44:39.441838,3373,1751712279,440942208,map,0.25090673565864563,8.03526782989502,-1.4383727312088013,0.02781090788787234,-0.0640635012901809,-0.49676498069163283,-0.8650705030015398
2025/07/05/17:44:39.581725,3374,1751712279,580950400,map,0.25741973519325256,8.021005630493164,-1.4407153129577637,0.02417263450054863,-0.06512370308649346,-0.4981723781952929,-0.8642909629522055
2025/07/05/17:44:39.681770,3375,1751712279,679954496,map,0.26385071873664856,8.011287689208984,-1.4448927640914917,0.023790353835958334,-0.06544510230104442,-0.4989455488415737,-0.8638311738646309
2025/07/05/17:44:39.761750,3376,1751712279,759954496,map,0.26844522356987,8.003976821899414,-1.4481498003005981,0.025311989697124008,-0.06496437555389568,-0.4992876523040515,-0.8636265242239689
2025/07/05/17:44:39.861684,3377,1751712279,859954496,map,0.2744022011756897,7.996819972991943,-1.4510040283203125,0.0277053502775126,-0.0639839266544481,-0.4995061145902654,-0.8634999201984996
2025/07/05/17:44:39.961949,3378,1751712279,959954496,map,0.27991318702697754,7.990768909454346,-1.4523401260375977,0.028436937871630843,-0.06363743553603272,-0.4998158073107304,-0.8633225214977337
2025/07/05/17:44:40.061432,3379,1751712280,60959104,map,0.2862454652786255,7.9839911460876465,-1.4563626050949097,0.02749319373136785,-0.06418934918060772,-0.5006156804106675,-0.8628486496930869
2025/07/05/17:44:40.161915,3380,1751712280,160963200,map,0.29228919744491577,7.976928234100342,-1.4614644050598145,0.02675251031549899,-0.06476032637676817,-0.5012295633941822,-0.862472798469071
2025/07/05/17:44:40.261883,3381,1751712280,259968064,map,0.29854393005371094,7.972208023071289,-1.4675955772399902,0.02688461414136824,-0.0647007357643518,-0.5015894389748996,-0.8622639195877714
2025/07/05/17:44:40.341405,3382,1751712280,339968064,map,0.30326730012893677,7.969281196594238,-1.4733895063400269,0.026939102991482475,-0.06437467005122312,-0.5019196288257454,-0.8620944685968217
2025/07/05/17:44:40.522757,3383,1751712280,520972672,map,0.31410646438598633,7.964298725128174,-1.4812980890274048,0.026093662079495258,-0.06429099937903328,-0.5025738425999594,-0.8617455082171519
2025/07/05/17:44:40.603963,3384,1751712280,601976256,map,0.318546861410141,7.962259769439697,-1.4831604957580566,0.025260491710193744,-0.06478777520859062,-0.5037066680603803,-0.8610714513288605
2025/07/05/17:44:40.702790,3385,1751712280,701976256,map,0.3264726400375366,7.959335803985596,-1.4823625087738037,0.026744242399405233,-0.06457830577022075,-0.5040523466419582,-0.8608400663114286
2025/07/05/17:44:40.803596,3386,1751712280,801979840,map,0.3325103521347046,7.955996513366699,-1.4825750589370728,0.028549536918435293,-0.0639392204434723,-0.5042829547943659,-0.860694720289771
2025/07/05/17:44:40.922888,3387,1751712280,920983424,map,0.34208405017852783,7.952178478240967,-1.4822324514389038,0.028723722145626303,-0.06376509710766375,-0.5046775273356713,-0.8604705419590515
2025/07/05/17:44:41.003787,3388,1751712281,1987520,map,0.34707435965538025,7.949393272399902,-1.4811667203903198,0.0270938218323428,-0.0644439124627222,-0.5054032373219617,-0.8600467863258923
2025/07/05/17:44:41.122842,3389,1751712281,120987520,map,0.35934513807296753,7.9462385177612305,-1.4791873693466187,0.026291872656108925,-0.06482553647711753,-0.5058221475646663,-0.8597966865984992
2025/07/05/17:44:41.204069,3390,1751712281,201987520,map,0.3656136989593506,7.943939208984375,-1.4782848358154297,0.026436089153502457,-0.06468676300128792,-0.5061982473267163,-0.8595813459388493
2025/07/05/17:44:41.302472,3391,1751712281,300991360,map,0.3745948076248169,7.939195156097412,-1.4775463342666626,0.0268742774970439,-0.06423078261290294,-0.5064966101893601,-0.8594261827758296
2025/07/05/17:44:41.425734,3392,1751712281,423994944,map,0.38376283645629883,7.933746814727783,-1.479675531387329,0.026923230522106906,-0.06396711259035764,-0.5070085501133547,-0.859142408612833
2025/07/05/17:44:41.561779,3393,1751712281,560999808,map,0.3957372307777405,7.927629470825195,-1.4807485342025757,0.027020938319639507,-0.06447756416675245,-0.5079477512711148,-0.8585462099328526
2025/07/05/17:44:41.663123,3394,1751712281,661005440,map,0.4043145775794983,7.921586036682129,-1.4825235605239868,0.02797591386733729,-0.06440705111273401,-0.5081755029767854,-0.8583861241798706
2025/07/05/17:44:41.741858,3395,1751712281,740005440,map,0.41086074709892273,7.916347026824951,-1.484038233757019,0.028502185797808725,-0.06417065127951126,-0.5083507736173887,-0.8582827295720875
2025/07/05/17:44:41.825770,3396,1751712281,824010048,map,0.41733479499816895,7.911133289337158,-1.4851558208465576,0.02829609154215623,-0.06405280283716556,-0.5086392377473061,-0.8581274354523226
2025/07/05/17:44:41.902869,3397,1751712281,902013632,map,0.4255174994468689,7.90496826171875,-1.485991358757019,0.027554137782125444,-0.06412888100461987,-0.5091094166519987,-0.8578670398077084
2025/07/05/17:44:42.025651,3398,1751712282,24013632,map,0.43581128120422363,7.8968000411987305,-1.487937092781067,0.026727574597283445,-0.0643670570708472,-0.5097533881923937,-0.8574928582481373
2025/07/05/17:44:42.102696,3399,1751712282,101013632,map,0.4432682991027832,7.891176700592041,-1.4894206523895264,0.02673683169930807,-0.06437853555757007,-0.5100397648820585,-0.8573214007763947
2025/07/05/17:44:42.202819,3400,1751712282,201017984,map,0.4508174955844879,7.8851847648620605,-1.491760492324829,0.02697794385458367,-0.06430544745291715,-0.5103190808477773,-0.8571530993328664
2025/07/05/17:44:42.302675,3401,1751712282,302021568,map,0.4587286114692688,7.87686824798584,-1.4955166578292847,0.027024947053241002,-0.0643449229106105,-0.5107309308836903,-0.8569033197339572
2025/07/05/17:44:42.444899,3402,1751712282,443026176,map,0.46825119853019714,7.865673065185547,-1.4994498491287231,0.027175084566920076,-0.06440309018942902,-0.5112432760472929,-0.8565886232312828
2025/07/05/17:44:42.561891,3403,1751712282,561030528,map,0.47709083557128906,7.854081153869629,-1.5004554986953735,0.027966813270707654,-0.06424251310883641,-0.5117362244923834,-0.856280791217007
2025/07/05/17:44:42.661404,3404,1751712282,660030528,map,0.48486053943634033,7.844391822814941,-1.500921368598938,0.028433765550708423,-0.06400801480632405,-0.511976884980528,-0.8561391033370662
2025/07/05/17:44:42.743249,3405,1751712282,740030528,map,0.49080607295036316,7.837032318115234,-1.5008188486099243,0.028257150388178227,-0.06388127300937166,-0.5122995709585697,-0.8559613694591055
2025/07/05/17:44:42.824746,3406,1751712282,824030528,map,0.4968301057815552,7.829689979553223,-1.5002378225326538,0.027767592302594235,-0.06388384981536342,-0.5127523354208575,-0.8557060576336604
2025/07/05/17:44:42.903449,3407,1751712282,902030528,map,0.5047117471694946,7.820481300354004,-1.4987521171569824,0.027255247128488168,-0.06393520279507851,-0.5132376741776782,-0.8554276890259076
2025/07/05/17:44:43.003500,3408,1751712283,2030528,map,0.5126487612724304,7.810995578765869,-1.4963852167129517,0.026858948614141363,-0.06413857556486603,-0.5137341072330378,-0.8551269537731381
2025/07/05/17:44:43.102375,3409,1751712283,102034112,map,0.5252577662467957,7.799482822418213,-1.4950371980667114,0.02695825919944031,-0.06437593668734962,-0.5141104915581065,-0.8548797538288319
2025/07/05/17:44:43.203769,3410,1751712283,202034112,map,0.5353970527648926,7.790214538574219,-1.4954257011413574,0.027404682824195864,-0.06437680347325411,-0.514500646956347,-0.8546307359411851
2025/07/05/17:44:43.303328,3411,1751712283,301034112,map,0.547015368938446,7.779382228851318,-1.4958595037460327,0.02805704483874299,-0.06413562227524694,-0.5149842571824461,-0.8543363734762365
2025/07/05/17:44:43.462800,3412,1751712283,461039488,map,0.5617238283157349,7.764806270599365,-1.4964665174484253,0.02845633195345077,-0.06377499265325567,-0.5154185039966392,-0.8540882584497335
2025/07/05/17:44:43.603733,3413,1751712283,602039488,map,0.5721644163131714,7.753638744354248,-1.4982914924621582,0.027853112058565613,-0.06388442918267634,-0.5162823524437119,-0.8535780669697666
2025/07/05/17:44:43.722598,3414,1751712283,721044608,map,0.5837530493736267,7.742096900939941,-1.5026413202285767,0.027453748555674846,-0.0640928301426824,-0.516852991160571,-0.8532299727171528
2025/07/05/17:44:43.803596,3415,1751712283,802044608,map,0.5897821187973022,7.735962390899658,-1.50442373752594,0.027462368938068707,-0.06415368609068109,-0.5173882551442402,-0.8529006485471131
2025/07/05/17:44:43.922903,3416,1751712283,921044608,map,0.600967526435852,7.720693588256836,-1.508050560951233,0.027723971345236458,-0.06402823648185384,-0.5177961616313844,-0.8526540337942918
2025/07/05/17:44:44.025007,3417,1751712284,24048192,map,0.6090264916419983,7.710085391998291,-1.5113288164138794,0.028054218932158568,-0.06380885272611665,-0.5183321556156288,-0.8523339530775124
2025/07/05/17:44:44.102282,3418,1751712284,102051264,map,0.616341233253479,7.701685905456543,-1.5134063959121704,0.02819459723541758,-0.06366796477604125,-0.5187348803488179,-0.8520948179970977
2025/07/05/17:44:44.203866,3419,1751712284,202051264,map,0.6236178874969482,7.69295597076416,-1.516469955444336,0.028312394758511068,-0.06350614999042437,-0.5192453036776086,-0.8517920472892311
2025/07/05/17:44:44.322857,3420,1751712284,321054592,map,0.6332070231437683,7.68311882019043,-1.5188294649124146,0.02828577775926729,-0.06346709605557761,-0.5197026425482489,-0.8515168852249452
2025/07/05/17:44:44.522837,3421,1751712284,521057920,map,0.6472790241241455,7.669749736785889,-1.5208628177642822,0.02796181079752922,-0.06375371008671002,-0.520361080275394,-0.8511039582340855
2025/07/05/17:44:44.624771,3422,1751712284,624057920,map,0.6536325216293335,7.664045810699463,-1.522314190864563,0.027842717910675524,-0.06405670319217788,-0.5210821374192298,-0.8506438313995478
2025/07/05/17:44:44.722870,3423,1751712284,721057920,map,0.6604307889938354,7.65824556350708,-1.523102879524231,0.027849937258701066,-0.06409753505284016,-0.5213738968219168,-0.8504617255982573
2025/07/05/17:44:44.803840,3424,1751712284,802057920,map,0.6648282408714294,7.65440559387207,-1.5229381322860718,0.027950280109304993,-0.06401754670465479,-0.5216965691761943,-0.8502665613003471
2025/07/05/17:44:44.902613,3425,1751712284,901062016,map,0.674201250076294,7.649401664733887,-1.522267460823059,0.02817634056125829,-0.06379017824872066,-0.5219466959670933,-0.8501226697133812
2025/07/05/17:44:44.981836,3426,1751712284,981065344,map,0.6802700757980347,7.646053791046143,-1.5223363637924194,0.028647239611218712,-0.06340584402327396,-0.522298977642632,-0.8499192976746763
2025/07/05/17:44:45.081761,3427,1751712285,80069184,map,0.6896841526031494,7.642186641693115,-1.5243581533432007,0.028930100098607747,-0.06324394754335286,-0.5226224150760101,-0.8497229334715737
2025/07/05/17:44:45.202497,3428,1751712285,202073024,map,0.6993370652198792,7.63838529586792,-1.5284265279769897,0.028631668687016287,-0.06341212783138978,-0.5229126035992093,-0.8495419581098914
2025/07/05/17:44:45.302581,3429,1751712285,301077632,map,0.7055315971374512,7.637430667877197,-1.5328450202941895,0.02812322271030255,-0.0637239738278551,-0.5232921252088581,-0.8493018846078055
2025/07/05/17:44:45.381855,3430,1751712285,380081472,map,0.7095202803611755,7.636739730834961,-1.534778356552124,0.027899521066212817,-0.06393319160199103,-0.5237012279344042,-0.8490413344448292
2025/07/05/17:44:45.561838,3431,1751712285,560086848,map,0.7206965088844299,7.633081436157227,-1.5316205024719238,0.028345436176646,-0.06381162490601545,-0.5241826120939329,-0.8487385945938779
