time,.header.seq,.header.stamp.secs,.header.stamp.nsecs,.header.frame_id,.magnetic_field.x,.magnetic_field.y,.magnetic_field.z,.magnetic_field_covariance
2025/07/05/17:44:13.305101,7261,1751712253,279543352,base_link,372000.0,-163999.99999999997,317000.0,"(-1.0, 0.0, 0.0, 0.0, 0.0, 0.0, 0.0, 0.0, 0.0)"
2025/07/05/17:44:13.404401,7262,1751712253,401044544,base_link,392000.0,-151999.99999999997,327000.0,"(-1.0, 0.0, 0.0, 0.0, 0.0, 0.0, 0.0, 0.0, 0.0)"
2025/07/05/17:44:13.582471,7263,1751712253,579137160,base_link,372000.0,-162999.99999999997,323000.0,"(-1.0, 0.0, 0.0, 0.0, 0.0, 0.0, 0.0, 0.0, 0.0)"
2025/07/05/17:44:13.684217,7264,1751712253,679126888,base_link,384000.0,-153999.99999999997,320000.0,"(-1.0, 0.0, 0.0, 0.0, 0.0, 0.0, 0.0, 0.0, 0.0)"
2025/07/05/17:44:13.782924,7265,1751712253,779454032,base_link,386000.0,-162999.99999999997,318000.0,"(-1.0, 0.0, 0.0, 0.0, 0.0, 0.0, 0.0, 0.0, 0.0)"
2025/07/05/17:44:13.882385,7266,1751712253,879093032,base_link,376000.0,-164999.99999999997,317000.0,"(-1.0, 0.0, 0.0, 0.0, 0.0, 0.0, 0.0, 0.0, 0.0)"
2025/07/05/17:44:14.004153,7267,1751712254,650944,base_link,387000.0,-166999.99999999997,308000.0,"(-1.0, 0.0, 0.0, 0.0, 0.0, 0.0, 0.0, 0.0, 0.0)"
2025/07/05/17:44:14.082322,7268,1751712254,79417576,base_link,387000.0,-166999.99999999997,308000.0,"(-1.0, 0.0, 0.0, 0.0, 0.0, 0.0, 0.0, 0.0, 0.0)"
2025/07/05/17:44:14.182552,7269,1751712254,178971184,base_link,389000.0,-165999.99999999997,298000.0,"(-1.0, 0.0, 0.0, 0.0, 0.0, 0.0, 0.0, 0.0, 0.0)"
2025/07/05/17:44:14.282626,7270,1751712254,279683864,base_link,403000.0,-163999.99999999997,276000.0,"(-1.0, 0.0, 0.0, 0.0, 0.0, 0.0, 0.0, 0.0, 0.0)"
2025/07/05/17:44:14.427628,7271,1751712254,423070728,base_link,409000.0,-150999.99999999997,293000.0,"(-1.0, 0.0, 0.0, 0.0, 0.0, 0.0, 0.0, 0.0, 0.0)"
2025/07/05/17:44:14.582510,7272,1751712254,579180808,base_link,397000.0,-140999.99999999997,313000.0,"(-1.0, 0.0, 0.0, 0.0, 0.0, 0.0, 0.0, 0.0, 0.0)"
2025/07/05/17:44:14.662750,7273,1751712254,659613696,base_link,385000.0,-141999.99999999997,315000.0,"(-1.0, 0.0, 0.0, 0.0, 0.0, 0.0, 0.0, 0.0, 0.0)"
2025/07/05/17:44:14.763082,7274,1751712254,759180352,base_link,387000.0,-140999.99999999997,315000.0,"(-1.0, 0.0, 0.0, 0.0, 0.0, 0.0, 0.0, 0.0, 0.0)"
2025/07/05/17:44:14.842494,7275,1751712254,839637352,base_link,387000.0,-136999.99999999997,316000.0,"(-1.0, 0.0, 0.0, 0.0, 0.0, 0.0, 0.0, 0.0, 0.0)"
2025/07/05/17:44:14.963357,7276,1751712254,959442152,base_link,387000.0,-133999.99999999997,316000.0,"(-1.0, 0.0, 0.0, 0.0, 0.0, 0.0, 0.0, 0.0, 0.0)"
2025/07/05/17:44:15.042731,7277,1751712255,39660152,base_link,388000.0,-128999.99999999996,316000.0,"(-1.0, 0.0, 0.0, 0.0, 0.0, 0.0, 0.0, 0.0, 0.0)"
2025/07/05/17:44:15.164013,7278,1751712255,159455184,base_link,390000.0,-124999.99999999996,317000.0,"(-1.0, 0.0, 0.0, 0.0, 0.0, 0.0, 0.0, 0.0, 0.0)"
2025/07/05/17:44:15.262377,7279,1751712255,259213328,base_link,390000.0,-120999.99999999996,317000.0,"(-1.0, 0.0, 0.0, 0.0, 0.0, 0.0, 0.0, 0.0, 0.0)"
2025/07/05/17:44:15.362538,7280,1751712255,359251216,base_link,391000.0,-117999.99999999996,318000.0,"(-1.0, 0.0, 0.0, 0.0, 0.0, 0.0, 0.0, 0.0, 0.0)"
2025/07/05/17:44:15.523909,7281,1751712255,520302200,base_link,392000.0,-115999.99999999996,316000.0,"(-1.0, 0.0, 0.0, 0.0, 0.0, 0.0, 0.0, 0.0, 0.0)"
2025/07/05/17:44:15.605887,7282,1751712255,601310320,base_link,394000.0,-113999.99999999996,315000.0,"(-1.0, 0.0, 0.0, 0.0, 0.0, 0.0, 0.0, 0.0, 0.0)"
2025/07/05/17:44:15.682989,7283,1751712255,679857768,base_link,394000.0,-113999.99999999996,315000.0,"(-1.0, 0.0, 0.0, 0.0, 0.0, 0.0, 0.0, 0.0, 0.0)"
2025/07/05/17:44:15.782462,7284,1751712255,779869960,base_link,403000.0,-113999.99999999996,302000.0,"(-1.0, 0.0, 0.0, 0.0, 0.0, 0.0, 0.0, 0.0, 0.0)"
2025/07/05/17:44:15.903738,7285,1751712255,900993640,base_link,440000.0,-103999.99999999997,274000.0,"(-1.0, 0.0, 0.0, 0.0, 0.0, 0.0, 0.0, 0.0, 0.0)"
2025/07/05/17:44:16.004465,7286,1751712256,1280272,base_link,426000.0,-94999.99999999997,296000.0,"(-1.0, 0.0, 0.0, 0.0, 0.0, 0.0, 0.0, 0.0, 0.0)"
2025/07/05/17:44:16.103211,7287,1751712256,100267440,base_link,424000.0,-93999.99999999996,298000.0,"(-1.0, 0.0, 0.0, 0.0, 0.0, 0.0, 0.0, 0.0, 0.0)"
2025/07/05/17:44:16.205722,7288,1751712256,201255864,base_link,422000.0,-91999.99999999996,300000.0,"(-1.0, 0.0, 0.0, 0.0, 0.0, 0.0, 0.0, 0.0, 0.0)"
2025/07/05/17:44:16.282045,7289,1751712256,279288544,base_link,422000.0,-91999.99999999996,300000.0,"(-1.0, 0.0, 0.0, 0.0, 0.0, 0.0, 0.0, 0.0, 0.0)"
2025/07/05/17:44:16.404472,7290,1751712256,401055688,base_link,425000.0,-86999.99999999997,287000.0,"(-1.0, 0.0, 0.0, 0.0, 0.0, 0.0, 0.0, 0.0, 0.0)"
2025/07/05/17:44:16.544488,7291,1751712256,539921600,base_link,419000.0,-80999.99999999997,295000.0,"(-1.0, 0.0, 0.0, 0.0, 0.0, 0.0, 0.0, 0.0, 0.0)"
2025/07/05/17:44:16.626458,7292,1751712256,623362744,base_link,445000.0,-75999.99999999997,270000.0,"(-1.0, 0.0, 0.0, 0.0, 0.0, 0.0, 0.0, 0.0, 0.0)"
2025/07/05/17:44:16.705108,7293,1751712256,701051680,base_link,415000.0,-73999.99999999997,290000.0,"(-1.0, 0.0, 0.0, 0.0, 0.0, 0.0, 0.0, 0.0, 0.0)"
2025/07/05/17:44:16.805529,7294,1751712256,801372872,base_link,448000.0,-71999.99999999997,262000.0,"(-1.0, 0.0, 0.0, 0.0, 0.0, 0.0, 0.0, 0.0, 0.0)"
2025/07/05/17:44:16.922813,7295,1751712256,920212528,base_link,374000.0,-66999.99999999996,318000.0,"(-1.0, 0.0, 0.0, 0.0, 0.0, 0.0, 0.0, 0.0, 0.0)"
2025/07/05/17:44:17.044677,7296,1751712257,39261904,base_link,501000.0,-68999.99999999997,233000.0,"(-1.0, 0.0, 0.0, 0.0, 0.0, 0.0, 0.0, 0.0, 0.0)"
2025/07/05/17:44:17.143986,7297,1751712257,139305048,base_link,444000.0,-51999.99999999997,252000.0,"(-1.0, 0.0, 0.0, 0.0, 0.0, 0.0, 0.0, 0.0, 0.0)"
2025/07/05/17:44:17.204232,7298,1751712257,201521728,base_link,442000.0,-51999.99999999997,249000.0,"(-1.0, 0.0, 0.0, 0.0, 0.0, 0.0, 0.0, 0.0, 0.0)"
2025/07/05/17:44:17.283892,7299,1751712257,280018896,base_link,442000.0,-51999.99999999997,249000.0,"(-1.0, 0.0, 0.0, 0.0, 0.0, 0.0, 0.0, 0.0, 0.0)"
2025/07/05/17:44:17.426299,7300,1751712257,423927760,base_link,428000.0,-37999.99999999996,276000.0,"(-1.0, 0.0, 0.0, 0.0, 0.0, 0.0, 0.0, 0.0, 0.0)"
2025/07/05/17:44:17.582519,7301,1751712257,579829816,base_link,424000.0,-30999.999999999964,284000.0,"(-1.0, 0.0, 0.0, 0.0, 0.0, 0.0, 0.0, 0.0, 0.0)"
2025/07/05/17:44:17.682781,7302,1751712257,679835728,base_link,425000.0,-20999.999999999964,287000.0,"(-1.0, 0.0, 0.0, 0.0, 0.0, 0.0, 0.0, 0.0, 0.0)"
2025/07/05/17:44:17.782939,7303,1751712257,779276920,base_link,402000.0,-15999.999999999962,307000.0,"(-1.0, 0.0, 0.0, 0.0, 0.0, 0.0, 0.0, 0.0, 0.0)"
2025/07/05/17:44:17.882577,7304,1751712257,879717808,base_link,384000.0,-5999.999999999961,322000.0,"(-1.0, 0.0, 0.0, 0.0, 0.0, 0.0, 0.0, 0.0, 0.0)"
2025/07/05/17:44:18.003987,7305,1751712258,1151928,base_link,381000.0,3000.0000000000405,330000.0,"(-1.0, 0.0, 0.0, 0.0, 0.0, 0.0, 0.0, 0.0, 0.0)"
2025/07/05/17:44:18.083009,7306,1751712258,79199048,base_link,381000.0,3000.0000000000405,330000.0,"(-1.0, 0.0, 0.0, 0.0, 0.0, 0.0, 0.0, 0.0, 0.0)"
2025/07/05/17:44:18.183447,7307,1751712258,179441936,base_link,380000.0,8000.00000000004,330000.0,"(-1.0, 0.0, 0.0, 0.0, 0.0, 0.0, 0.0, 0.0, 0.0)"
2025/07/05/17:44:18.242610,7308,1751712258,240215936,base_link,380000.0,11000.00000000004,329000.0,"(-1.0, 0.0, 0.0, 0.0, 0.0, 0.0, 0.0, 0.0, 0.0)"
2025/07/05/17:44:18.362205,7309,1751712258,359483224,base_link,380000.0,16000.00000000004,330000.0,"(-1.0, 0.0, 0.0, 0.0, 0.0, 0.0, 0.0, 0.0, 0.0)"
2025/07/05/17:44:18.542629,7310,1751712258,539360904,base_link,378000.0,23000.00000000004,327000.0,"(-1.0, 0.0, 0.0, 0.0, 0.0, 0.0, 0.0, 0.0, 0.0)"
2025/07/05/17:44:18.629289,7311,1751712258,623404792,base_link,378000.0,27000.00000000004,327000.0,"(-1.0, 0.0, 0.0, 0.0, 0.0, 0.0, 0.0, 0.0, 0.0)"
2025/07/05/17:44:18.704798,7312,1751712258,701216984,base_link,378000.0,31000.00000000004,326000.0,"(-1.0, 0.0, 0.0, 0.0, 0.0, 0.0, 0.0, 0.0, 0.0)"
2025/07/05/17:44:18.806697,7313,1751712258,800712384,base_link,378000.0,35000.00000000004,325000.0,"(-1.0, 0.0, 0.0, 0.0, 0.0, 0.0, 0.0, 0.0, 0.0)"
2025/07/05/17:44:18.903971,7314,1751712258,900686272,base_link,377000.0,39000.00000000004,326000.0,"(-1.0, 0.0, 0.0, 0.0, 0.0, 0.0, 0.0, 0.0, 0.0)"
2025/07/05/17:44:19.004724,7315,1751712259,990672,base_link,377000.0,41000.00000000004,324000.0,"(-1.0, 0.0, 0.0, 0.0, 0.0, 0.0, 0.0, 0.0, 0.0)"
2025/07/05/17:44:19.082257,7316,1751712259,79809048,base_link,377000.0,41000.00000000004,324000.0,"(-1.0, 0.0, 0.0, 0.0, 0.0, 0.0, 0.0, 0.0, 0.0)"
2025/07/05/17:44:19.183147,7317,1751712259,179865752,base_link,415000.0,43000.00000000004,292000.0,"(-1.0, 0.0, 0.0, 0.0, 0.0, 0.0, 0.0, 0.0, 0.0)"
2025/07/05/17:44:19.282935,7318,1751712259,279455920,base_link,410000.0,44000.00000000004,284000.0,"(-1.0, 0.0, 0.0, 0.0, 0.0, 0.0, 0.0, 0.0, 0.0)"
2025/07/05/17:44:19.405780,7319,1751712259,401334320,base_link,377000.0,54000.00000000004,318000.0,"(-1.0, 0.0, 0.0, 0.0, 0.0, 0.0, 0.0, 0.0, 0.0)"
2025/07/05/17:44:19.582261,7320,1751712259,579472888,base_link,377000.0,58000.00000000004,317000.0,"(-1.0, 0.0, 0.0, 0.0, 0.0, 0.0, 0.0, 0.0, 0.0)"
2025/07/05/17:44:19.643275,7321,1751712259,640015888,base_link,362000.0,62000.00000000004,319000.0,"(-1.0, 0.0, 0.0, 0.0, 0.0, 0.0, 0.0, 0.0, 0.0)"
2025/07/05/17:44:19.762218,7322,1751712259,759495640,base_link,361000.0,64000.00000000004,319000.0,"(-1.0, 0.0, 0.0, 0.0, 0.0, 0.0, 0.0, 0.0, 0.0)"
2025/07/05/17:44:19.863479,7323,1751712259,859450272,base_link,360000.0,68000.00000000004,318000.0,"(-1.0, 0.0, 0.0, 0.0, 0.0, 0.0, 0.0, 0.0, 0.0)"
2025/07/05/17:44:19.983179,7324,1751712259,979679976,base_link,365000.0,78000.00000000004,318000.0,"(-1.0, 0.0, 0.0, 0.0, 0.0, 0.0, 0.0, 0.0, 0.0)"
2025/07/05/17:44:20.083048,7325,1751712260,79886936,base_link,360000.0,78000.00000000004,315000.0,"(-1.0, 0.0, 0.0, 0.0, 0.0, 0.0, 0.0, 0.0, 0.0)"
2025/07/05/17:44:20.182710,7326,1751712260,179595384,base_link,359000.0,81000.00000000004,315000.0,"(-1.0, 0.0, 0.0, 0.0, 0.0, 0.0, 0.0, 0.0, 0.0)"
2025/07/05/17:44:20.283339,7327,1751712260,279551088,base_link,382000.0,84000.00000000004,303000.0,"(-1.0, 0.0, 0.0, 0.0, 0.0, 0.0, 0.0, 0.0, 0.0)"
2025/07/05/17:44:20.363938,7328,1751712260,360607976,base_link,374000.0,84000.00000000004,315000.0,"(-1.0, 0.0, 0.0, 0.0, 0.0, 0.0, 0.0, 0.0, 0.0)"
2025/07/05/17:44:20.583267,7329,1751712260,579900800,base_link,369000.0,84000.00000000004,314000.0,"(-1.0, 0.0, 0.0, 0.0, 0.0, 0.0, 0.0, 0.0, 0.0)"
2025/07/05/17:44:20.663553,7330,1751712260,660652248,base_link,366000.0,89000.00000000004,316000.0,"(-1.0, 0.0, 0.0, 0.0, 0.0, 0.0, 0.0, 0.0, 0.0)"
2025/07/05/17:44:20.783397,7331,1751712260,779538136,base_link,367000.0,92000.00000000004,313000.0,"(-1.0, 0.0, 0.0, 0.0, 0.0, 0.0, 0.0, 0.0, 0.0)"
2025/07/05/17:44:20.882698,7332,1751712260,879876072,base_link,368000.0,97000.00000000004,308000.0,"(-1.0, 0.0, 0.0, 0.0, 0.0, 0.0, 0.0, 0.0, 0.0)"
2025/07/05/17:44:21.004352,7333,1751712261,1483216,base_link,371000.0,100000.00000000004,309000.0,"(-1.0, 0.0, 0.0, 0.0, 0.0, 0.0, 0.0, 0.0, 0.0)"
2025/07/05/17:44:21.083522,7334,1751712261,79567592,base_link,371000.0,100000.00000000004,309000.0,"(-1.0, 0.0, 0.0, 0.0, 0.0, 0.0, 0.0, 0.0, 0.0)"
2025/07/05/17:44:21.183137,7335,1751712261,179675736,base_link,358000.0,103000.00000000004,315000.0,"(-1.0, 0.0, 0.0, 0.0, 0.0, 0.0, 0.0, 0.0, 0.0)"
2025/07/05/17:44:21.283057,7336,1751712261,279686880,base_link,366000.0,101000.00000000004,313000.0,"(-1.0, 0.0, 0.0, 0.0, 0.0, 0.0, 0.0, 0.0, 0.0)"
2025/07/05/17:44:21.382204,7337,1751712261,379569280,base_link,355000.0,106000.00000000004,316000.0,"(-1.0, 0.0, 0.0, 0.0, 0.0, 0.0, 0.0, 0.0, 0.0)"
2025/07/05/17:44:21.542737,7338,1751712261,540298264,base_link,360000.0,113000.00000000004,310000.0,"(-1.0, 0.0, 0.0, 0.0, 0.0, 0.0, 0.0, 0.0, 0.0)"
2025/07/05/17:44:21.662769,7339,1751712261,659975808,base_link,360000.0,121000.00000000004,309000.0,"(-1.0, 0.0, 0.0, 0.0, 0.0, 0.0, 0.0, 0.0, 0.0)"
2025/07/05/17:44:21.723567,7340,1751712261,720728808,base_link,358000.0,122000.00000000004,307000.0,"(-1.0, 0.0, 0.0, 0.0, 0.0, 0.0, 0.0, 0.0, 0.0)"
2025/07/05/17:44:21.826402,7341,1751712261,823701952,base_link,355000.0,126000.00000000004,308000.0,"(-1.0, 0.0, 0.0, 0.0, 0.0, 0.0, 0.0, 0.0, 0.0)"
2025/07/05/17:44:21.962450,7342,1751712261,959731472,base_link,356000.0,127000.00000000004,308000.0,"(-1.0, 0.0, 0.0, 0.0, 0.0, 0.0, 0.0, 0.0, 0.0)"
2025/07/05/17:44:22.044449,7343,1751712262,40110472,base_link,351000.0,128000.00000000004,312000.0,"(-1.0, 0.0, 0.0, 0.0, 0.0, 0.0, 0.0, 0.0, 0.0)"
2025/07/05/17:44:22.141979,7344,1751712262,140261128,base_link,358000.0,130000.00000000004,306000.0,"(-1.0, 0.0, 0.0, 0.0, 0.0, 0.0, 0.0, 0.0, 0.0)"
2025/07/05/17:44:22.263840,7345,1751712262,259692672,base_link,355000.0,132000.00000000003,309000.0,"(-1.0, 0.0, 0.0, 0.0, 0.0, 0.0, 0.0, 0.0, 0.0)"
2025/07/05/17:44:22.362469,7346,1751712262,360051560,base_link,345000.0,137000.00000000003,312000.0,"(-1.0, 0.0, 0.0, 0.0, 0.0, 0.0, 0.0, 0.0, 0.0)"
2025/07/05/17:44:22.545339,7347,1751712262,539578472,base_link,350000.0,145000.00000000003,306000.0,"(-1.0, 0.0, 0.0, 0.0, 0.0, 0.0, 0.0, 0.0, 0.0)"
2025/07/05/17:44:22.626179,7348,1751712262,623580616,base_link,343000.0,149000.00000000003,306000.0,"(-1.0, 0.0, 0.0, 0.0, 0.0, 0.0, 0.0, 0.0, 0.0)"
2025/07/05/17:44:22.704544,7349,1751712262,701414016,base_link,348000.0,151000.00000000003,305000.0,"(-1.0, 0.0, 0.0, 0.0, 0.0, 0.0, 0.0, 0.0, 0.0)"
2025/07/05/17:44:22.805931,7350,1751712262,801546416,base_link,341000.0,151000.00000000003,307000.0,"(-1.0, 0.0, 0.0, 0.0, 0.0, 0.0, 0.0, 0.0, 0.0)"
2025/07/05/17:44:22.881934,7351,1751712262,879632536,base_link,341000.0,151000.00000000003,307000.0,"(-1.0, 0.0, 0.0, 0.0, 0.0, 0.0, 0.0, 0.0, 0.0)"
2025/07/05/17:44:23.004676,7352,1751712263,1494448,base_link,334000.0,153000.00000000003,312000.0,"(-1.0, 0.0, 0.0, 0.0, 0.0, 0.0, 0.0, 0.0, 0.0)"
2025/07/05/17:44:23.063054,7353,1751712263,60605872,base_link,334000.0,153000.00000000003,312000.0,"(-1.0, 0.0, 0.0, 0.0, 0.0, 0.0, 0.0, 0.0, 0.0)"
2025/07/05/17:44:23.182663,7354,1751712263,179683760,base_link,337000.0,157000.00000000003,308000.0,"(-1.0, 0.0, 0.0, 0.0, 0.0, 0.0, 0.0, 0.0, 0.0)"
2025/07/05/17:44:23.282955,7355,1751712263,280236904,base_link,340000.0,163000.00000000003,301000.0,"(-1.0, 0.0, 0.0, 0.0, 0.0, 0.0, 0.0, 0.0, 0.0)"
2025/07/05/17:44:23.425929,7356,1751712263,423580512,base_link,334000.0,173000.00000000003,299000.0,"(-1.0, 0.0, 0.0, 0.0, 0.0, 0.0, 0.0, 0.0, 0.0)"
2025/07/05/17:44:23.543469,7357,1751712263,540334144,base_link,328000.0,174000.00000000003,304000.0,"(-1.0, 0.0, 0.0, 0.0, 0.0, 0.0, 0.0, 0.0, 0.0)"
2025/07/05/17:44:23.662362,7358,1751712263,660448152,base_link,331000.0,176000.00000000003,304000.0,"(-1.0, 0.0, 0.0, 0.0, 0.0, 0.0, 0.0, 0.0, 0.0)"
2025/07/05/17:44:23.744623,7359,1751712263,740439152,base_link,327000.0,173000.00000000003,307000.0,"(-1.0, 0.0, 0.0, 0.0, 0.0, 0.0, 0.0, 0.0, 0.0)"
2025/07/05/17:44:23.826052,7360,1751712263,823728528,base_link,325000.0,177000.00000000003,309000.0,"(-1.0, 0.0, 0.0, 0.0, 0.0, 0.0, 0.0, 0.0, 0.0)"
2025/07/05/17:44:23.903838,7361,1751712263,901393160,base_link,328000.0,181000.00000000003,305000.0,"(-1.0, 0.0, 0.0, 0.0, 0.0, 0.0, 0.0, 0.0, 0.0)"
2025/07/05/17:44:24.026433,7362,1751712264,23855072,base_link,318000.0,187000.00000000003,304000.0,"(-1.0, 0.0, 0.0, 0.0, 0.0, 0.0, 0.0, 0.0, 0.0)"
2025/07/05/17:44:24.103058,7363,1751712264,101605216,base_link,322000.0,194000.00000000003,299000.0,"(-1.0, 0.0, 0.0, 0.0, 0.0, 0.0, 0.0, 0.0, 0.0)"
2025/07/05/17:44:24.204460,7364,1751712264,202054872,base_link,311000.0,200000.00000000003,301000.0,"(-1.0, 0.0, 0.0, 0.0, 0.0, 0.0, 0.0, 0.0, 0.0)"
2025/07/05/17:44:24.303094,7365,1751712264,300914040,base_link,305000.0,202000.00000000003,305000.0,"(-1.0, 0.0, 0.0, 0.0, 0.0, 0.0, 0.0, 0.0, 0.0)"
2025/07/05/17:44:24.445303,7366,1751712264,443154464,base_link,310000.0,206000.00000000003,310000.0,"(-1.0, 0.0, 0.0, 0.0, 0.0, 0.0, 0.0, 0.0, 0.0)"
2025/07/05/17:44:24.604268,7367,1751712264,601343312,base_link,310000.0,210000.00000000003,315000.0,"(-1.0, 0.0, 0.0, 0.0, 0.0, 0.0, 0.0, 0.0, 0.0)"
2025/07/05/17:44:24.683653,7368,1751712264,679730432,base_link,310000.0,210000.00000000003,315000.0,"(-1.0, 0.0, 0.0, 0.0, 0.0, 0.0, 0.0, 0.0, 0.0)"
2025/07/05/17:44:24.782837,7369,1751712264,779991832,base_link,302000.0,209000.00000000003,311000.0,"(-1.0, 0.0, 0.0, 0.0, 0.0, 0.0, 0.0, 0.0, 0.0)"
2025/07/05/17:44:24.904069,7370,1751712264,900865232,base_link,301000.0,214000.00000000003,303000.0,"(-1.0, 0.0, 0.0, 0.0, 0.0, 0.0, 0.0, 0.0, 0.0)"
2025/07/05/17:44:25.004295,7371,1751712265,1844144,base_link,300000.0,212000.00000000003,302000.0,"(-1.0, 0.0, 0.0, 0.0, 0.0, 0.0, 0.0, 0.0, 0.0)"
2025/07/05/17:44:25.107894,7372,1751712265,101115800,base_link,297000.0,210000.00000000003,305000.0,"(-1.0, 0.0, 0.0, 0.0, 0.0, 0.0, 0.0, 0.0, 0.0)"
2025/07/05/17:44:25.204041,7373,1751712265,201650736,base_link,297000.0,206000.00000000003,309000.0,"(-1.0, 0.0, 0.0, 0.0, 0.0, 0.0, 0.0, 0.0, 0.0)"
2025/07/05/17:44:25.262553,7374,1751712265,260574600,base_link,297000.0,206000.00000000003,309000.0,"(-1.0, 0.0, 0.0, 0.0, 0.0, 0.0, 0.0, 0.0, 0.0)"
2025/07/05/17:44:25.404272,7375,1751712265,401611232,base_link,298000.0,205000.00000000003,309000.0,"(-1.0, 0.0, 0.0, 0.0, 0.0, 0.0, 0.0, 0.0, 0.0)"
2025/07/05/17:44:25.561860,7376,1751712265,560120264,base_link,299000.0,208000.00000000003,305000.0,"(-1.0, 0.0, 0.0, 0.0, 0.0, 0.0, 0.0, 0.0, 0.0)"
2025/07/05/17:44:25.643733,7377,1751712265,640727264,base_link,300000.0,209000.00000000003,301000.0,"(-1.0, 0.0, 0.0, 0.0, 0.0, 0.0, 0.0, 0.0, 0.0)"
2025/07/05/17:44:25.762197,7378,1751712265,760075016,base_link,300000.0,210000.00000000003,300000.0,"(-1.0, 0.0, 0.0, 0.0, 0.0, 0.0, 0.0, 0.0, 0.0)"
2025/07/05/17:44:25.841974,7379,1751712265,840328016,base_link,300000.0,209000.00000000003,303000.0,"(-1.0, 0.0, 0.0, 0.0, 0.0, 0.0, 0.0, 0.0, 0.0)"
2025/07/05/17:44:25.943078,7380,1751712265,939827648,base_link,298000.0,204000.00000000003,308000.0,"(-1.0, 0.0, 0.0, 0.0, 0.0, 0.0, 0.0, 0.0, 0.0)"
2025/07/05/17:44:26.042381,7381,1751712266,40521768,base_link,298000.0,201000.00000000003,311000.0,"(-1.0, 0.0, 0.0, 0.0, 0.0, 0.0, 0.0, 0.0, 0.0)"
2025/07/05/17:44:26.162297,7382,1751712266,160155008,base_link,298000.0,201000.00000000003,310000.0,"(-1.0, 0.0, 0.0, 0.0, 0.0, 0.0, 0.0, 0.0, 0.0)"
2025/07/05/17:44:26.243044,7383,1751712266,240560008,base_link,300000.0,204000.00000000003,306000.0,"(-1.0, 0.0, 0.0, 0.0, 0.0, 0.0, 0.0, 0.0, 0.0)"
2025/07/05/17:44:26.341925,7384,1751712266,340578896,base_link,301000.0,207000.00000000003,302000.0,"(-1.0, 0.0, 0.0, 0.0, 0.0, 0.0, 0.0, 0.0, 0.0)"
2025/07/05/17:44:26.503955,7385,1751712266,501422880,base_link,301000.0,205000.00000000003,304000.0,"(-1.0, 0.0, 0.0, 0.0, 0.0, 0.0, 0.0, 0.0, 0.0)"
2025/07/05/17:44:26.582037,7386,1751712266,580392744,base_link,301000.0,205000.00000000003,304000.0,"(-1.0, 0.0, 0.0, 0.0, 0.0, 0.0, 0.0, 0.0, 0.0)"
2025/07/05/17:44:26.663086,7387,1751712266,661002120,base_link,301000.0,201000.00000000003,308000.0,"(-1.0, 0.0, 0.0, 0.0, 0.0, 0.0, 0.0, 0.0, 0.0)"
2025/07/05/17:44:26.782466,7388,1751712266,779897312,base_link,301000.0,198000.00000000003,311000.0,"(-1.0, 0.0, 0.0, 0.0, 0.0, 0.0, 0.0, 0.0, 0.0)"
2025/07/05/17:44:26.883218,7389,1751712266,880560504,base_link,302000.0,199000.00000000003,308000.0,"(-1.0, 0.0, 0.0, 0.0, 0.0, 0.0, 0.0, 0.0, 0.0)"
2025/07/05/17:44:27.004329,7390,1751712267,1470392,base_link,304000.0,205000.00000000003,302000.0,"(-1.0, 0.0, 0.0, 0.0, 0.0, 0.0, 0.0, 0.0, 0.0)"
2025/07/05/17:44:27.084098,7391,1751712267,79885024,base_link,304000.0,205000.00000000003,302000.0,"(-1.0, 0.0, 0.0, 0.0, 0.0, 0.0, 0.0, 0.0, 0.0)"
2025/07/05/17:44:27.182965,7392,1751712267,180293024,base_link,303000.0,204000.00000000003,303000.0,"(-1.0, 0.0, 0.0, 0.0, 0.0, 0.0, 0.0, 0.0, 0.0)"
2025/07/05/17:44:27.282618,7393,1751712267,280302680,base_link,302000.0,201000.00000000003,306000.0,"(-1.0, 0.0, 0.0, 0.0, 0.0, 0.0, 0.0, 0.0, 0.0)"
2025/07/05/17:44:27.382709,7394,1751712267,379887824,base_link,302000.0,197000.00000000003,310000.0,"(-1.0, 0.0, 0.0, 0.0, 0.0, 0.0, 0.0, 0.0, 0.0)"
2025/07/05/17:44:27.562258,7395,1751712267,560057880,base_link,304000.0,200000.00000000003,307000.0,"(-1.0, 0.0, 0.0, 0.0, 0.0, 0.0, 0.0, 0.0, 0.0)"
2025/07/05/17:44:27.662565,7396,1751712267,660359000,base_link,305000.0,203000.00000000003,303000.0,"(-1.0, 0.0, 0.0, 0.0, 0.0, 0.0, 0.0, 0.0, 0.0)"
2025/07/05/17:44:27.762623,7397,1751712267,760458656,base_link,304000.0,204000.00000000003,303000.0,"(-1.0, 0.0, 0.0, 0.0, 0.0, 0.0, 0.0, 0.0, 0.0)"
2025/07/05/17:44:27.862685,7398,1751712267,860347544,base_link,304000.0,203000.00000000003,305000.0,"(-1.0, 0.0, 0.0, 0.0, 0.0, 0.0, 0.0, 0.0, 0.0)"
2025/07/05/17:44:27.983150,7399,1751712267,980060688,base_link,303000.0,199000.00000000003,309000.0,"(-1.0, 0.0, 0.0, 0.0, 0.0, 0.0, 0.0, 0.0, 0.0)"
2025/07/05/17:44:28.082947,7400,1751712268,80380832,base_link,303000.0,198000.00000000003,309000.0,"(-1.0, 0.0, 0.0, 0.0, 0.0, 0.0, 0.0, 0.0, 0.0)"
2025/07/05/17:44:28.182883,7401,1751712268,180446832,base_link,303000.0,199000.00000000003,309000.0,"(-1.0, 0.0, 0.0, 0.0, 0.0, 0.0, 0.0, 0.0, 0.0)"
2025/07/05/17:44:28.262604,7402,1751712268,260739440,base_link,305000.0,202000.00000000003,305000.0,"(-1.0, 0.0, 0.0, 0.0, 0.0, 0.0, 0.0, 0.0, 0.0)"
2025/07/05/17:44:28.404227,7403,1751712268,401922816,base_link,304000.0,202000.00000000003,305000.0,"(-1.0, 0.0, 0.0, 0.0, 0.0, 0.0, 0.0, 0.0, 0.0)"
2025/07/05/17:44:28.582482,7404,1751712268,580273008,base_link,303000.0,200000.00000000003,308000.0,"(-1.0, 0.0, 0.0, 0.0, 0.0, 0.0, 0.0, 0.0, 0.0)"
2025/07/05/17:44:28.682920,7405,1751712268,680761008,base_link,304000.0,198000.00000000003,308000.0,"(-1.0, 0.0, 0.0, 0.0, 0.0, 0.0, 0.0, 0.0, 0.0)"
2025/07/05/17:44:28.782738,7406,1751712268,780489008,base_link,304000.0,199000.00000000003,307000.0,"(-1.0, 0.0, 0.0, 0.0, 0.0, 0.0, 0.0, 0.0, 0.0)"
2025/07/05/17:44:28.862369,7407,1751712268,860723384,base_link,305000.0,200000.00000000003,304000.0,"(-1.0, 0.0, 0.0, 0.0, 0.0, 0.0, 0.0, 0.0, 0.0)"
2025/07/05/17:44:28.983631,7408,1751712268,979994040,base_link,305000.0,202000.00000000003,304000.0,"(-1.0, 0.0, 0.0, 0.0, 0.0, 0.0, 0.0, 0.0, 0.0)"
2025/07/05/17:44:29.062551,7409,1751712269,60293160,base_link,304000.0,201000.00000000003,305000.0,"(-1.0, 0.0, 0.0, 0.0, 0.0, 0.0, 0.0, 0.0, 0.0)"
2025/07/05/17:44:29.162266,7410,1751712269,160054160,base_link,304000.0,198000.00000000003,308000.0,"(-1.0, 0.0, 0.0, 0.0, 0.0, 0.0, 0.0, 0.0, 0.0)"
2025/07/05/17:44:29.242360,7411,1751712269,240696160,base_link,304000.0,196000.00000000003,309000.0,"(-1.0, 0.0, 0.0, 0.0, 0.0, 0.0, 0.0, 0.0, 0.0)"
2025/07/05/17:44:29.362134,7412,1751712269,360115632,base_link,304000.0,197000.00000000003,308000.0,"(-1.0, 0.0, 0.0, 0.0, 0.0, 0.0, 0.0, 0.0, 0.0)"
2025/07/05/17:44:29.542541,7413,1751712269,539995776,base_link,305000.0,201000.00000000003,304000.0,"(-1.0, 0.0, 0.0, 0.0, 0.0, 0.0, 0.0, 0.0, 0.0)"
2025/07/05/17:44:29.626136,7414,1751712269,624161664,base_link,306000.0,200000.00000000003,304000.0,"(-1.0, 0.0, 0.0, 0.0, 0.0, 0.0, 0.0, 0.0, 0.0)"
2025/07/05/17:44:29.705142,7415,1751712269,701890320,base_link,305000.0,198000.00000000003,308000.0,"(-1.0, 0.0, 0.0, 0.0, 0.0, 0.0, 0.0, 0.0, 0.0)"
2025/07/05/17:44:29.803903,7416,1751712269,801570184,base_link,305000.0,196000.00000000003,309000.0,"(-1.0, 0.0, 0.0, 0.0, 0.0, 0.0, 0.0, 0.0, 0.0)"
2025/07/05/17:44:29.882502,7417,1751712269,880716184,base_link,305000.0,196000.00000000003,309000.0,"(-1.0, 0.0, 0.0, 0.0, 0.0, 0.0, 0.0, 0.0, 0.0)"
2025/07/05/17:44:30.004040,7418,1751712270,1831072,base_link,306000.0,198000.00000000003,306000.0,"(-1.0, 0.0, 0.0, 0.0, 0.0, 0.0, 0.0, 0.0, 0.0)"
2025/07/05/17:44:30.082033,7419,1751712270,80022192,base_link,306000.0,198000.00000000003,306000.0,"(-1.0, 0.0, 0.0, 0.0, 0.0, 0.0, 0.0, 0.0, 0.0)"
2025/07/05/17:44:30.182676,7420,1751712270,180429192,base_link,306000.0,199000.00000000003,305000.0,"(-1.0, 0.0, 0.0, 0.0, 0.0, 0.0, 0.0, 0.0, 0.0)"
2025/07/05/17:44:30.282798,7421,1751712270,280627192,base_link,307000.0,199000.00000000003,305000.0,"(-1.0, 0.0, 0.0, 0.0, 0.0, 0.0, 0.0, 0.0, 0.0)"
2025/07/05/17:44:30.362958,7422,1751712270,361117312,base_link,306000.0,196000.00000000003,308000.0,"(-1.0, 0.0, 0.0, 0.0, 0.0, 0.0, 0.0, 0.0, 0.0)"
2025/07/05/17:44:30.541772,7423,1751712270,540154480,base_link,307000.0,193000.00000000003,309000.0,"(-1.0, 0.0, 0.0, 0.0, 0.0, 0.0, 0.0, 0.0, 0.0)"
2025/07/05/17:44:30.623423,7424,1751712270,621699392,base_link,308000.0,195000.00000000003,306000.0,"(-1.0, 0.0, 0.0, 0.0, 0.0, 0.0, 0.0, 0.0, 0.0)"
2025/07/05/17:44:30.742732,7425,1751712270,739949304,base_link,309000.0,196000.00000000003,306000.0,"(-1.0, 0.0, 0.0, 0.0, 0.0, 0.0, 0.0, 0.0, 0.0)"
2025/07/05/17:44:30.845009,7426,1751712270,843027704,base_link,308000.0,195000.00000000003,305000.0,"(-1.0, 0.0, 0.0, 0.0, 0.0, 0.0, 0.0, 0.0, 0.0)"
2025/07/05/17:44:30.962821,7427,1751712270,960386504,base_link,307000.0,194000.00000000003,308000.0,"(-1.0, 0.0, 0.0, 0.0, 0.0, 0.0, 0.0, 0.0, 0.0)"
2025/07/05/17:44:31.062782,7428,1751712271,60194504,base_link,308000.0,192000.00000000003,309000.0,"(-1.0, 0.0, 0.0, 0.0, 0.0, 0.0, 0.0, 0.0, 0.0)"
2025/07/05/17:44:31.162237,7429,1751712271,160519112,base_link,308000.0,192000.00000000003,308000.0,"(-1.0, 0.0, 0.0, 0.0, 0.0, 0.0, 0.0, 0.0, 0.0)"
2025/07/05/17:44:31.266267,7430,1751712271,260344976,base_link,309000.0,193000.00000000003,307000.0,"(-1.0, 0.0, 0.0, 0.0, 0.0, 0.0, 0.0, 0.0, 0.0)"
2025/07/05/17:44:31.342427,7431,1751712271,340506976,base_link,309000.0,194000.00000000003,306000.0,"(-1.0, 0.0, 0.0, 0.0, 0.0, 0.0, 0.0, 0.0, 0.0)"
2025/07/05/17:44:31.522861,7432,1751712271,521190728,base_link,309000.0,191000.00000000003,308000.0,"(-1.0, 0.0, 0.0, 0.0, 0.0, 0.0, 0.0, 0.0, 0.0)"
2025/07/05/17:44:31.604334,7433,1751712271,602256872,base_link,309000.0,191000.00000000003,308000.0,"(-1.0, 0.0, 0.0, 0.0, 0.0, 0.0, 0.0, 0.0, 0.0)"
2025/07/05/17:44:31.683373,7434,1751712271,682029872,base_link,309000.0,191000.00000000003,308000.0,"(-1.0, 0.0, 0.0, 0.0, 0.0, 0.0, 0.0, 0.0, 0.0)"
2025/07/05/17:44:31.804224,7435,1751712271,801978872,base_link,309000.0,193000.00000000003,306000.0,"(-1.0, 0.0, 0.0, 0.0, 0.0, 0.0, 0.0, 0.0, 0.0)"
2025/07/05/17:44:31.862222,7436,1751712271,860634872,base_link,309000.0,193000.00000000003,306000.0,"(-1.0, 0.0, 0.0, 0.0, 0.0, 0.0, 0.0, 0.0, 0.0)"
2025/07/05/17:44:32.002944,7437,1751712272,1400528,base_link,308000.0,192000.00000000003,307000.0,"(-1.0, 0.0, 0.0, 0.0, 0.0, 0.0, 0.0, 0.0, 0.0)"
2025/07/05/17:44:32.081927,7438,1751712272,80239648,base_link,308000.0,192000.00000000003,307000.0,"(-1.0, 0.0, 0.0, 0.0, 0.0, 0.0, 0.0, 0.0, 0.0)"
2025/07/05/17:44:32.181603,7439,1751712272,180068488,base_link,308000.0,190000.00000000003,309000.0,"(-1.0, 0.0, 0.0, 0.0, 0.0, 0.0, 0.0, 0.0, 0.0)"
2025/07/05/17:44:32.282003,7440,1751712272,280278120,base_link,309000.0,191000.00000000003,309000.0,"(-1.0, 0.0, 0.0, 0.0, 0.0, 0.0, 0.0, 0.0, 0.0)"
2025/07/05/17:44:32.423049,7441,1751712272,421262496,base_link,309000.0,193000.00000000003,306000.0,"(-1.0, 0.0, 0.0, 0.0, 0.0, 0.0, 0.0, 0.0, 0.0)"
2025/07/05/17:44:32.581752,7442,1751712272,580655296,base_link,309000.0,193000.00000000003,306000.0,"(-1.0, 0.0, 0.0, 0.0, 0.0, 0.0, 0.0, 0.0, 0.0)"
2025/07/05/17:44:32.682811,7443,1751712272,681223296,base_link,309000.0,192000.00000000003,307000.0,"(-1.0, 0.0, 0.0, 0.0, 0.0, 0.0, 0.0, 0.0, 0.0)"
2025/07/05/17:44:32.805147,7444,1751712272,802092136,base_link,310000.0,190000.00000000003,307000.0,"(-1.0, 0.0, 0.0, 0.0, 0.0, 0.0, 0.0, 0.0, 0.0)"
2025/07/05/17:44:32.881857,7445,1751712272,880684136,base_link,310000.0,190000.00000000003,307000.0,"(-1.0, 0.0, 0.0, 0.0, 0.0, 0.0, 0.0, 0.0, 0.0)"
2025/07/05/17:44:33.003804,7446,1751712273,2123488,base_link,309000.0,193000.00000000003,307000.0,"(-1.0, 0.0, 0.0, 0.0, 0.0, 0.0, 0.0, 0.0, 0.0)"
2025/07/05/17:44:33.081822,7447,1751712273,80042096,base_link,309000.0,193000.00000000003,307000.0,"(-1.0, 0.0, 0.0, 0.0, 0.0, 0.0, 0.0, 0.0, 0.0)"
2025/07/05/17:44:33.182023,7448,1751712273,180268096,base_link,308000.0,192000.00000000003,308000.0,"(-1.0, 0.0, 0.0, 0.0, 0.0, 0.0, 0.0, 0.0, 0.0)"
2025/07/05/17:44:33.261931,7449,1751712273,260511960,base_link,309000.0,191000.00000000003,309000.0,"(-1.0, 0.0, 0.0, 0.0, 0.0, 0.0, 0.0, 0.0, 0.0)"
2025/07/05/17:44:33.362027,7450,1751712273,360501824,base_link,309000.0,191000.00000000003,309000.0,"(-1.0, 0.0, 0.0, 0.0, 0.0, 0.0, 0.0, 0.0, 0.0)"
2025/07/05/17:44:33.503555,7451,1751712273,502058944,base_link,310000.0,193000.00000000003,306000.0,"(-1.0, 0.0, 0.0, 0.0, 0.0, 0.0, 0.0, 0.0, 0.0)"
2025/07/05/17:44:33.604317,7452,1751712273,602319320,base_link,310000.0,193000.00000000003,306000.0,"(-1.0, 0.0, 0.0, 0.0, 0.0, 0.0, 0.0, 0.0, 0.0)"
2025/07/05/17:44:33.702630,7453,1751712273,701561320,base_link,309000.0,193000.00000000003,308000.0,"(-1.0, 0.0, 0.0, 0.0, 0.0, 0.0, 0.0, 0.0, 0.0)"
2025/07/05/17:44:33.803752,7454,1751712273,801799928,base_link,308000.0,191000.00000000003,308000.0,"(-1.0, 0.0, 0.0, 0.0, 0.0, 0.0, 0.0, 0.0, 0.0)"
2025/07/05/17:44:33.903239,7455,1751712273,901307928,base_link,308000.0,191000.00000000003,308000.0,"(-1.0, 0.0, 0.0, 0.0, 0.0, 0.0, 0.0, 0.0, 0.0)"
2025/07/05/17:44:34.003614,7456,1751712274,2094816,base_link,308000.0,193000.00000000003,306000.0,"(-1.0, 0.0, 0.0, 0.0, 0.0, 0.0, 0.0, 0.0, 0.0)"
2025/07/05/17:44:34.081822,7457,1751712274,80324912,base_link,308000.0,193000.00000000003,306000.0,"(-1.0, 0.0, 0.0, 0.0, 0.0, 0.0, 0.0, 0.0, 0.0)"
2025/07/05/17:44:34.182983,7458,1751712274,180628912,base_link,308000.0,194000.00000000003,307000.0,"(-1.0, 0.0, 0.0, 0.0, 0.0, 0.0, 0.0, 0.0, 0.0)"
2025/07/05/17:44:34.242322,7459,1751712274,240701912,base_link,308000.0,193000.00000000003,307000.0,"(-1.0, 0.0, 0.0, 0.0, 0.0, 0.0, 0.0, 0.0, 0.0)"
2025/07/05/17:44:34.363005,7460,1751712274,360482176,base_link,308000.0,192000.00000000003,309000.0,"(-1.0, 0.0, 0.0, 0.0, 0.0, 0.0, 0.0, 0.0, 0.0)"
2025/07/05/17:44:34.522713,7461,1751712274,521258832,base_link,309000.0,192000.00000000003,307000.0,"(-1.0, 0.0, 0.0, 0.0, 0.0, 0.0, 0.0, 0.0, 0.0)"
2025/07/05/17:44:34.625908,7462,1751712274,624350232,base_link,310000.0,193000.00000000003,306000.0,"(-1.0, 0.0, 0.0, 0.0, 0.0, 0.0, 0.0, 0.0, 0.0)"
2025/07/05/17:44:34.741755,7463,1751712274,740251376,base_link,309000.0,192000.00000000003,307000.0,"(-1.0, 0.0, 0.0, 0.0, 0.0, 0.0, 0.0, 0.0, 0.0)"
2025/07/05/17:44:34.842243,7464,1751712274,840616520,base_link,309000.0,191000.00000000003,308000.0,"(-1.0, 0.0, 0.0, 0.0, 0.0, 0.0, 0.0, 0.0, 0.0)"
2025/07/05/17:44:34.941812,7465,1751712274,940137896,base_link,309000.0,190000.00000000003,310000.0,"(-1.0, 0.0, 0.0, 0.0, 0.0, 0.0, 0.0, 0.0, 0.0)"
2025/07/05/17:44:35.025544,7466,1751712275,24394528,base_link,310000.0,191000.00000000003,308000.0,"(-1.0, 0.0, 0.0, 0.0, 0.0, 0.0, 0.0, 0.0, 0.0)"
2025/07/05/17:44:35.103857,7467,1751712275,102216136,base_link,310000.0,192000.00000000003,307000.0,"(-1.0, 0.0, 0.0, 0.0, 0.0, 0.0, 0.0, 0.0, 0.0)"
2025/07/05/17:44:35.203409,7468,1751712275,202172768,base_link,310000.0,192000.00000000003,307000.0,"(-1.0, 0.0, 0.0, 0.0, 0.0, 0.0, 0.0, 0.0, 0.0)"
2025/07/05/17:44:35.281948,7469,1751712275,280719768,base_link,310000.0,192000.00000000003,307000.0,"(-1.0, 0.0, 0.0, 0.0, 0.0, 0.0, 0.0, 0.0, 0.0)"
2025/07/05/17:44:35.425745,7470,1751712275,424148608,base_link,310000.0,190000.00000000003,308000.0,"(-1.0, 0.0, 0.0, 0.0, 0.0, 0.0, 0.0, 0.0, 0.0)"
2025/07/05/17:44:35.562052,7471,1751712275,560554312,base_link,310000.0,190000.00000000003,308000.0,"(-1.0, 0.0, 0.0, 0.0, 0.0, 0.0, 0.0, 0.0, 0.0)"
2025/07/05/17:44:35.662551,7472,1751712275,660765432,base_link,311000.0,191000.00000000003,307000.0,"(-1.0, 0.0, 0.0, 0.0, 0.0, 0.0, 0.0, 0.0, 0.0)"
2025/07/05/17:44:35.761840,7473,1751712275,760621040,base_link,309000.0,191000.00000000003,307000.0,"(-1.0, 0.0, 0.0, 0.0, 0.0, 0.0, 0.0, 0.0, 0.0)"
2025/07/05/17:44:35.842174,7474,1751712275,841001040,base_link,310000.0,190000.00000000003,307000.0,"(-1.0, 0.0, 0.0, 0.0, 0.0, 0.0, 0.0, 0.0, 0.0)"
2025/07/05/17:44:35.962123,7475,1751712275,960276624,base_link,309000.0,189000.00000000003,309000.0,"(-1.0, 0.0, 0.0, 0.0, 0.0, 0.0, 0.0, 0.0, 0.0)"
2025/07/05/17:44:36.042096,7476,1751712276,40809624,base_link,310000.0,190000.00000000003,308000.0,"(-1.0, 0.0, 0.0, 0.0, 0.0, 0.0, 0.0, 0.0, 0.0)"
2025/07/05/17:44:36.161762,7477,1751712276,160669840,base_link,310000.0,190000.00000000003,308000.0,"(-1.0, 0.0, 0.0, 0.0, 0.0, 0.0, 0.0, 0.0, 0.0)"
2025/07/05/17:44:36.262276,7478,1751712276,260359704,base_link,310000.0,190000.00000000003,307000.0,"(-1.0, 0.0, 0.0, 0.0, 0.0, 0.0, 0.0, 0.0, 0.0)"
2025/07/05/17:44:36.342058,7479,1751712276,341032704,base_link,310000.0,189000.00000000003,308000.0,"(-1.0, 0.0, 0.0, 0.0, 0.0, 0.0, 0.0, 0.0, 0.0)"
2025/07/05/17:44:36.522480,7480,1751712276,522122432,base_link,310000.0,188000.00000000003,309000.0,"(-1.0, 0.0, 0.0, 0.0, 0.0, 0.0, 0.0, 0.0, 0.0)"
2025/07/05/17:44:36.625743,7481,1751712276,624399064,base_link,311000.0,188000.00000000003,308000.0,"(-1.0, 0.0, 0.0, 0.0, 0.0, 0.0, 0.0, 0.0, 0.0)"
2025/07/05/17:44:36.703331,7482,1751712276,701922696,base_link,311000.0,189000.00000000003,307000.0,"(-1.0, 0.0, 0.0, 0.0, 0.0, 0.0, 0.0, 0.0, 0.0)"
2025/07/05/17:44:36.804227,7483,1751712276,802464048,base_link,312000.0,188000.00000000003,307000.0,"(-1.0, 0.0, 0.0, 0.0, 0.0, 0.0, 0.0, 0.0, 0.0)"
2025/07/05/17:44:36.903000,7484,1751712276,902235048,base_link,311000.0,188000.00000000003,308000.0,"(-1.0, 0.0, 0.0, 0.0, 0.0, 0.0, 0.0, 0.0, 0.0)"
2025/07/05/17:44:37.025596,7485,1751712277,24311400,base_link,311000.0,188000.00000000003,309000.0,"(-1.0, 0.0, 0.0, 0.0, 0.0, 0.0, 0.0, 0.0, 0.0)"
2025/07/05/17:44:37.141751,7486,1751712277,140326752,base_link,312000.0,188000.00000000003,308000.0,"(-1.0, 0.0, 0.0, 0.0, 0.0, 0.0, 0.0, 0.0, 0.0)"
2025/07/05/17:44:37.225819,7487,1751712277,224393592,base_link,312000.0,187000.00000000003,308000.0,"(-1.0, 0.0, 0.0, 0.0, 0.0, 0.0, 0.0, 0.0, 0.0)"
2025/07/05/17:44:37.322987,7488,1751712277,320648712,base_link,312000.0,187000.00000000003,309000.0,"(-1.0, 0.0, 0.0, 0.0, 0.0, 0.0, 0.0, 0.0, 0.0)"
2025/07/05/17:44:37.403822,7489,1751712277,402736576,base_link,312000.0,186000.00000000003,309000.0,"(-1.0, 0.0, 0.0, 0.0, 0.0, 0.0, 0.0, 0.0, 0.0)"
2025/07/05/17:44:37.581919,7490,1751712277,580290744,base_link,312000.0,186000.00000000003,309000.0,"(-1.0, 0.0, 0.0, 0.0, 0.0, 0.0, 0.0, 0.0, 0.0)"
2025/07/05/17:44:37.662252,7491,1751712277,661124096,base_link,312000.0,186000.00000000003,308000.0,"(-1.0, 0.0, 0.0, 0.0, 0.0, 0.0, 0.0, 0.0, 0.0)"
2025/07/05/17:44:37.761890,7492,1751712277,760711448,base_link,312000.0,187000.00000000003,307000.0,"(-1.0, 0.0, 0.0, 0.0, 0.0, 0.0, 0.0, 0.0, 0.0)"
2025/07/05/17:44:37.862025,7493,1751712277,860634312,base_link,313000.0,187000.00000000003,307000.0,"(-1.0, 0.0, 0.0, 0.0, 0.0, 0.0, 0.0, 0.0, 0.0)"
2025/07/05/17:44:37.981624,7494,1751712277,980751432,base_link,313000.0,186000.00000000003,309000.0,"(-1.0, 0.0, 0.0, 0.0, 0.0, 0.0, 0.0, 0.0, 0.0)"
2025/07/05/17:44:38.062202,7495,1751712278,61119432,base_link,313000.0,186000.00000000003,308000.0,"(-1.0, 0.0, 0.0, 0.0, 0.0, 0.0, 0.0, 0.0, 0.0)"
2025/07/05/17:44:38.181934,7496,1751712278,180382528,base_link,312000.0,186000.00000000003,309000.0,"(-1.0, 0.0, 0.0, 0.0, 0.0, 0.0, 0.0, 0.0, 0.0)"
2025/07/05/17:44:38.281946,7497,1751712278,281185624,base_link,313000.0,186000.00000000003,308000.0,"(-1.0, 0.0, 0.0, 0.0, 0.0, 0.0, 0.0, 0.0, 0.0)"
2025/07/05/17:44:38.362186,7498,1751712278,361103624,base_link,313000.0,184000.00000000003,309000.0,"(-1.0, 0.0, 0.0, 0.0, 0.0, 0.0, 0.0, 0.0, 0.0)"
2025/07/05/17:44:38.581315,7499,1751712278,580515464,base_link,314000.0,184000.00000000003,310000.0,"(-1.0, 0.0, 0.0, 0.0, 0.0, 0.0, 0.0, 0.0, 0.0)"
2025/07/05/17:44:38.682877,7500,1751712278,681274464,base_link,314000.0,184000.00000000003,308000.0,"(-1.0, 0.0, 0.0, 0.0, 0.0, 0.0, 0.0, 0.0, 0.0)"
2025/07/05/17:44:38.781340,7501,1751712278,780374304,base_link,315000.0,184000.00000000003,308000.0,"(-1.0, 0.0, 0.0, 0.0, 0.0, 0.0, 0.0, 0.0, 0.0)"
2025/07/05/17:44:38.842142,7502,1751712278,841100304,base_link,315000.0,183000.00000000003,307000.0,"(-1.0, 0.0, 0.0, 0.0, 0.0, 0.0, 0.0, 0.0, 0.0)"
2025/07/05/17:44:38.961715,7503,1751712278,960685520,base_link,314000.0,182000.00000000003,310000.0,"(-1.0, 0.0, 0.0, 0.0, 0.0, 0.0, 0.0, 0.0, 0.0)"
2025/07/05/17:44:39.061669,7504,1751712279,60488640,base_link,315000.0,182000.00000000003,309000.0,"(-1.0, 0.0, 0.0, 0.0, 0.0, 0.0, 0.0, 0.0, 0.0)"
2025/07/05/17:44:39.161763,7505,1751712279,161142504,base_link,315000.0,182000.00000000003,309000.0,"(-1.0, 0.0, 0.0, 0.0, 0.0, 0.0, 0.0, 0.0, 0.0)"
2025/07/05/17:44:39.261528,7506,1751712279,260767856,base_link,315000.0,181000.00000000003,309000.0,"(-1.0, 0.0, 0.0, 0.0, 0.0, 0.0, 0.0, 0.0, 0.0)"
2025/07/05/17:44:39.381520,7507,1751712279,380592208,base_link,314000.0,181000.00000000003,310000.0,"(-1.0, 0.0, 0.0, 0.0, 0.0, 0.0, 0.0, 0.0, 0.0)"
2025/07/05/17:44:39.561742,7508,1751712279,560513400,base_link,316000.0,180000.00000000003,309000.0,"(-1.0, 0.0, 0.0, 0.0, 0.0, 0.0, 0.0, 0.0, 0.0)"
2025/07/05/17:44:39.642178,7509,1751712279,640844400,base_link,317000.0,182000.00000000003,307000.0,"(-1.0, 0.0, 0.0, 0.0, 0.0, 0.0, 0.0, 0.0, 0.0)"
2025/07/05/17:44:39.741091,7510,1751712279,740302496,base_link,317000.0,181000.00000000003,308000.0,"(-1.0, 0.0, 0.0, 0.0, 0.0, 0.0, 0.0, 0.0, 0.0)"
2025/07/05/17:44:39.825339,7511,1751712279,824581496,base_link,317000.0,180000.00000000003,308000.0,"(-1.0, 0.0, 0.0, 0.0, 0.0, 0.0, 0.0, 0.0, 0.0)"
2025/07/05/17:44:39.922014,7512,1751712279,921169496,base_link,315000.0,179000.00000000003,310000.0,"(-1.0, 0.0, 0.0, 0.0, 0.0, 0.0, 0.0, 0.0, 0.0)"
2025/07/05/17:44:40.025494,7513,1751712280,24495496,base_link,316000.0,179000.00000000003,310000.0,"(-1.0, 0.0, 0.0, 0.0, 0.0, 0.0, 0.0, 0.0, 0.0)"
2025/07/05/17:44:40.141514,7514,1751712280,140410104,base_link,316000.0,179000.00000000003,310000.0,"(-1.0, 0.0, 0.0, 0.0, 0.0, 0.0, 0.0, 0.0, 0.0)"
2025/07/05/17:44:40.225668,7515,1751712280,224483200,base_link,316000.0,179000.00000000003,310000.0,"(-1.0, 0.0, 0.0, 0.0, 0.0, 0.0, 0.0, 0.0, 0.0)"
2025/07/05/17:44:40.303498,7516,1751712280,302248064,base_link,316000.0,179000.00000000003,310000.0,"(-1.0, 0.0, 0.0, 0.0, 0.0, 0.0, 0.0, 0.0, 0.0)"
2025/07/05/17:44:40.403614,7517,1751712280,402550672,base_link,318000.0,178000.00000000003,309000.0,"(-1.0, 0.0, 0.0, 0.0, 0.0, 0.0, 0.0, 0.0, 0.0)"
2025/07/05/17:44:40.581635,7518,1751712280,580533256,base_link,318000.0,178000.00000000003,308000.0,"(-1.0, 0.0, 0.0, 0.0, 0.0, 0.0, 0.0, 0.0, 0.0)"
2025/07/05/17:44:40.682198,7519,1751712280,681354256,base_link,318000.0,178000.00000000003,308000.0,"(-1.0, 0.0, 0.0, 0.0, 0.0, 0.0, 0.0, 0.0, 0.0)"
2025/07/05/17:44:40.781963,7520,1751712280,780809840,base_link,318000.0,177000.00000000003,309000.0,"(-1.0, 0.0, 0.0, 0.0, 0.0, 0.0, 0.0, 0.0, 0.0)"
2025/07/05/17:44:40.881751,7521,1751712280,880504424,base_link,318000.0,176000.00000000003,310000.0,"(-1.0, 0.0, 0.0, 0.0, 0.0, 0.0, 0.0, 0.0, 0.0)"
2025/07/05/17:44:40.981929,7522,1751712280,981177520,base_link,318000.0,175000.00000000003,311000.0,"(-1.0, 0.0, 0.0, 0.0, 0.0, 0.0, 0.0, 0.0, 0.0)"
2025/07/05/17:44:41.062194,7523,1751712281,61167520,base_link,318000.0,176000.00000000003,310000.0,"(-1.0, 0.0, 0.0, 0.0, 0.0, 0.0, 0.0, 0.0, 0.0)"
2025/07/05/17:44:41.182004,7524,1751712281,180559520,base_link,318000.0,176000.00000000003,309000.0,"(-1.0, 0.0, 0.0, 0.0, 0.0, 0.0, 0.0, 0.0, 0.0)"
2025/07/05/17:44:41.242076,7525,1751712281,240992520,base_link,319000.0,176000.00000000003,309000.0,"(-1.0, 0.0, 0.0, 0.0, 0.0, 0.0, 0.0, 0.0, 0.0)"
2025/07/05/17:44:41.361588,7526,1751712281,360753944,base_link,319000.0,176000.00000000003,310000.0,"(-1.0, 0.0, 0.0, 0.0, 0.0, 0.0, 0.0, 0.0, 0.0)"
2025/07/05/17:44:41.541331,7527,1751712281,540428944,base_link,320000.0,175000.00000000003,309000.0,"(-1.0, 0.0, 0.0, 0.0, 0.0, 0.0, 0.0, 0.0, 0.0)"
2025/07/05/17:44:41.625387,7528,1751712281,624625808,base_link,320000.0,174000.00000000003,308000.0,"(-1.0, 0.0, 0.0, 0.0, 0.0, 0.0, 0.0, 0.0, 0.0)"
2025/07/05/17:44:41.703512,7529,1751712281,702404440,base_link,319000.0,174000.00000000003,310000.0,"(-1.0, 0.0, 0.0, 0.0, 0.0, 0.0, 0.0, 0.0, 0.0)"
2025/07/05/17:44:41.803312,7530,1751712281,802338048,base_link,320000.0,174000.00000000003,309000.0,"(-1.0, 0.0, 0.0, 0.0, 0.0, 0.0, 0.0, 0.0, 0.0)"
2025/07/05/17:44:41.881500,7531,1751712281,880805632,base_link,320000.0,174000.00000000003,309000.0,"(-1.0, 0.0, 0.0, 0.0, 0.0, 0.0, 0.0, 0.0, 0.0)"
2025/07/05/17:44:42.003678,7532,1751712282,2338632,base_link,320000.0,174000.00000000003,310000.0,"(-1.0, 0.0, 0.0, 0.0, 0.0, 0.0, 0.0, 0.0, 0.0)"
2025/07/05/17:44:42.061825,7533,1751712282,60971632,base_link,320000.0,174000.00000000003,310000.0,"(-1.0, 0.0, 0.0, 0.0, 0.0, 0.0, 0.0, 0.0, 0.0)"
2025/07/05/17:44:42.181425,7534,1751712282,180408984,base_link,320000.0,174000.00000000003,310000.0,"(-1.0, 0.0, 0.0, 0.0, 0.0, 0.0, 0.0, 0.0, 0.0)"
2025/07/05/17:44:42.281812,7535,1751712282,280585568,base_link,320000.0,174000.00000000003,309000.0,"(-1.0, 0.0, 0.0, 0.0, 0.0, 0.0, 0.0, 0.0, 0.0)"
2025/07/05/17:44:42.362546,7536,1751712282,361607176,base_link,320000.0,174000.00000000003,310000.0,"(-1.0, 0.0, 0.0, 0.0, 0.0, 0.0, 0.0, 0.0, 0.0)"
2025/07/05/17:44:42.541702,7537,1751712282,540536176,base_link,320000.0,173000.00000000003,310000.0,"(-1.0, 0.0, 0.0, 0.0, 0.0, 0.0, 0.0, 0.0, 0.0)"
2025/07/05/17:44:42.624956,7538,1751712282,624557528,base_link,321000.0,172000.00000000003,310000.0,"(-1.0, 0.0, 0.0, 0.0, 0.0, 0.0, 0.0, 0.0, 0.0)"
2025/07/05/17:44:42.703414,7539,1751712282,702119528,base_link,321000.0,172000.00000000003,311000.0,"(-1.0, 0.0, 0.0, 0.0, 0.0, 0.0, 0.0, 0.0, 0.0)"
2025/07/05/17:44:42.803878,7540,1751712282,802107528,base_link,322000.0,172000.00000000003,310000.0,"(-1.0, 0.0, 0.0, 0.0, 0.0, 0.0, 0.0, 0.0, 0.0)"
2025/07/05/17:44:42.861811,7541,1751712282,861182528,base_link,322000.0,172000.00000000003,310000.0,"(-1.0, 0.0, 0.0, 0.0, 0.0, 0.0, 0.0, 0.0, 0.0)"
2025/07/05/17:44:42.981466,7542,1751712282,980604528,base_link,321000.0,171000.00000000003,310000.0,"(-1.0, 0.0, 0.0, 0.0, 0.0, 0.0, 0.0, 0.0, 0.0)"
2025/07/05/17:44:43.081765,7543,1751712283,80602112,base_link,321000.0,172000.00000000003,309000.0,"(-1.0, 0.0, 0.0, 0.0, 0.0, 0.0, 0.0, 0.0, 0.0)"
2025/07/05/17:44:43.182204,7544,1751712283,180885112,base_link,321000.0,171000.00000000003,310000.0,"(-1.0, 0.0, 0.0, 0.0, 0.0, 0.0, 0.0, 0.0, 0.0)"
2025/07/05/17:44:43.283153,7545,1751712283,280627112,base_link,321000.0,171000.00000000003,310000.0,"(-1.0, 0.0, 0.0, 0.0, 0.0, 0.0, 0.0, 0.0, 0.0)"
2025/07/05/17:44:43.403930,7546,1751712283,402416112,base_link,323000.0,170000.00000000003,310000.0,"(-1.0, 0.0, 0.0, 0.0, 0.0, 0.0, 0.0, 0.0, 0.0)"
2025/07/05/17:44:43.562082,7547,1751712283,561277488,base_link,322000.0,169000.00000000003,310000.0,"(-1.0, 0.0, 0.0, 0.0, 0.0, 0.0, 0.0, 0.0, 0.0)"
2025/07/05/17:44:43.681903,7548,1751712283,680661608,base_link,323000.0,170000.00000000003,309000.0,"(-1.0, 0.0, 0.0, 0.0, 0.0, 0.0, 0.0, 0.0, 0.0)"
2025/07/05/17:44:43.761774,7549,1751712283,761249608,base_link,323000.0,170000.00000000003,310000.0,"(-1.0, 0.0, 0.0, 0.0, 0.0, 0.0, 0.0, 0.0, 0.0)"
2025/07/05/17:44:43.861871,7550,1751712283,861211608,base_link,323000.0,170000.00000000003,309000.0,"(-1.0, 0.0, 0.0, 0.0, 0.0, 0.0, 0.0, 0.0, 0.0)"
2025/07/05/17:44:44.003646,7551,1751712284,2097192,base_link,323000.0,168000.00000000003,311000.0,"(-1.0, 0.0, 0.0, 0.0, 0.0, 0.0, 0.0, 0.0, 0.0)"
2025/07/05/17:44:44.081707,7552,1751712284,80919264,base_link,323000.0,168000.00000000003,311000.0,"(-1.0, 0.0, 0.0, 0.0, 0.0, 0.0, 0.0, 0.0, 0.0)"
2025/07/05/17:44:44.161639,7553,1751712284,161047264,base_link,322000.0,168000.00000000003,311000.0,"(-1.0, 0.0, 0.0, 0.0, 0.0, 0.0, 0.0, 0.0, 0.0)"
2025/07/05/17:44:44.281807,7554,1751712284,281115592,base_link,324000.0,167000.00000000003,311000.0,"(-1.0, 0.0, 0.0, 0.0, 0.0, 0.0, 0.0, 0.0, 0.0)"
2025/07/05/17:44:44.425825,7555,1751712284,424973592,base_link,324000.0,167000.00000000003,310000.0,"(-1.0, 0.0, 0.0, 0.0, 0.0, 0.0, 0.0, 0.0, 0.0)"
2025/07/05/17:44:44.602497,7556,1751712284,601682920,base_link,324000.0,167000.00000000003,310000.0,"(-1.0, 0.0, 0.0, 0.0, 0.0, 0.0, 0.0, 0.0, 0.0)"
2025/07/05/17:44:44.682776,7557,1751712284,681570920,base_link,324000.0,167000.00000000003,310000.0,"(-1.0, 0.0, 0.0, 0.0, 0.0, 0.0, 0.0, 0.0, 0.0)"
2025/07/05/17:44:44.781849,7558,1751712284,780958920,base_link,325000.0,166000.00000000003,310000.0,"(-1.0, 0.0, 0.0, 0.0, 0.0, 0.0, 0.0, 0.0, 0.0)"
2025/07/05/17:44:44.841572,7559,1751712284,841057920,base_link,326000.0,166000.00000000003,310000.0,"(-1.0, 0.0, 0.0, 0.0, 0.0, 0.0, 0.0, 0.0, 0.0)"
2025/07/05/17:44:44.941908,7560,1751712284,941194016,base_link,325000.0,166000.00000000003,311000.0,"(-1.0, 0.0, 0.0, 0.0, 0.0, 0.0, 0.0, 0.0, 0.0)"
2025/07/05/17:44:45.041800,7561,1751712285,41063344,base_link,325000.0,166000.00000000003,311000.0,"(-1.0, 0.0, 0.0, 0.0, 0.0, 0.0, 0.0, 0.0, 0.0)"
2025/07/05/17:44:45.161809,7562,1751712285,160843024,base_link,325000.0,165000.00000000003,311000.0,"(-1.0, 0.0, 0.0, 0.0, 0.0, 0.0, 0.0, 0.0, 0.0)"
2025/07/05/17:44:45.262130,7563,1751712285,260653632,base_link,325000.0,165000.00000000003,310000.0,"(-1.0, 0.0, 0.0, 0.0, 0.0, 0.0, 0.0, 0.0, 0.0)"
2025/07/05/17:44:45.361791,7564,1751712285,360874472,base_link,325000.0,165000.00000000003,311000.0,"(-1.0, 0.0, 0.0, 0.0, 0.0, 0.0, 0.0, 0.0, 0.0)"
2025/07/05/17:44:45.522605,7565,1751712285,521674848,base_link,326000.0,165000.00000000003,310000.0,"(-1.0, 0.0, 0.0, 0.0, 0.0, 0.0, 0.0, 0.0, 0.0)"
2025/07/05/17:44:45.625586,7566,1751712285,624561848,base_link,326000.0,164000.00000000003,310000.0,"(-1.0, 0.0, 0.0, 0.0, 0.0, 0.0, 0.0, 0.0, 0.0)"
2025/07/05/17:44:45.702650,7567,1751712285,702198848,base_link,325000.0,164000.00000000003,311000.0,"(-1.0, 0.0, 0.0, 0.0, 0.0, 0.0, 0.0, 0.0, 0.0)"
2025/07/05/17:44:45.802734,7568,1751712285,801940848,base_link,326000.0,164000.00000000003,310000.0,"(-1.0, 0.0, 0.0, 0.0, 0.0, 0.0, 0.0, 0.0, 0.0)"
2025/07/05/17:44:45.861775,7569,1751712285,861214848,base_link,326000.0,164000.00000000003,310000.0,"(-1.0, 0.0, 0.0, 0.0, 0.0, 0.0, 0.0, 0.0, 0.0)"
2025/07/05/17:44:46.003151,7570,1751712286,2469848,base_link,326000.0,165000.00000000003,310000.0,"(-1.0, 0.0, 0.0, 0.0, 0.0, 0.0, 0.0, 0.0, 0.0)"
2025/07/05/17:44:46.081474,7571,1751712286,81020432,base_link,326000.0,165000.00000000003,310000.0,"(-1.0, 0.0, 0.0, 0.0, 0.0, 0.0, 0.0, 0.0, 0.0)"
2025/07/05/17:44:46.161875,7572,1751712286,161267432,base_link,326000.0,165000.00000000003,311000.0,"(-1.0, 0.0, 0.0, 0.0, 0.0, 0.0, 0.0, 0.0, 0.0)"
2025/07/05/17:44:46.281630,7573,1751712286,280698432,base_link,325000.0,164000.00000000003,311000.0,"(-1.0, 0.0, 0.0, 0.0, 0.0, 0.0, 0.0, 0.0, 0.0)"
2025/07/05/17:44:46.402818,7574,1751712286,402213272,base_link,326000.0,164000.00000000003,311000.0,"(-1.0, 0.0, 0.0, 0.0, 0.0, 0.0, 0.0, 0.0, 0.0)"
2025/07/05/17:44:46.581639,7575,1751712286,580683112,base_link,326000.0,164000.00000000003,311000.0,"(-1.0, 0.0, 0.0, 0.0, 0.0, 0.0, 0.0, 0.0, 0.0)"
2025/07/05/17:44:46.682229,7576,1751712286,681922112,base_link,326000.0,164000.00000000003,310000.0,"(-1.0, 0.0, 0.0, 0.0, 0.0, 0.0, 0.0, 0.0, 0.0)"
2025/07/05/17:44:46.781760,7577,1751712286,781272112,base_link,326000.0,164000.00000000003,310000.0,"(-1.0, 0.0, 0.0, 0.0, 0.0, 0.0, 0.0, 0.0, 0.0)"
2025/07/05/17:44:46.881134,7578,1751712286,880785952,base_link,326000.0,164000.00000000003,310000.0,"(-1.0, 0.0, 0.0, 0.0, 0.0, 0.0, 0.0, 0.0, 0.0)"
2025/07/05/17:44:47.002720,7579,1751712287,2432952,base_link,326000.0,164000.00000000003,311000.0,"(-1.0, 0.0, 0.0, 0.0, 0.0, 0.0, 0.0, 0.0, 0.0)"
2025/07/05/17:44:47.102212,7580,1751712287,101731280,base_link,325000.0,165000.00000000003,311000.0,"(-1.0, 0.0, 0.0, 0.0, 0.0, 0.0, 0.0, 0.0, 0.0)"
2025/07/05/17:44:47.203319,7581,1751712287,202569280,base_link,325000.0,164000.00000000003,311000.0,"(-1.0, 0.0, 0.0, 0.0, 0.0, 0.0, 0.0, 0.0, 0.0)"
2025/07/05/17:44:47.281505,7582,1751712287,281136280,base_link,325000.0,164000.00000000003,311000.0,"(-1.0, 0.0, 0.0, 0.0, 0.0, 0.0, 0.0, 0.0, 0.0)"
2025/07/05/17:44:47.361411,7583,1751712287,361314280,base_link,324000.0,164000.00000000003,311000.0,"(-1.0, 0.0, 0.0, 0.0, 0.0, 0.0, 0.0, 0.0, 0.0)"
2025/07/05/17:44:47.541384,7584,1751712287,540961280,base_link,325000.0,165000.00000000003,310000.0,"(-1.0, 0.0, 0.0, 0.0, 0.0, 0.0, 0.0, 0.0, 0.0)"
2025/07/05/17:44:47.661695,7585,1751712287,661002608,base_link,326000.0,165000.00000000003,310000.0,"(-1.0, 0.0, 0.0, 0.0, 0.0, 0.0, 0.0, 0.0, 0.0)"
2025/07/05/17:44:47.761181,7586,1751712287,760528608,base_link,325000.0,166000.00000000003,310000.0,"(-1.0, 0.0, 0.0, 0.0, 0.0, 0.0, 0.0, 0.0, 0.0)"
2025/07/05/17:44:47.861825,7587,1751712287,860713608,base_link,326000.0,166000.00000000003,310000.0,"(-1.0, 0.0, 0.0, 0.0, 0.0, 0.0, 0.0, 0.0, 0.0)"
2025/07/05/17:44:47.961787,7588,1751712287,960654608,base_link,324000.0,165000.00000000003,312000.0,"(-1.0, 0.0, 0.0, 0.0, 0.0, 0.0, 0.0, 0.0, 0.0)"
2025/07/05/17:44:48.081823,7589,1751712288,80623168,base_link,324000.0,165000.00000000003,311000.0,"(-1.0, 0.0, 0.0, 0.0, 0.0, 0.0, 0.0, 0.0, 0.0)"
2025/07/05/17:44:48.181340,7590,1751712288,181019752,base_link,325000.0,165000.00000000003,312000.0,"(-1.0, 0.0, 0.0, 0.0, 0.0, 0.0, 0.0, 0.0, 0.0)"
2025/07/05/17:44:48.281974,7591,1751712288,280970080,base_link,325000.0,166000.00000000003,311000.0,"(-1.0, 0.0, 0.0, 0.0, 0.0, 0.0, 0.0, 0.0, 0.0)"
2025/07/05/17:44:48.381349,7592,1751712288,380664408,base_link,325000.0,166000.00000000003,311000.0,"(-1.0, 0.0, 0.0, 0.0, 0.0, 0.0, 0.0, 0.0, 0.0)"
2025/07/05/17:44:48.561219,7593,1751712288,560611248,base_link,326000.0,166000.00000000003,310000.0,"(-1.0, 0.0, 0.0, 0.0, 0.0, 0.0, 0.0, 0.0, 0.0)"
2025/07/05/17:44:48.661114,7594,1751712288,660617248,base_link,325000.0,166000.00000000003,310000.0,"(-1.0, 0.0, 0.0, 0.0, 0.0, 0.0, 0.0, 0.0, 0.0)"
2025/07/05/17:44:48.761816,7595,1751712288,760640248,base_link,324000.0,166000.00000000003,310000.0,"(-1.0, 0.0, 0.0, 0.0, 0.0, 0.0, 0.0, 0.0, 0.0)"
2025/07/05/17:44:48.861993,7596,1751712288,860575248,base_link,325000.0,166000.00000000003,310000.0,"(-1.0, 0.0, 0.0, 0.0, 0.0, 0.0, 0.0, 0.0, 0.0)"
2025/07/05/17:44:48.941717,7597,1751712288,941414248,base_link,324000.0,167000.00000000003,311000.0,"(-1.0, 0.0, 0.0, 0.0, 0.0, 0.0, 0.0, 0.0, 0.0)"
2025/07/05/17:44:49.025405,7598,1751712289,24550088,base_link,324000.0,166000.00000000003,311000.0,"(-1.0, 0.0, 0.0, 0.0, 0.0, 0.0, 0.0, 0.0, 0.0)"
2025/07/05/17:44:49.122820,7599,1751712289,121942672,base_link,324000.0,167000.00000000003,311000.0,"(-1.0, 0.0, 0.0, 0.0, 0.0, 0.0, 0.0, 0.0, 0.0)"
2025/07/05/17:44:49.203506,7600,1751712289,202974672,base_link,324000.0,167000.00000000003,310000.0,"(-1.0, 0.0, 0.0, 0.0, 0.0, 0.0, 0.0, 0.0, 0.0)"
2025/07/05/17:44:49.302112,7601,1751712289,301726672,base_link,324000.0,167000.00000000003,311000.0,"(-1.0, 0.0, 0.0, 0.0, 0.0, 0.0, 0.0, 0.0, 0.0)"
2025/07/05/17:44:49.403629,7602,1751712289,402756672,base_link,325000.0,167000.00000000003,310000.0,"(-1.0, 0.0, 0.0, 0.0, 0.0, 0.0, 0.0, 0.0, 0.0)"
2025/07/05/17:44:49.581385,7603,1751712289,580728744,base_link,324000.0,167000.00000000003,310000.0,"(-1.0, 0.0, 0.0, 0.0, 0.0, 0.0, 0.0, 0.0, 0.0)"
2025/07/05/17:44:49.682248,7604,1751712289,681400744,base_link,324000.0,167000.00000000003,310000.0,"(-1.0, 0.0, 0.0, 0.0, 0.0, 0.0, 0.0, 0.0, 0.0)"
2025/07/05/17:44:49.761727,7605,1751712289,761306744,base_link,324000.0,168000.00000000003,310000.0,"(-1.0, 0.0, 0.0, 0.0, 0.0, 0.0, 0.0, 0.0, 0.0)"
2025/07/05/17:44:49.881811,7606,1751712289,880675744,base_link,324000.0,168000.00000000003,310000.0,"(-1.0, 0.0, 0.0, 0.0, 0.0, 0.0, 0.0, 0.0, 0.0)"
2025/07/05/17:44:50.002583,7607,1751712290,2396744,base_link,323000.0,168000.00000000003,311000.0,"(-1.0, 0.0, 0.0, 0.0, 0.0, 0.0, 0.0, 0.0, 0.0)"
2025/07/05/17:44:50.081734,7608,1751712290,81491744,base_link,323000.0,168000.00000000003,311000.0,"(-1.0, 0.0, 0.0, 0.0, 0.0, 0.0, 0.0, 0.0, 0.0)"
2025/07/05/17:44:50.181755,7609,1751712290,180871744,base_link,322000.0,168000.00000000003,311000.0,"(-1.0, 0.0, 0.0, 0.0, 0.0, 0.0, 0.0, 0.0, 0.0)"
2025/07/05/17:44:50.281910,7610,1751712290,280933744,base_link,323000.0,169000.00000000003,310000.0,"(-1.0, 0.0, 0.0, 0.0, 0.0, 0.0, 0.0, 0.0, 0.0)"
2025/07/05/17:44:50.361441,7611,1751712290,361120744,base_link,322000.0,169000.00000000003,311000.0,"(-1.0, 0.0, 0.0, 0.0, 0.0, 0.0, 0.0, 0.0, 0.0)"
2025/07/05/17:44:50.561788,7612,1751712290,561018328,base_link,323000.0,169000.00000000003,310000.0,"(-1.0, 0.0, 0.0, 0.0, 0.0, 0.0, 0.0, 0.0, 0.0)"
2025/07/05/17:44:50.662012,7613,1751712290,660701328,base_link,323000.0,170000.00000000003,309000.0,"(-1.0, 0.0, 0.0, 0.0, 0.0, 0.0, 0.0, 0.0, 0.0)"
2025/07/05/17:44:50.761092,7614,1751712290,760660328,base_link,322000.0,171000.00000000003,310000.0,"(-1.0, 0.0, 0.0, 0.0, 0.0, 0.0, 0.0, 0.0, 0.0)"
2025/07/05/17:44:50.841585,7615,1751712290,841323328,base_link,322000.0,170000.00000000003,310000.0,"(-1.0, 0.0, 0.0, 0.0, 0.0, 0.0, 0.0, 0.0, 0.0)"
2025/07/05/17:44:50.961322,7616,1751712290,960673328,base_link,321000.0,170000.00000000003,310000.0,"(-1.0, 0.0, 0.0, 0.0, 0.0, 0.0, 0.0, 0.0, 0.0)"
2025/07/05/17:44:51.081463,7617,1751712291,80880328,base_link,322000.0,170000.00000000003,310000.0,"(-1.0, 0.0, 0.0, 0.0, 0.0, 0.0, 0.0, 0.0, 0.0)"
2025/07/05/17:44:51.181545,7618,1751712291,180986328,base_link,320000.0,171000.00000000003,310000.0,"(-1.0, 0.0, 0.0, 0.0, 0.0, 0.0, 0.0, 0.0, 0.0)"
2025/07/05/17:44:51.241410,7619,1751712291,241222328,base_link,321000.0,172000.00000000003,310000.0,"(-1.0, 0.0, 0.0, 0.0, 0.0, 0.0, 0.0, 0.0, 0.0)"
2025/07/05/17:44:51.361378,7620,1751712291,360512328,base_link,321000.0,172000.00000000003,310000.0,"(-1.0, 0.0, 0.0, 0.0, 0.0, 0.0, 0.0, 0.0, 0.0)"
2025/07/05/17:44:51.522649,7621,1751712291,521688328,base_link,320000.0,172000.00000000003,310000.0,"(-1.0, 0.0, 0.0, 0.0, 0.0, 0.0, 0.0, 0.0, 0.0)"
2025/07/05/17:44:51.603560,7622,1751712291,602988328,base_link,320000.0,173000.00000000003,310000.0,"(-1.0, 0.0, 0.0, 0.0, 0.0, 0.0, 0.0, 0.0, 0.0)"
2025/07/05/17:44:51.702447,7623,1751712291,701939328,base_link,320000.0,174000.00000000003,309000.0,"(-1.0, 0.0, 0.0, 0.0, 0.0, 0.0, 0.0, 0.0, 0.0)"
2025/07/05/17:44:51.781241,7624,1751712291,781100328,base_link,320000.0,174000.00000000003,309000.0,"(-1.0, 0.0, 0.0, 0.0, 0.0, 0.0, 0.0, 0.0, 0.0)"
2025/07/05/17:44:51.902234,7625,1751712291,901945328,base_link,319000.0,175000.00000000003,310000.0,"(-1.0, 0.0, 0.0, 0.0, 0.0, 0.0, 0.0, 0.0, 0.0)"
2025/07/05/17:44:52.003378,7626,1751712292,2709328,base_link,319000.0,175000.00000000003,310000.0,"(-1.0, 0.0, 0.0, 0.0, 0.0, 0.0, 0.0, 0.0, 0.0)"
2025/07/05/17:44:52.102148,7627,1751712292,101644328,base_link,318000.0,175000.00000000003,310000.0,"(-1.0, 0.0, 0.0, 0.0, 0.0, 0.0, 0.0, 0.0, 0.0)"
2025/07/05/17:44:52.202860,7628,1751712292,202422328,base_link,319000.0,176000.00000000003,310000.0,"(-1.0, 0.0, 0.0, 0.0, 0.0, 0.0, 0.0, 0.0, 0.0)"
2025/07/05/17:44:52.261812,7629,1751712292,261303328,base_link,319000.0,176000.00000000003,310000.0,"(-1.0, 0.0, 0.0, 0.0, 0.0, 0.0, 0.0, 0.0, 0.0)"
2025/07/05/17:44:52.402197,7630,1751712292,401602328,base_link,318000.0,176000.00000000003,309000.0,"(-1.0, 0.0, 0.0, 0.0, 0.0, 0.0, 0.0, 0.0, 0.0)"
2025/07/05/17:44:52.522549,7631,1751712292,522183328,base_link,318000.0,177000.00000000003,309000.0,"(-1.0, 0.0, 0.0, 0.0, 0.0, 0.0, 0.0, 0.0, 0.0)"
2025/07/05/17:44:52.603388,7632,1751712292,602898328,base_link,318000.0,178000.00000000003,308000.0,"(-1.0, 0.0, 0.0, 0.0, 0.0, 0.0, 0.0, 0.0, 0.0)"
2025/07/05/17:44:52.702214,7633,1751712292,702022328,base_link,317000.0,177000.00000000003,309000.0,"(-1.0, 0.0, 0.0, 0.0, 0.0, 0.0, 0.0, 0.0, 0.0)"
2025/07/05/17:44:52.803037,7634,1751712292,802549328,base_link,317000.0,178000.00000000003,308000.0,"(-1.0, 0.0, 0.0, 0.0, 0.0, 0.0, 0.0, 0.0, 0.0)"
2025/07/05/17:44:52.881527,7635,1751712292,881336656,base_link,317000.0,178000.00000000003,308000.0,"(-1.0, 0.0, 0.0, 0.0, 0.0, 0.0, 0.0, 0.0, 0.0)"
2025/07/05/17:44:53.002718,7636,1751712293,2409656,base_link,317000.0,179000.00000000003,310000.0,"(-1.0, 0.0, 0.0, 0.0, 0.0, 0.0, 0.0, 0.0, 0.0)"
2025/07/05/17:44:53.061596,7637,1751712293,61464656,base_link,317000.0,179000.00000000003,310000.0,"(-1.0, 0.0, 0.0, 0.0, 0.0, 0.0, 0.0, 0.0, 0.0)"
2025/07/05/17:44:53.161883,7638,1751712293,161334656,base_link,315000.0,179000.00000000003,309000.0,"(-1.0, 0.0, 0.0, 0.0, 0.0, 0.0, 0.0, 0.0, 0.0)"
2025/07/05/17:44:53.281394,7639,1751712293,281026656,base_link,316000.0,180000.00000000003,309000.0,"(-1.0, 0.0, 0.0, 0.0, 0.0, 0.0, 0.0, 0.0, 0.0)"
2025/07/05/17:44:53.361581,7640,1751712293,361528656,base_link,315000.0,181000.00000000003,308000.0,"(-1.0, 0.0, 0.0, 0.0, 0.0, 0.0, 0.0, 0.0, 0.0)"
2025/07/05/17:44:53.581714,7641,1751712293,581530656,base_link,315000.0,181000.00000000003,308000.0,"(-1.0, 0.0, 0.0, 0.0, 0.0, 0.0, 0.0, 0.0, 0.0)"
2025/07/05/17:44:53.681798,7642,1751712293,681683656,base_link,314000.0,181000.00000000003,308000.0,"(-1.0, 0.0, 0.0, 0.0, 0.0, 0.0, 0.0, 0.0, 0.0)"
2025/07/05/17:44:53.761522,7643,1751712293,761371656,base_link,314000.0,181000.00000000003,308000.0,"(-1.0, 0.0, 0.0, 0.0, 0.0, 0.0, 0.0, 0.0, 0.0)"
2025/07/05/17:44:53.881143,7644,1751712293,881310656,base_link,317000.0,177000.00000000003,310000.0,"(-1.0, 0.0, 0.0, 0.0, 0.0, 0.0, 0.0, 0.0, 0.0)"
2025/07/05/17:44:54.002551,7645,1751712294,2544656,base_link,329000.0,161000.00000000003,312000.0,"(-1.0, 0.0, 0.0, 0.0, 0.0, 0.0, 0.0, 0.0, 0.0)"
2025/07/05/17:44:54.061467,7646,1751712294,61364656,base_link,329000.0,161000.00000000003,312000.0,"(-1.0, 0.0, 0.0, 0.0, 0.0, 0.0, 0.0, 0.0, 0.0)"
2025/07/05/17:44:54.181198,7647,1751712294,181042656,base_link,330000.0,160000.00000000003,311000.0,"(-1.0, 0.0, 0.0, 0.0, 0.0, 0.0, 0.0, 0.0, 0.0)"
2025/07/05/17:44:54.261351,7648,1751712294,261115656,base_link,331000.0,159000.00000000003,309000.0,"(-1.0, 0.0, 0.0, 0.0, 0.0, 0.0, 0.0, 0.0, 0.0)"
2025/07/05/17:44:54.361294,7649,1751712294,360513656,base_link,331000.0,157000.00000000003,309000.0,"(-1.0, 0.0, 0.0, 0.0, 0.0, 0.0, 0.0, 0.0, 0.0)"
2025/07/05/17:44:54.522611,7650,1751712294,522164656,base_link,334000.0,150000.00000000003,312000.0,"(-1.0, 0.0, 0.0, 0.0, 0.0, 0.0, 0.0, 0.0, 0.0)"
2025/07/05/17:44:54.625253,7651,1751712294,624950656,base_link,334000.0,147000.00000000003,312000.0,"(-1.0, 0.0, 0.0, 0.0, 0.0, 0.0, 0.0, 0.0, 0.0)"
2025/07/05/17:44:54.721754,7652,1751712294,721390656,base_link,334000.0,146000.00000000003,314000.0,"(-1.0, 0.0, 0.0, 0.0, 0.0, 0.0, 0.0, 0.0, 0.0)"
2025/07/05/17:44:54.803560,7653,1751712294,803164656,base_link,334000.0,147000.00000000003,313000.0,"(-1.0, 0.0, 0.0, 0.0, 0.0, 0.0, 0.0, 0.0, 0.0)"
2025/07/05/17:44:54.902619,7654,1751712294,902602656,base_link,333000.0,150000.00000000003,313000.0,"(-1.0, 0.0, 0.0, 0.0, 0.0, 0.0, 0.0, 0.0, 0.0)"
2025/07/05/17:44:55.003487,7655,1751712295,2925656,base_link,332000.0,153000.00000000003,311000.0,"(-1.0, 0.0, 0.0, 0.0, 0.0, 0.0, 0.0, 0.0, 0.0)"
2025/07/05/17:44:55.101892,7656,1751712295,101984656,base_link,332000.0,155000.00000000003,311000.0,"(-1.0, 0.0, 0.0, 0.0, 0.0, 0.0, 0.0, 0.0, 0.0)"
2025/07/05/17:44:55.202676,7657,1751712295,202445656,base_link,331000.0,156000.00000000003,311000.0,"(-1.0, 0.0, 0.0, 0.0, 0.0, 0.0, 0.0, 0.0, 0.0)"
2025/07/05/17:44:55.261501,7658,1751712295,261144656,base_link,331000.0,156000.00000000003,311000.0,"(-1.0, 0.0, 0.0, 0.0, 0.0, 0.0, 0.0, 0.0, 0.0)"
2025/07/05/17:44:55.402606,7659,1751712295,402244656,base_link,329000.0,158000.00000000003,313000.0,"(-1.0, 0.0, 0.0, 0.0, 0.0, 0.0, 0.0, 0.0, 0.0)"
2025/07/05/17:44:55.580755,7660,1751712295,580727656,base_link,327000.0,160000.00000000003,312000.0,"(-1.0, 0.0, 0.0, 0.0, 0.0, 0.0, 0.0, 0.0, 0.0)"
2025/07/05/17:44:55.701919,7661,1751712295,701637656,base_link,326000.0,164000.00000000003,311000.0,"(-1.0, 0.0, 0.0, 0.0, 0.0, 0.0, 0.0, 0.0, 0.0)"
2025/07/05/17:44:55.802516,7662,1751712295,802542192,base_link,325000.0,167000.00000000003,309000.0,"(-1.0, 0.0, 0.0, 0.0, 0.0, 0.0, 0.0, 0.0, 0.0)"
