time,.header.seq,.header.stamp.secs,.header.stamp.nsecs,.header.frame_id,.twist.linear.x,.twist.linear.y,.twist.linear.z,.twist.angular.x,.twist.angular.y,.twist.angular.z
2025/07/05/17:44:13.305157,7262,1751712253,173540352,map,-0.12899989202077805,0.16570765781528504,0.0,0.0,0.0,0.0
2025/07/05/17:44:13.462767,7263,1751712253,373556736,map,-0.10442848401682034,0.13414429442189743,0.0,0.0,0.0,0.0
2025/07/05/17:44:13.582961,7264,1751712253,373564160,map,-0.10442848401682034,0.13414429442189743,0.0,0.0,0.0,0.0
2025/07/05/17:44:13.684176,7265,1751712253,573573888,map,-0.0982856320158309,0.12625345357355053,0.0,0.0,0.0,0.0
2025/07/05/17:44:13.803967,7266,1751712253,773580032,map,-0.11671418801879921,0.14992597611859124,0.0,0.0,0.0,0.0
2025/07/05/17:44:13.882522,7267,1751712253,773580032,map,-0.11671418801879921,0.14992597611859124,0.0,0.0,0.0,0.0
2025/07/05/17:44:14.004383,7268,1751712253,973586944,map,-0.06757137201088374,0.08679924933181599,0.0,0.0,0.0,0.0
2025/07/05/17:44:14.082501,7269,1751712253,973592576,map,-0.06757137201088374,0.08679924933181599,0.0,0.0,0.0,0.0
2025/07/05/17:44:14.182489,7270,1751712253,973597184,map,-0.06757137201088374,0.08679924933181599,0.0,0.0,0.0,0.0
2025/07/05/17:44:14.304136,7271,1751712254,173604864,map,-0.11671418801879921,0.14992597611859124,0.0,0.0,0.0,0.0
2025/07/05/17:44:14.427511,7272,1751712254,373609728,map,-0.12899989202077805,0.16570765781528504,0.0,0.0,0.0,0.0
2025/07/05/17:44:14.582843,7273,1751712254,373623808,map,-0.12899989202077805,0.16570765781528504,0.0,0.0,0.0,0.0
2025/07/05/17:44:14.662971,7274,1751712254,573629696,map,-0.1719998560277041,0.22094354375371342,0.0,0.0,0.0,0.0
2025/07/05/17:44:14.762968,7275,1751712254,573636352,map,-0.1719998560277041,0.22094354375371342,0.0,0.0,0.0,0.0
2025/07/05/17:44:14.862985,7276,1751712254,773642496,map,-0.10442848401682034,0.13414429442189743,0.0,0.0,0.0,0.0
2025/07/05/17:44:14.963227,7277,1751712254,773649152,map,-0.10442848401682034,0.13414429442189743,0.0,0.0,0.0,0.0
2025/07/05/17:44:15.062636,7278,1751712254,973655296,map,-0.12285704001978864,0.15781681696693817,0.0,0.0,0.0,0.0
2025/07/05/17:44:15.163814,7279,1751712254,973661184,map,-0.12285704001978864,0.15781681696693817,0.0,0.0,0.0,0.0
2025/07/05/17:44:15.262459,7280,1751712255,173667328,map,-0.12899989202077805,0.16570765781528504,0.0,0.0,0.0,0.0
2025/07/05/17:44:15.362476,7281,1751712255,173673216,map,-0.12899989202077805,0.16570765781528504,0.0,0.0,0.0,0.0
2025/07/05/17:44:15.523857,7282,1751712255,373683200,map,-0.14742844802374636,0.18938018036032578,0.0,0.0,0.0,0.0
2025/07/05/17:44:15.627452,7283,1751712255,573688320,map,-0.12899989202077805,0.16570765781528504,0.0,0.0,0.0,0.0
2025/07/05/17:44:15.702691,7284,1751712255,573696768,map,-0.12899989202077805,0.16570765781528504,0.0,0.0,0.0,0.0
2025/07/05/17:44:15.803668,7285,1751712255,773704960,map,-0.11057133601780976,0.14203513527024433,0.0,0.0,0.0,0.0
2025/07/05/17:44:15.923308,7286,1751712255,773712640,map,-0.11057133601780976,0.14203513527024433,0.0,0.0,0.0,0.0
2025/07/05/17:44:16.025877,7287,1751712255,973718272,map,-0.15971415202572523,0.20516186205701958,0.0,0.0,0.0,0.0
2025/07/05/17:44:16.103188,7288,1751712255,973725440,map,-0.15971415202572523,0.20516186205701958,0.0,0.0,0.0,0.0
2025/07/05/17:44:16.205565,7289,1751712256,173732864,map,-0.14128559602275692,0.18148933951197888,0.0,0.0,0.0,0.0
2025/07/05/17:44:16.282229,7290,1751712256,173740544,map,-0.14128559602275692,0.18148933951197888,0.0,0.0,0.0,0.0
2025/07/05/17:44:16.404662,7291,1751712256,173746688,map,-0.14128559602275692,0.18148933951197888,0.0,0.0,0.0,0.0
2025/07/05/17:44:16.562665,7292,1751712256,373759744,map,-0.1719998560277041,0.22094354375371342,0.0,0.0,0.0,0.0
2025/07/05/17:44:16.643403,7293,1751712256,573759744,map,-0.23342837603759842,0.2998519522371825,0.0,0.0,0.0,0.0
2025/07/05/17:44:16.723841,7294,1751712256,573767680,map,-0.23342837603759842,0.2998519522371825,0.0,0.0,0.0,0.0
2025/07/05/17:44:16.827816,7295,1751712256,773775872,map,-0.1719998560277041,0.22094354375371342,0.0,0.0,0.0,0.0
2025/07/05/17:44:16.922866,7296,1751712256,773782528,map,-0.1719998560277041,0.22094354375371342,0.0,0.0,0.0,0.0
2025/07/05/17:44:17.044655,7297,1751712256,973787904,map,-0.23957122803858785,0.3077427930855294,0.0,0.0,0.0,0.0
2025/07/05/17:44:17.143912,7298,1751712256,973794048,map,-0.23957122803858785,0.3077427930855294,0.0,0.0,0.0,0.0
2025/07/05/17:44:17.225925,7299,1751712257,173801728,map,-0.296810908613652,0.5782761317294173,0.0,0.0,0.0,0.0
2025/07/05/17:44:17.302924,7300,1751712257,173808896,map,-0.296810908613652,0.5782761317294173,0.0,0.0,0.0,0.0
2025/07/05/17:44:17.483249,7301,1751712257,373819904,map,-0.21195276160494747,0.5183396828799011,0.0,0.0,0.0,0.0
2025/07/05/17:44:17.604589,7302,1751712257,573826816,map,-0.30400638890185616,0.5631874603600949,0.0,0.0,0.0,0.0
2025/07/05/17:44:17.703956,7303,1751712257,573833728,map,-0.30400638890185616,0.5631874603600949,0.0,0.0,0.0,0.0
2025/07/05/17:44:17.782987,7304,1751712257,573841920,map,-0.30400638890185616,0.5631874603600949,0.0,0.0,0.0,0.0
2025/07/05/17:44:17.904099,7305,1751712257,773847808,map,-0.17393405866533054,0.7398289959417685,0.0,0.0,0.0,0.0
2025/07/05/17:44:18.004590,7306,1751712257,973852928,map,-0.17242513102969217,0.3939156942664172,0.0,0.0,0.0,0.0
2025/07/05/17:44:18.084168,7307,1751712257,973858048,map,-0.17242513102969217,0.3939156942664172,0.0,0.0,0.0,0.0
2025/07/05/17:44:18.183598,7308,1751712257,973863936,map,-0.17242513102969217,0.3939156942664172,0.0,0.0,0.0,0.0
2025/07/05/17:44:18.263047,7309,1751712258,173870592,map,-0.23956595002191958,0.5826732837449261,0.0,0.0,0.0,0.0
2025/07/05/17:44:18.362341,7310,1751712258,173876224,map,-0.23956595002191958,0.5826732837449261,0.0,0.0,0.0,0.0
2025/07/05/17:44:18.542775,7311,1751712258,373883904,map,-0.17685369643324944,0.4783542307306334,0.0,0.0,0.0,0.0
2025/07/05/17:44:18.641593,7312,1751712258,573889792,map,-0.15951509874371517,0.4314567571295909,0.0,0.0,0.0,0.0
2025/07/05/17:44:18.723785,7313,1751712258,573897984,map,-0.15951509874371517,0.4314567571295909,0.0,0.0,0.0,0.0
2025/07/05/17:44:18.806778,7314,1751712258,773904384,map,-0.1386452920678902,0.4070349898809799,0.0,0.0,0.0,0.0
2025/07/05/17:44:18.904147,7315,1751712258,773910272,map,-0.1386452920678902,0.4070349898809799,0.0,0.0,0.0,0.0
2025/07/05/17:44:19.005544,7316,1751712258,973916672,map,-0.09051705864984322,0.49173840819421544,0.0,0.0,0.0,0.0
2025/07/05/17:44:19.102952,7317,1751712258,973922048,map,-0.09051705864984322,0.49173840819421544,0.0,0.0,0.0,0.0
2025/07/05/17:44:19.204665,7318,1751712259,173930752,map,-0.06062390891142514,0.37513296531803125,0.0,0.0,0.0,0.0
2025/07/05/17:44:19.283101,7319,1751712259,173937920,map,-0.06062390891142514,0.37513296531803125,0.0,0.0,0.0,0.0
2025/07/05/17:44:19.405693,7320,1751712259,375944320,map,-0.06419265228353986,0.46559564365746003,0.0,0.0,0.0,0.0
2025/07/05/17:44:19.582325,7321,1751712259,375957888,map,-0.06419265228353986,0.46559564365746003,0.0,0.0,0.0,0.0
2025/07/05/17:44:19.662723,7322,1751712259,575963520,map,-0.0480551425189567,0.4172417803594011,0.0,0.0,0.0,0.0
2025/07/05/17:44:19.762348,7323,1751712259,575968640,map,-0.0480551425189567,0.4172417803594011,0.0,0.0,0.0,0.0
2025/07/05/17:44:19.863405,7324,1751712259,775974272,map,-0.03203676167930447,0.27816118690626745,0.0,0.0,0.0,0.0
2025/07/05/17:44:20.004586,7325,1751712259,975982976,map,-0.04432479445848969,0.4879910988903513,0.0,0.0,0.0,0.0
2025/07/05/17:44:20.103866,7326,1751712259,975991936,map,-0.04432479445848969,0.4879910988903513,0.0,0.0,0.0,0.0
2025/07/05/17:44:20.205106,7327,1751712260,176000384,map,-0.03403558103248347,0.28799579723284374,0.0,0.0,0.0,0.0
2025/07/05/17:44:20.283290,7328,1751712260,176009088,map,-0.03403558103248347,0.28799579723284374,0.0,0.0,0.0,0.0
2025/07/05/17:44:20.424807,7329,1751712260,376014976,map,-0.019609637443024356,0.3995190384942289,0.0,0.0,0.0,0.0
2025/07/05/17:44:20.583231,7330,1751712260,376028800,map,-0.019609637443024356,0.3995190384942289,0.0,0.0,0.0,0.0
2025/07/05/17:44:20.703733,7331,1751712260,575037248,map,-0.03918928091622342,0.3679187413835687,0.0,0.0,0.0,0.0
2025/07/05/17:44:20.783366,7332,1751712260,575043136,map,-0.03918928091622342,0.3679187413835687,0.0,0.0,0.0,0.0
2025/07/05/17:44:20.904092,7333,1751712260,775051072,map,-0.031775092634775744,0.2983124930137043,0.0,0.0,0.0,0.0
2025/07/05/17:44:21.004674,7334,1751712260,975057216,map,-0.06057333706884617,0.39538698870390765,0.0,0.0,0.0,0.0
2025/07/05/17:44:21.083459,7335,1751712260,975062592,map,-0.06057333706884617,0.39538698870390765,0.0,0.0,0.0,0.0
2025/07/05/17:44:21.205534,7336,1751712261,175068736,map,-0.043915669374913466,0.286655566810333,0.0,0.0,0.0,0.0
2025/07/05/17:44:21.303896,7337,1751712261,175074880,map,-0.043915669374913466,0.286655566810333,0.0,0.0,0.0,0.0
2025/07/05/17:44:21.382383,7338,1751712261,175081280,map,-0.043915669374913466,0.286655566810333,0.0,0.0,0.0,0.0
2025/07/05/17:44:21.562963,7339,1751712261,375097664,map,-0.059602220536050556,0.36516787277521,0.0,0.0,0.0,0.0
2025/07/05/17:44:21.662721,7340,1751712261,575103808,map,-0.04510438310836259,0.27634325507313195,0.0,0.0,0.0,0.0
2025/07/05/17:44:21.742339,7341,1751712261,575103808,map,-0.04510438310836259,0.27634325507313195,0.0,0.0,0.0,0.0
2025/07/05/17:44:21.842921,7342,1751712261,775109952,map,-0.05799134971075189,0.35529847080831245,0.0,0.0,0.0,0.0
2025/07/05/17:44:21.962403,7343,1751712261,775121472,map,-0.05799134971075189,0.35529847080831245,0.0,0.0,0.0,0.0
2025/07/05/17:44:22.062914,7344,1751712261,975128128,map,-0.0354391581565706,0.2171268432717465,0.0,0.0,0.0,0.0
2025/07/05/17:44:22.162417,7345,1751712261,975134272,map,-0.0354391581565706,0.2171268432717465,0.0,0.0,0.0,0.0
2025/07/05/17:44:22.263711,7346,1751712262,175140672,map,-0.05154786640955724,0.3158208629407222,0.0,0.0,0.0,0.0
2025/07/05/17:44:22.404207,7347,1751712262,375146560,map,-0.04993699558425857,0.30595146097382464,0.0,0.0,0.0,0.0
2025/07/05/17:44:22.545258,7348,1751712262,375153472,map,-0.04993699558425857,0.30595146097382464,0.0,0.0,0.0,0.0
2025/07/05/17:44:22.643983,7349,1751712262,575159616,map,-0.043493512283063925,0.2664738531062344,0.0,0.0,0.0,0.0
2025/07/05/17:44:22.722973,7350,1751712262,575166016,map,-0.043493512283063925,0.2664738531062344,0.0,0.0,0.0,0.0
2025/07/05/17:44:22.805882,7351,1751712262,775172416,map,-0.022552191554181294,0.13817162753656598,0.0,0.0,0.0,0.0
2025/07/05/17:44:22.881896,7352,1751712262,775177536,map,-0.022552191554181294,0.13817162753656598,0.0,0.0,0.0,0.0
2025/07/05/17:44:23.004794,7353,1751712262,975184448,map,-0.046715253933661244,0.28621265704002946,0.0,0.0,0.0,0.0
2025/07/05/17:44:23.082653,7354,1751712262,975191872,map,-0.046715253933661244,0.28621265704002946,0.0,0.0,0.0,0.0
2025/07/05/17:44:23.182616,7355,1751712262,975197760,map,-0.046715253933661244,0.28621265704002946,0.0,0.0,0.0,0.0
2025/07/05/17:44:23.303438,7356,1751712263,175203904,map,-0.0354391581565706,0.2171268432717465,0.0,0.0,0.0,0.0
2025/07/05/17:44:23.426314,7357,1751712263,375208512,map,-0.01929981483374185,0.36949630194006444,0.0,0.0,0.0,0.0
2025/07/05/17:44:23.562712,7358,1751712263,375220032,map,-0.01929981483374185,0.36949630194006444,0.0,0.0,0.0,0.0
2025/07/05/17:44:23.662574,7359,1751712263,575225152,map,-0.01929981483374185,0.36949630194006444,0.0,0.0,0.0,0.0
2025/07/05/17:44:23.762691,7360,1751712263,575230528,map,-0.01929981483374185,0.36949630194006444,0.0,0.0,0.0,0.0
2025/07/05/17:44:23.842098,7361,1751712263,775230528,map,-0.01564849851384474,0.2995915961676198,0.0,0.0,0.0,0.0
2025/07/05/17:44:23.943337,7362,1751712263,775236160,map,-0.01564849851384474,0.2995915961676198,0.0,0.0,0.0,0.0
2025/07/05/17:44:24.041747,7363,1751712263,975243072,map,-0.016691731748101058,0.31956436924546117,0.0,0.0,0.0,0.0
2025/07/05/17:44:24.123040,7364,1751712263,975249216,map,-0.016691731748101058,0.31956436924546117,0.0,0.0,0.0,0.0
2025/07/05/17:44:24.226325,7365,1751712264,175255872,map,-0.017734964982357375,0.3395371423233025,0.0,0.0,0.0,0.0
2025/07/05/17:44:24.310471,7366,1751712264,175263040,map,-0.017734964982357375,0.3395371423233025,0.0,0.0,0.0,0.0
2025/07/05/17:44:24.445501,7367,1751712264,375270464,map,-0.011475565576819478,0.21970050385625453,0.0,0.0,0.0,0.0
2025/07/05/17:44:24.604365,7368,1751712264,575285312,map,-0.011997182193947636,0.2296868903951752,0.0,0.0,0.0,0.0
2025/07/05/17:44:24.683581,7369,1751712264,575290432,map,-0.011997182193947636,0.2296868903951752,0.0,0.0,0.0,0.0
2025/07/05/17:44:24.804509,7370,1751712264,775296832,map,-0.01564849851384474,0.2995915961676198,0.0,0.0,0.0,0.0
2025/07/05/17:44:24.903959,7371,1751712264,775303232,map,-0.01564849851384474,0.2995915961676198,0.0,0.0,0.0,0.0
2025/07/05/17:44:25.025851,7372,1751712264,975310144,map,-0.014605265279588426,0.27961882308977853,0.0,0.0,0.0,0.0
2025/07/05/17:44:25.104702,7373,1751712264,975316800,map,-0.014605265279588426,0.27961882308977853,0.0,0.0,0.0,0.0
2025/07/05/17:44:25.204599,7374,1751712265,175324736,map,-0.008345865874050529,0.15978218462273058,0.0,0.0,0.0,0.0
2025/07/05/17:44:25.281791,7375,1751712265,175329600,map,-0.008345865874050529,0.15978218462273058,0.0,0.0,0.0,0.0
2025/07/05/17:44:25.404827,7376,1751712265,375335232,map,-0.014083648662460268,0.26963243655085783,0.0,0.0,0.0,0.0
2025/07/05/17:44:25.562158,7377,1751712265,375347264,map,-0.014083648662460268,0.26963243655085783,0.0,0.0,0.0,0.0
2025/07/05/17:44:25.662834,7378,1751712265,575353408,map,-0.00782424925692237,0.1497957980838099,0.0,0.0,0.0,0.0
2025/07/05/17:44:25.762301,7379,1751712265,575358016,map,-0.00782424925692237,0.1497957980838099,0.0,0.0,0.0,0.0
2025/07/05/17:44:25.862770,7380,1751712265,775363648,map,-0.012518798811075793,0.23967327693409585,0.0,0.0,0.0,0.0
2025/07/05/17:44:25.943715,7381,1751712265,775363648,map,-0.012518798811075793,0.23967327693409585,0.0,0.0,0.0,0.0
2025/07/05/17:44:26.062303,7382,1751712265,975374144,map,-0.012518798811075793,0.23967327693409585,0.0,0.0,0.0,0.0
2025/07/05/17:44:26.162255,7383,1751712265,975379008,map,-0.012518798811075793,0.23967327693409585,0.0,0.0,0.0,0.0
2025/07/05/17:44:26.263058,7384,1751712266,175384896,map,-0.011997182193947636,0.2296868903951752,0.0,0.0,0.0,0.0
2025/07/05/17:44:26.362167,7385,1751712266,175389504,map,-0.011997182193947636,0.2296868903951752,0.0,0.0,0.0,0.0
2025/07/05/17:44:26.522953,7386,1751712266,375394880,map,-0.01564849851384474,0.2995915961676198,0.0,0.0,0.0,0.0
2025/07/05/17:44:26.604395,7387,1751712266,575399744,map,-0.006781016022666055,0.1298230250059686,0.0,0.0,0.0,0.0
2025/07/05/17:44:26.682831,7388,1751712266,575405120,map,-0.006781016022666055,0.1298230250059686,0.0,0.0,0.0,0.0
2025/07/05/17:44:26.782577,7389,1751712266,575413312,map,-0.006781016022666055,0.1298230250059686,0.0,0.0,0.0,0.0
2025/07/05/17:44:26.903731,7390,1751712266,775421504,map,-0.014083648662460268,0.26963243655085783,0.0,0.0,0.0,0.0
2025/07/05/17:44:27.004434,7391,1751712266,975427392,map,-0.008867482491178687,0.16976857116165125,0.0,0.0,0.0,0.0
2025/07/05/17:44:27.083996,7392,1751712266,975433024,map,-0.008867482491178687,0.16976857116165125,0.0,0.0,0.0,0.0
2025/07/05/17:44:27.183100,7393,1751712266,975433024,map,-0.008867482491178687,0.16976857116165125,0.0,0.0,0.0,0.0
2025/07/05/17:44:27.303493,7394,1751712267,175439680,map,-0.00782424925692237,0.1497957980838099,0.0,0.0,0.0,0.0
2025/07/05/17:44:27.382664,7395,1751712267,175445824,map,-0.00782424925692237,0.1497957980838099,0.0,0.0,0.0,0.0
2025/07/05/17:44:27.562220,7396,1751712267,375458880,map,-0.013040415428203951,0.24965966347301652,0.0,0.0,0.0,0.0
2025/07/05/17:44:27.662731,7397,1751712267,575464000,map,-0.010432332342563161,0.19972773077841321,0.0,0.0,0.0,0.0
2025/07/05/17:44:27.783954,7398,1751712267,575470656,map,-0.010432332342563161,0.19972773077841321,0.0,0.0,0.0,0.0
2025/07/05/17:44:27.903848,7399,1751712267,775476544,map,-0.008867482491178687,0.16976857116165125,0.0,0.0,0.0,0.0
2025/07/05/17:44:27.983079,7400,1751712267,775482688,map,-0.008867482491178687,0.16976857116165125,0.0,0.0,0.0,0.0
2025/07/05/17:44:28.102889,7401,1751712267,975488832,map,-0.011997182193947636,0.2296868903951752,0.0,0.0,0.0,0.0
2025/07/05/17:44:28.204464,7402,1751712268,175488832,map,-0.008867482491178687,0.16976857116165125,0.0,0.0,0.0,0.0
2025/07/05/17:44:28.282500,7403,1751712268,175493440,map,-0.008867482491178687,0.16976857116165125,0.0,0.0,0.0,0.0
2025/07/05/17:44:28.404669,7404,1751712268,375498816,map,-0.007302632639794213,0.13980941154488927,0.0,0.0,0.0,0.0
2025/07/05/17:44:28.582398,7405,1751712268,375507008,map,-0.007302632639794213,0.13980941154488927,0.0,0.0,0.0,0.0
2025/07/05/17:44:28.683050,7406,1751712268,575507008,map,-0.006781016022666055,0.1298230250059686,0.0,0.0,0.0,0.0
2025/07/05/17:44:28.803965,7407,1751712268,775507008,map,-0.006781016022666055,0.1298230250059686,0.0,0.0,0.0,0.0
2025/07/05/17:44:28.882012,7408,1751712268,775512384,map,-0.006781016022666055,0.1298230250059686,0.0,0.0,0.0,0.0
2025/07/05/17:44:28.983590,7409,1751712268,775519040,map,-0.006781016022666055,0.1298230250059686,0.0,0.0,0.0,0.0
2025/07/05/17:44:29.062496,7410,1751712268,975524160,map,-0.008867482491178687,0.16976857116165125,0.0,0.0,0.0,0.0
2025/07/05/17:44:29.162244,7411,1751712268,975524160,map,-0.008867482491178687,0.16976857116165125,0.0,0.0,0.0,0.0
2025/07/05/17:44:29.262495,7412,1751712269,175529024,map,-0.006259399405537896,0.11983663846704792,0.0,0.0,0.0,0.0
2025/07/05/17:44:29.362031,7413,1751712269,175533632,map,-0.006259399405537896,0.11983663846704792,0.0,0.0,0.0,0.0
2025/07/05/17:44:29.542642,7414,1751712269,375539776,map,-0.008345865874050529,0.15978218462273058,0.0,0.0,0.0,0.0
2025/07/05/17:44:29.644672,7415,1751712269,575545664,map,-0.006781016022666055,0.1298230250059686,0.0,0.0,0.0,0.0
2025/07/05/17:44:29.722510,7416,1751712269,575552320,map,-0.006781016022666055,0.1298230250059686,0.0,0.0,0.0,0.0
2025/07/05/17:44:29.804182,7417,1751712269,775557184,map,-0.01095394895969132,0.20971411731733386,0.0,0.0,0.0,0.0
2025/07/05/17:44:29.905239,7418,1751712269,775557184,map,-0.01095394895969132,0.20971411731733386,0.0,0.0,0.0,0.0
2025/07/05/17:44:30.004313,7419,1751712269,975563072,map,-0.005737782788409739,0.10985025192812727,0.0,0.0,0.0,0.0
2025/07/05/17:44:30.082199,7420,1751712269,975568192,map,-0.005737782788409739,0.10985025192812727,0.0,0.0,0.0,0.0
2025/07/05/17:44:30.205251,7421,1751712270,175568192,map,-0.005737782788409739,0.10985025192812727,0.0,0.0,0.0,0.0
2025/07/05/17:44:30.304471,7422,1751712270,175568192,map,-0.005737782788409739,0.10985025192812727,0.0,0.0,0.0,0.0
2025/07/05/17:44:30.383375,7423,1751712270,175573312,map,-0.005737782788409739,0.10985025192812727,0.0,0.0,0.0,0.0
2025/07/05/17:44:30.542355,7424,1751712270,375580480,map,-0.005737782788409739,0.10985025192812727,0.0,0.0,0.0,0.0
2025/07/05/17:44:30.645118,7425,1751712270,575587392,map,-0.007302632639794213,0.13980941154488927,0.0,0.0,0.0,0.0
2025/07/05/17:44:30.742861,7426,1751712270,575594304,map,-0.007302632639794213,0.13980941154488927,0.0,0.0,0.0,0.0
2025/07/05/17:44:30.845199,7427,1751712270,775600704,map,-0.010432332342563161,0.19972773077841321,0.0,0.0,0.0,0.0
2025/07/05/17:44:30.962986,7428,1751712270,775613504,map,-0.010432332342563161,0.19972773077841321,0.0,0.0,0.0,0.0
2025/07/05/17:44:31.062901,7429,1751712270,975613504,map,-0.007302632639794213,0.13980941154488927,0.0,0.0,0.0,0.0
2025/07/05/17:44:31.162354,7430,1751712270,975618112,map,-0.007302632639794213,0.13980941154488927,0.0,0.0,0.0,0.0
2025/07/05/17:44:31.263971,7431,1751712271,175622976,map,-0.006781016022666055,0.1298230250059686,0.0,0.0,0.0,0.0
2025/07/05/17:44:31.363197,7432,1751712271,175628352,map,-0.006781016022666055,0.1298230250059686,0.0,0.0,0.0,0.0
2025/07/05/17:44:31.523301,7433,1751712271,375633728,map,-0.006781016022666055,0.1298230250059686,0.0,0.0,0.0,0.0
2025/07/05/17:44:31.625381,7434,1751712271,575639872,map,-0.0041729329370252645,0.07989109231136529,0.0,0.0,0.0,0.0
2025/07/05/17:44:31.704085,7435,1751712271,575639872,map,-0.0041729329370252645,0.07989109231136529,0.0,0.0,0.0,0.0
2025/07/05/17:44:31.804501,7436,1751712271,775639872,map,-0.0052161661712815804,0.09986386538920661,0.0,0.0,0.0,0.0
2025/07/05/17:44:31.881969,7437,1751712271,775639872,map,-0.0052161661712815804,0.09986386538920661,0.0,0.0,0.0,0.0
2025/07/05/17:44:32.003040,7438,1751712271,775646528,map,-0.0052161661712815804,0.09986386538920661,0.0,0.0,0.0,0.0
2025/07/05/17:44:32.082124,7439,1751712271,975651648,map,-0.0052161661712815804,0.09986386538920661,0.0,0.0,0.0,0.0
2025/07/05/17:44:32.181457,7440,1751712271,975655488,map,-0.0052161661712815804,0.09986386538920661,0.0,0.0,0.0,0.0
2025/07/05/17:44:32.302487,7441,1751712272,175661120,map,-0.007302632639794213,0.13980941154488927,0.0,0.0,0.0,0.0
2025/07/05/17:44:32.423338,7442,1751712272,375666496,map,-0.0041729329370252645,0.07989109231136529,0.0,0.0,0.0,0.0
2025/07/05/17:44:32.604124,7443,1751712272,575679296,map,-0.0036513163198971066,0.06990470577244463,0.0,0.0,0.0,0.0
2025/07/05/17:44:32.703446,7444,1751712272,575679296,map,-0.0036513163198971066,0.06990470577244463,0.0,0.0,0.0,0.0
2025/07/05/17:44:32.805228,7445,1751712272,775683136,map,-0.004694549554153422,0.08987747885028595,0.0,0.0,0.0,0.0
2025/07/05/17:44:32.902574,7446,1751712272,775683136,map,-0.004694549554153422,0.08987747885028595,0.0,0.0,0.0,0.0
2025/07/05/17:44:33.004280,7447,1751712272,975687488,map,-0.003129699702768948,0.05991831923352396,0.0,0.0,0.0,0.0
2025/07/05/17:44:33.081737,7448,1751712272,975692096,map,-0.003129699702768948,0.05991831923352396,0.0,0.0,0.0,0.0
2025/07/05/17:44:33.182180,7449,1751712272,975692096,map,-0.003129699702768948,0.05991831923352396,0.0,0.0,0.0,0.0
2025/07/05/17:44:33.262061,7450,1751712273,175696960,map,-0.003129699702768948,0.05991831923352396,0.0,0.0,0.0,0.0
2025/07/05/17:44:33.362299,7451,1751712273,175701824,map,-0.003129699702768948,0.05991831923352396,0.0,0.0,0.0,0.0
2025/07/05/17:44:33.522866,7452,1751712273,375706944,map,-0.0041729329370252645,0.07989109231136529,0.0,0.0,0.0,0.0
2025/07/05/17:44:33.625246,7453,1751712273,575712320,map,-0.0026080830856407902,0.049931932694603304,0.0,0.0,0.0,0.0
2025/07/05/17:44:33.723069,7454,1751712273,575712320,map,-0.0026080830856407902,0.049931932694603304,0.0,0.0,0.0,0.0
2025/07/05/17:44:33.803916,7455,1751712273,775716928,map,-0.003129699702768948,0.05991831923352396,0.0,0.0,0.0,0.0
2025/07/05/17:44:33.903540,7456,1751712273,775716928,map,-0.003129699702768948,0.05991831923352396,0.0,0.0,0.0,0.0
2025/07/05/17:44:34.004177,7457,1751712273,975722816,map,-0.001564849851384474,0.02995915961676198,0.0,0.0,0.0,0.0
2025/07/05/17:44:34.103176,7458,1751712273,975726912,map,-0.001564849851384474,0.02995915961676198,0.0,0.0,0.0,0.0
2025/07/05/17:44:34.182887,7459,1751712273,975726912,map,-0.001564849851384474,0.02995915961676198,0.0,0.0,0.0,0.0
2025/07/05/17:44:34.262107,7460,1751712274,175731776,map,-0.001564849851384474,0.02995915961676198,0.0,0.0,0.0,0.0
2025/07/05/17:44:34.362928,7461,1751712274,175738176,map,-0.001564849851384474,0.02995915961676198,0.0,0.0,0.0,0.0
2025/07/05/17:44:34.523226,7462,1751712274,375744832,map,-0.0036513163198971066,0.06990470577244463,0.0,0.0,0.0,0.0
2025/07/05/17:44:34.641822,7463,1751712274,575751232,map,-0.0010432332342563161,0.019972773077841323,0.0,0.0,0.0,0.0
2025/07/05/17:44:34.742050,7464,1751712274,575757376,map,-0.0010432332342563161,0.019972773077841323,0.0,0.0,0.0,0.0
2025/07/05/17:44:34.861852,7465,1751712274,775768896,map,-0.0005216166171281581,0.009986386538920661,0.0,0.0,0.0,0.0
2025/07/05/17:44:34.941740,7466,1751712274,775768896,map,-0.0005216166171281581,0.009986386538920661,0.0,0.0,0.0,0.0
2025/07/05/17:44:35.041757,7467,1751712274,975774528,map,-0.0020864664685126323,0.039945546155682646,0.0,0.0,0.0,0.0
2025/07/05/17:44:35.122835,7468,1751712274,975779136,map,-0.0020864664685126323,0.039945546155682646,0.0,0.0,0.0,0.0
2025/07/05/17:44:35.203614,7469,1751712275,175784768,map,-0.0026080830856407902,0.049931932694603304,0.0,0.0,0.0,0.0
2025/07/05/17:44:35.302823,7470,1751712275,175784768,map,-0.0026080830856407902,0.049931932694603304,0.0,0.0,0.0,0.0
2025/07/05/17:44:35.425837,7471,1751712275,375788608,map,-0.001564849851384474,0.02995915961676198,0.0,0.0,0.0,0.0
2025/07/05/17:44:35.561957,7472,1751712275,375797312,map,-0.001564849851384474,0.02995915961676198,0.0,0.0,0.0,0.0
2025/07/05/17:44:35.662503,7473,1751712275,575802432,map,-0.0026080830856407902,0.049931932694603304,0.0,0.0,0.0,0.0
2025/07/05/17:44:35.762122,7474,1751712275,575807040,map,-0.0026080830856407902,0.049931932694603304,0.0,0.0,0.0,0.0
2025/07/05/17:44:35.861920,7475,1751712275,775810624,map,-0.001564849851384474,0.02995915961676198,0.0,0.0,0.0,0.0
2025/07/05/17:44:35.961910,7476,1751712275,775810624,map,-0.001564849851384474,0.02995915961676198,0.0,0.0,0.0,0.0
2025/07/05/17:44:36.061785,7477,1751712275,975815488,map,-0.0020864664685126323,0.039945546155682646,0.0,0.0,0.0,0.0
2025/07/05/17:44:36.161971,7478,1751712275,975819840,map,-0.0020864664685126323,0.039945546155682646,0.0,0.0,0.0,0.0
2025/07/05/17:44:36.262120,7479,1751712276,175824704,map,-0.0,0.0,0.0,0.0,0.0,0.0
2025/07/05/17:44:36.361957,7480,1751712276,175829312,map,-0.0,0.0,0.0,0.0,0.0,0.0
2025/07/05/17:44:36.541642,7481,1751712276,375834432,map,-0.0010432332342563161,0.019972773077841323,0.0,0.0,0.0,0.0
2025/07/05/17:44:36.641441,7482,1751712276,575840064,map,-0.0026080830856407902,0.049931932694603304,0.0,0.0,0.0,0.0
2025/07/05/17:44:36.722732,7483,1751712276,575845696,map,-0.0026080830856407902,0.049931932694603304,0.0,0.0,0.0,0.0
2025/07/05/17:44:36.825089,7484,1751712276,775850048,map,-0.003129699702768948,0.05991831923352396,0.0,0.0,0.0,0.0
2025/07/05/17:44:36.923141,7485,1751712276,775850048,map,-0.003129699702768948,0.05991831923352396,0.0,0.0,0.0,0.0
2025/07/05/17:44:37.041493,7486,1751712276,975854400,map,-0.0005216166171281581,0.009986386538920661,0.0,0.0,0.0,0.0
2025/07/05/17:44:37.141671,7487,1751712276,975858752,map,-0.0005216166171281581,0.009986386538920661,0.0,0.0,0.0,0.0
2025/07/05/17:44:37.241385,7488,1751712277,175862592,map,-0.0,0.0,0.0,0.0,0.0,0.0
2025/07/05/17:44:37.322803,7489,1751712277,175867712,map,-0.0,0.0,0.0,0.0,0.0,0.0
2025/07/05/17:44:37.462075,7490,1751712277,375875904,map,-0.0020864664685126323,0.039945546155682646,0.0,0.0,0.0,0.0
2025/07/05/17:44:37.581838,7491,1751712277,375879744,map,-0.0020864664685126323,0.039945546155682646,0.0,0.0,0.0,0.0
2025/07/05/17:44:37.662201,7492,1751712277,575884096,map,-0.001564849851384474,0.02995915961676198,0.0,0.0,0.0,0.0
2025/07/05/17:44:37.762132,7493,1751712277,575888448,map,-0.001564849851384474,0.02995915961676198,0.0,0.0,0.0,0.0
2025/07/05/17:44:37.861865,7494,1751712277,775893312,map,-0.0020864664685126323,0.039945546155682646,0.0,0.0,0.0,0.0
2025/07/05/17:44:38.003337,7495,1751712277,975898432,map,-0.001564849851384474,0.02995915961676198,0.0,0.0,0.0,0.0
2025/07/05/17:44:38.102486,7496,1751712277,975898432,map,-0.001564849851384474,0.02995915961676198,0.0,0.0,0.0,0.0
2025/07/05/17:44:38.181712,7497,1751712277,975902528,map,-0.001564849851384474,0.02995915961676198,0.0,0.0,0.0,0.0
2025/07/05/17:44:38.303029,7498,1751712278,175906624,map,-0.0020864664685126323,0.039945546155682646,0.0,0.0,0.0,0.0
2025/07/05/17:44:38.425672,7499,1751712278,375906624,map,-0.003129699702768948,0.05991831923352396,0.0,0.0,0.0,0.0
2025/07/05/17:44:38.603307,7500,1751712278,575910464,map,-0.0005216166171281581,0.009986386538920661,0.0,0.0,0.0,0.0
2025/07/05/17:44:38.682978,7501,1751712278,575910464,map,-0.0005216166171281581,0.009986386538920661,0.0,0.0,0.0,0.0
2025/07/05/17:44:38.781602,7502,1751712278,575914304,map,-0.0005216166171281581,0.009986386538920661,0.0,0.0,0.0,0.0
2025/07/05/17:44:38.861850,7503,1751712278,775918912,map,-0.001564849851384474,0.02995915961676198,0.0,0.0,0.0,0.0
2025/07/05/17:44:38.962050,7504,1751712278,775923520,map,-0.001564849851384474,0.02995915961676198,0.0,0.0,0.0,0.0
2025/07/05/17:44:39.061916,7505,1751712278,975928640,map,-0.0020864664685126323,0.039945546155682646,0.0,0.0,0.0,0.0
2025/07/05/17:44:39.181559,7506,1751712278,975933504,map,-0.0020864664685126323,0.039945546155682646,0.0,0.0,0.0,0.0
2025/07/05/17:44:39.262037,7507,1751712279,175937856,map,-0.005737782788409739,0.10985025192812727,0.0,0.0,0.0,0.0
2025/07/05/17:44:39.382096,7508,1751712279,175942208,map,-0.005737782788409739,0.10985025192812727,0.0,0.0,0.0,0.0
2025/07/05/17:44:39.561946,7509,1751712279,375950400,map,-0.0026080830856407902,0.049931932694603304,0.0,0.0,0.0,0.0
2025/07/05/17:44:39.662052,7510,1751712279,575954496,map,-0.0026080830856407902,0.049931932694603304,0.0,0.0,0.0,0.0
2025/07/05/17:44:39.741374,7511,1751712279,575954496,map,-0.0026080830856407902,0.049931932694603304,0.0,0.0,0.0,0.0
2025/07/05/17:44:39.841452,7512,1751712279,775954496,map,-0.0005216166171281581,0.009986386538920661,0.0,0.0,0.0,0.0
2025/07/05/17:44:39.922164,7513,1751712279,775954496,map,-0.0005216166171281581,0.009986386538920661,0.0,0.0,0.0,0.0
2025/07/05/17:44:40.041188,7514,1751712279,975954496,map,-0.0041729329370252645,0.07989109231136529,0.0,0.0,0.0,0.0
2025/07/05/17:44:40.141732,7515,1751712279,975959104,map,-0.0041729329370252645,0.07989109231136529,0.0,0.0,0.0,0.0
2025/07/05/17:44:40.241572,7516,1751712280,175963200,map,-0.0010432332342563161,0.019972773077841323,0.0,0.0,0.0,0.0
2025/07/05/17:44:40.323049,7517,1751712280,175968064,map,-0.0010432332342563161,0.019972773077841323,0.0,0.0,0.0,0.0
2025/07/05/17:44:40.461834,7518,1751712280,375972672,map,-0.0010432332342563161,0.019972773077841323,0.0,0.0,0.0,0.0
2025/07/05/17:44:40.582299,7519,1751712280,375976256,map,-0.0010432332342563161,0.019972773077841323,0.0,0.0,0.0,0.0
2025/07/05/17:44:40.682406,7520,1751712280,575976256,map,-0.0026080830856407902,0.049931932694603304,0.0,0.0,0.0,0.0
2025/07/05/17:44:40.781893,7521,1751712280,575979840,map,-0.0026080830856407902,0.049931932694603304,0.0,0.0,0.0,0.0
2025/07/05/17:44:40.881707,7522,1751712280,775983424,map,-0.0020864664685126323,0.039945546155682646,0.0,0.0,0.0,0.0
2025/07/05/17:44:41.003304,7523,1751712280,975987520,map,-0.001564849851384474,0.02995915961676198,0.0,0.0,0.0,0.0
2025/07/05/17:44:41.102784,7524,1751712280,975987520,map,-0.001564849851384474,0.02995915961676198,0.0,0.0,0.0,0.0
2025/07/05/17:44:41.181873,7525,1751712280,975987520,map,-0.001564849851384474,0.02995915961676198,0.0,0.0,0.0,0.0
2025/07/05/17:44:41.281944,7526,1751712281,175991360,map,-0.0036513163198971066,0.06990470577244463,0.0,0.0,0.0,0.0
2025/07/05/17:44:41.361675,7527,1751712281,175994944,map,-0.0036513163198971066,0.06990470577244463,0.0,0.0,0.0,0.0
2025/07/05/17:44:41.541430,7528,1751712281,375994944,map,-0.0010432332342563161,0.019972773077841323,0.0,0.0,0.0,0.0
2025/07/05/17:44:41.641615,7529,1751712281,575999808,map,-0.0036513163198971066,0.06990470577244463,0.0,0.0,0.0,0.0
2025/07/05/17:44:41.722501,7530,1751712281,576005440,map,-0.0036513163198971066,0.06990470577244463,0.0,0.0,0.0,0.0
2025/07/05/17:44:41.803221,7531,1751712281,776010048,map,-0.0020864664685126323,0.039945546155682646,0.0,0.0,0.0,0.0
2025/07/05/17:44:41.881997,7532,1751712281,776013632,map,-0.0020864664685126323,0.039945546155682646,0.0,0.0,0.0,0.0
2025/07/05/17:44:42.003802,7533,1751712281,976013632,map,-0.0005216166171281581,0.009986386538920661,0.0,0.0,0.0,0.0
2025/07/05/17:44:42.081528,7534,1751712281,976013632,map,-0.0005216166171281581,0.009986386538920661,0.0,0.0,0.0,0.0
2025/07/05/17:44:42.181386,7535,1751712281,976017984,map,-0.0005216166171281581,0.009986386538920661,0.0,0.0,0.0,0.0
2025/07/05/17:44:42.281759,7536,1751712282,176021568,map,-0.0026080830856407902,0.049931932694603304,0.0,0.0,0.0,0.0
2025/07/05/17:44:42.381625,7537,1751712282,176026176,map,-0.0026080830856407902,0.049931932694603304,0.0,0.0,0.0,0.0
2025/07/05/17:44:42.541765,7538,1751712282,376026176,map,-0.0026080830856407902,0.049931932694603304,0.0,0.0,0.0,0.0
2025/07/05/17:44:42.641428,7539,1751712282,576030528,map,-0.0010432332342563161,0.019972773077841323,0.0,0.0,0.0,0.0
2025/07/05/17:44:42.722171,7540,1751712282,576030528,map,-0.0010432332342563161,0.019972773077841323,0.0,0.0,0.0,0.0
2025/07/05/17:44:42.803841,7541,1751712282,776030528,map,-0.0026080830856407902,0.049931932694603304,0.0,0.0,0.0,0.0
2025/07/05/17:44:42.903246,7542,1751712282,776030528,map,-0.0026080830856407902,0.049931932694603304,0.0,0.0,0.0,0.0
2025/07/05/17:44:42.981731,7543,1751712282,776030528,map,-0.0026080830856407902,0.049931932694603304,0.0,0.0,0.0,0.0
2025/07/05/17:44:43.102242,7544,1751712282,976034112,map,-0.003129699702768948,0.05991831923352396,0.0,0.0,0.0,0.0
2025/07/05/17:44:43.182044,7545,1751712282,976034112,map,-0.003129699702768948,0.05991831923352396,0.0,0.0,0.0,0.0
2025/07/05/17:44:43.283539,7546,1751712283,176034112,map,-0.001564849851384474,0.02995915961676198,0.0,0.0,0.0,0.0
2025/07/05/17:44:43.404071,7547,1751712283,376034112,map,-0.0020864664685126323,0.039945546155682646,0.0,0.0,0.0,0.0
2025/07/05/17:44:43.581898,7548,1751712283,376039488,map,-0.0020864664685126323,0.039945546155682646,0.0,0.0,0.0,0.0
2025/07/05/17:44:43.702556,7549,1751712283,576044608,map,-0.0026080830856407902,0.049931932694603304,0.0,0.0,0.0,0.0
2025/07/05/17:44:43.803384,7550,1751712283,776044608,map,-0.006259399405537896,0.11983663846704792,0.0,0.0,0.0,0.0
2025/07/05/17:44:43.881767,7551,1751712283,776044608,map,-0.006259399405537896,0.11983663846704792,0.0,0.0,0.0,0.0
2025/07/05/17:44:44.003760,7552,1751712283,976048192,map,-0.0010432332342563161,0.019972773077841323,0.0,0.0,0.0,0.0
2025/07/05/17:44:44.102234,7553,1751712283,976051264,map,-0.0010432332342563161,0.019972773077841323,0.0,0.0,0.0,0.0
2025/07/05/17:44:44.181555,7554,1751712283,976051264,map,-0.0010432332342563161,0.019972773077841323,0.0,0.0,0.0,0.0
2025/07/05/17:44:44.302442,7555,1751712284,176054592,map,-0.0010432332342563161,0.019972773077841323,0.0,0.0,0.0,0.0
2025/07/05/17:44:44.481769,7556,1751712284,376057920,map,-0.0010432332342563161,0.019972773077841323,0.0,0.0,0.0,0.0
2025/07/05/17:44:44.602796,7557,1751712284,576057920,map,-0.001564849851384474,0.02995915961676198,0.0,0.0,0.0,0.0
2025/07/05/17:44:44.703192,7558,1751712284,576057920,map,-0.001564849851384474,0.02995915961676198,0.0,0.0,0.0,0.0
2025/07/05/17:44:44.781955,7559,1751712284,576057920,map,-0.001564849851384474,0.02995915961676198,0.0,0.0,0.0,0.0
2025/07/05/17:44:44.861921,7560,1751712284,776062016,map,-0.0026080830856407902,0.049931932694603304,0.0,0.0,0.0,0.0
2025/07/05/17:44:44.961724,7561,1751712284,776065344,map,-0.0026080830856407902,0.049931932694603304,0.0,0.0,0.0,0.0
2025/07/05/17:44:45.061498,7562,1751712284,976069184,map,-0.0020864664685126323,0.039945546155682646,0.0,0.0,0.0,0.0
2025/07/05/17:44:45.181862,7563,1751712284,976073024,map,-0.0020864664685126323,0.039945546155682646,0.0,0.0,0.0,0.0
2025/07/05/17:44:45.261983,7564,1751712285,176077632,map,-0.0036513163198971066,0.06990470577244463,0.0,0.0,0.0,0.0
2025/07/05/17:44:45.361701,7565,1751712285,176081472,map,-0.0036513163198971066,0.06990470577244463,0.0,0.0,0.0,0.0
2025/07/05/17:44:45.541953,7566,1751712285,376086848,map,-0.0026080830856407902,0.049931932694603304,0.0,0.0,0.0,0.0
2025/07/05/17:44:45.641227,7567,1751712285,576086848,map,-0.0026080830856407902,0.049931932694603304,0.0,0.0,0.0,0.0
2025/07/05/17:44:45.721738,7568,1751712285,576086848,map,-0.0026080830856407902,0.049931932694603304,0.0,0.0,0.0,0.0
2025/07/05/17:44:45.803260,7569,1751712285,776086848,map,-0.0010432332342563161,0.019972773077841323,0.0,0.0,0.0,0.0
2025/07/05/17:44:45.902629,7570,1751712285,776086848,map,-0.0010432332342563161,0.019972773077841323,0.0,0.0,0.0,0.0
2025/07/05/17:44:46.003426,7571,1751712285,976086848,map,-0.0010432332342563161,0.019972773077841323,0.0,0.0,0.0,0.0
2025/07/05/17:44:46.103174,7572,1751712285,976090432,map,-0.0010432332342563161,0.019972773077841323,0.0,0.0,0.0,0.0
2025/07/05/17:44:46.203590,7573,1751712286,176090432,map,-0.001564849851384474,0.02995915961676198,0.0,0.0,0.0,0.0
2025/07/05/17:44:46.281508,7574,1751712286,176090432,map,-0.001564849851384474,0.02995915961676198,0.0,0.0,0.0,0.0
2025/07/05/17:44:46.403266,7575,1751712286,176094272,map,-0.001564849851384474,0.02995915961676198,0.0,0.0,0.0,0.0
2025/07/05/17:44:46.581538,7576,1751712286,376098112,map,-0.001564849851384474,0.02995915961676198,0.0,0.0,0.0,0.0
2025/07/05/17:44:46.702211,7577,1751712286,576098112,map,-0.0010432332342563161,0.019972773077841323,0.0,0.0,0.0,0.0
2025/07/05/17:44:46.803663,7578,1751712286,776098112,map,-0.001564849851384474,0.02995915961676198,0.0,0.0,0.0,0.0
2025/07/05/17:44:46.881280,7579,1751712286,776101952,map,-0.001564849851384474,0.02995915961676198,0.0,0.0,0.0,0.0
2025/07/05/17:44:47.003500,7580,1751712286,976101952,map,-0.0010432332342563161,0.019972773077841323,0.0,0.0,0.0,0.0
2025/07/05/17:44:47.102455,7581,1751712286,976105280,map,-0.0010432332342563161,0.019972773077841323,0.0,0.0,0.0,0.0
2025/07/05/17:44:47.203470,7582,1751712287,176105280,map,-0.001564849851384474,0.02995915961676198,0.0,0.0,0.0,0.0
2025/07/05/17:44:47.302613,7583,1751712287,176105280,map,-0.001564849851384474,0.02995915961676198,0.0,0.0,0.0,0.0
2025/07/05/17:44:47.425107,7584,1751712287,376105280,map,-0.0005216166171281581,0.009986386538920661,0.0,0.0,0.0,0.0
2025/07/05/17:44:47.561614,7585,1751712287,376105280,map,-0.0005216166171281581,0.009986386538920661,0.0,0.0,0.0,0.0
2025/07/05/17:44:47.661631,7586,1751712287,576108608,map,-0.0010432332342563161,0.019972773077841323,0.0,0.0,0.0,0.0
2025/07/05/17:44:47.761376,7587,1751712287,576108608,map,-0.0010432332342563161,0.019972773077841323,0.0,0.0,0.0,0.0
2025/07/05/17:44:47.861758,7588,1751712287,776108608,map,-0.0005216166171281581,0.009986386538920661,0.0,0.0,0.0,0.0
2025/07/05/17:44:47.961615,7589,1751712287,776108608,map,-0.0005216166171281581,0.009986386538920661,0.0,0.0,0.0,0.0
2025/07/05/17:44:48.081954,7590,1751712287,976111168,map,-0.0005216166171281581,0.009986386538920661,0.0,0.0,0.0,0.0
2025/07/05/17:44:48.203147,7591,1751712288,176114752,map,-0.0005216166171281581,0.009986386538920661,0.0,0.0,0.0,0.0
2025/07/05/17:44:48.302371,7592,1751712288,176118080,map,-0.0005216166171281581,0.009986386538920661,0.0,0.0,0.0,0.0
2025/07/05/17:44:48.381518,7593,1751712288,176121408,map,-0.0005216166171281581,0.009986386538920661,0.0,0.0,0.0,0.0
2025/07/05/17:44:48.561400,7594,1751712288,376125248,map,-0.0041729329370252645,0.07989109231136529,0.0,0.0,0.0,0.0
2025/07/05/17:44:48.661051,7595,1751712288,576125248,map,-0.0020864664685126323,0.039945546155682646,0.0,0.0,0.0,0.0
2025/07/05/17:44:48.761577,7596,1751712288,576125248,map,-0.0020864664685126323,0.039945546155682646,0.0,0.0,0.0,0.0
2025/07/05/17:44:48.861926,7597,1751712288,776125248,map,-0.001564849851384474,0.02995915961676198,0.0,0.0,0.0,0.0
2025/07/05/17:44:48.962227,7598,1751712288,776129088,map,-0.001564849851384474,0.02995915961676198,0.0,0.0,0.0,0.0
2025/07/05/17:44:49.040810,7599,1751712288,976129088,map,-0.0005216166171281581,0.009986386538920661,0.0,0.0,0.0,0.0
2025/07/05/17:44:49.141320,7600,1751712288,976132672,map,-0.0005216166171281581,0.009986386538920661,0.0,0.0,0.0,0.0
2025/07/05/17:44:49.225260,7601,1751712289,176132672,map,-0.0005216166171281581,0.009986386538920661,0.0,0.0,0.0,0.0
2025/07/05/17:44:49.302237,7602,1751712289,176132672,map,-0.0005216166171281581,0.009986386538920661,0.0,0.0,0.0,0.0
2025/07/05/17:44:49.461645,7603,1751712289,376135744,map,-0.0005216166171281581,0.009986386538920661,0.0,0.0,0.0,0.0
2025/07/05/17:44:49.581530,7604,1751712289,376135744,map,-0.0005216166171281581,0.009986386538920661,0.0,0.0,0.0,0.0
2025/07/05/17:44:49.682493,7605,1751712289,576135744,map,-0.0020864664685126323,0.039945546155682646,0.0,0.0,0.0,0.0
2025/07/05/17:44:49.781921,7606,1751712289,576135744,map,-0.0020864664685126323,0.039945546155682646,0.0,0.0,0.0,0.0
2025/07/05/17:44:49.881918,7607,1751712289,776135744,map,-0.001564849851384474,0.02995915961676198,0.0,0.0,0.0,0.0
2025/07/05/17:44:50.003639,7608,1751712289,976135744,map,-0.0010432332342563161,0.019972773077841323,0.0,0.0,0.0,0.0
2025/07/05/17:44:50.102148,7609,1751712289,976135744,map,-0.0010432332342563161,0.019972773077841323,0.0,0.0,0.0,0.0
2025/07/05/17:44:50.181972,7610,1751712289,976135744,map,-0.0010432332342563161,0.019972773077841323,0.0,0.0,0.0,0.0
2025/07/05/17:44:50.282041,7611,1751712290,176135744,map,-0.0010432332342563161,0.019972773077841323,0.0,0.0,0.0,0.0
2025/07/05/17:44:50.423020,7612,1751712290,376135744,map,-0.0020864664685126323,0.039945546155682646,0.0,0.0,0.0,0.0
2025/07/05/17:44:50.581911,7613,1751712290,376139328,map,-0.0020864664685126323,0.039945546155682646,0.0,0.0,0.0,0.0
2025/07/05/17:44:50.661841,7614,1751712290,576139328,map,-0.0036513163198971066,0.06990470577244463,0.0,0.0,0.0,0.0
2025/07/05/17:44:50.761365,7615,1751712290,576139328,map,-0.0036513163198971066,0.06990470577244463,0.0,0.0,0.0,0.0
2025/07/05/17:44:50.861844,7616,1751712290,776139328,map,-0.0026080830856407902,0.049931932694603304,0.0,0.0,0.0,0.0
2025/07/05/17:44:50.961417,7617,1751712290,776139328,map,-0.0026080830856407902,0.049931932694603304,0.0,0.0,0.0,0.0
2025/07/05/17:44:51.081650,7618,1751712290,976139328,map,-0.0041729329370252645,0.07989109231136529,0.0,0.0,0.0,0.0
2025/07/05/17:44:51.181642,7619,1751712290,976139328,map,-0.0041729329370252645,0.07989109231136529,0.0,0.0,0.0,0.0
2025/07/05/17:44:51.261328,7620,1751712291,176139328,map,-0.0036513163198971066,0.06990470577244463,0.0,0.0,0.0,0.0
2025/07/05/17:44:51.361368,7621,1751712291,176139328,map,-0.0036513163198971066,0.06990470577244463,0.0,0.0,0.0,0.0
2025/07/05/17:44:51.522802,7622,1751712291,376139328,map,-0.0020864664685126323,0.039945546155682646,0.0,0.0,0.0,0.0
2025/07/05/17:44:51.625087,7623,1751712291,576139328,map,-0.0020864664685126323,0.039945546155682646,0.0,0.0,0.0,0.0
2025/07/05/17:44:51.702324,7624,1751712291,576139328,map,-0.0020864664685126323,0.039945546155682646,0.0,0.0,0.0,0.0
2025/07/05/17:44:51.803245,7625,1751712291,776139328,map,-0.0,0.0,0.0,0.0,0.0,0.0
2025/07/05/17:44:51.902376,7626,1751712291,776139328,map,-0.0,0.0,0.0,0.0,0.0,0.0
2025/07/05/17:44:52.024721,7627,1751712291,976139328,map,-0.003129699702768948,0.05991831923352396,0.0,0.0,0.0,0.0
2025/07/05/17:44:52.102381,7628,1751712291,976139328,map,-0.003129699702768948,0.05991831923352396,0.0,0.0,0.0,0.0
2025/07/05/17:44:52.203308,7629,1751712292,176139328,map,-0.001564849851384474,0.02995915961676198,0.0,0.0,0.0,0.0
2025/07/05/17:44:52.281148,7630,1751712292,176139328,map,-0.001564849851384474,0.02995915961676198,0.0,0.0,0.0,0.0
2025/07/05/17:44:52.402304,7631,1751712292,176139328,map,-0.001564849851384474,0.02995915961676198,0.0,0.0,0.0,0.0
2025/07/05/17:44:52.541780,7632,1751712292,376139328,map,-0.0005216166171281581,0.009986386538920661,0.0,0.0,0.0,0.0
2025/07/05/17:44:52.625819,7633,1751712292,576139328,map,-0.0005216166171281581,0.009986386538920661,0.0,0.0,0.0,0.0
2025/07/05/17:44:52.702366,7634,1751712292,576139328,map,-0.0005216166171281581,0.009986386538920661,0.0,0.0,0.0,0.0
2025/07/05/17:44:52.803428,7635,1751712292,776139328,map,-0.0041729329370252645,0.07989109231136529,0.0,0.0,0.0,0.0
2025/07/05/17:44:52.922282,7636,1751712292,776142656,map,-0.0041729329370252645,0.07989109231136529,0.0,0.0,0.0,0.0
2025/07/05/17:44:53.003225,7637,1751712292,976142656,map,-0.0020864664685126323,0.039945546155682646,0.0,0.0,0.0,0.0
2025/07/05/17:44:53.081834,7638,1751712292,976142656,map,-0.0020864664685126323,0.039945546155682646,0.0,0.0,0.0,0.0
2025/07/05/17:44:53.182028,7639,1751712292,976142656,map,-0.0020864664685126323,0.039945546155682646,0.0,0.0,0.0,0.0
2025/07/05/17:44:53.301870,7640,1751712293,176142656,map,-0.0005216166171281581,0.009986386538920661,0.0,0.0,0.0,0.0
2025/07/05/17:44:53.425008,7641,1751712293,376142656,map,-0.005737782788409739,0.10985025192812727,0.0,0.0,0.0,0.0
2025/07/05/17:44:53.582173,7642,1751712293,376142656,map,-0.005737782788409739,0.10985025192812727,0.0,0.0,0.0,0.0
2025/07/05/17:44:53.702241,7643,1751712293,576142656,map,-0.0010432332342563161,0.019972773077841323,0.0,0.0,0.0,0.0
2025/07/05/17:44:53.781213,7644,1751712293,576142656,map,-0.0010432332342563161,0.019972773077841323,0.0,0.0,0.0,0.0
2025/07/05/17:44:53.902338,7645,1751712293,776142656,map,-0.003129699702768948,0.05991831923352396,0.0,0.0,0.0,0.0
2025/07/05/17:44:54.003510,7646,1751712293,976142656,map,-0.01356203204533211,0.2596460500119372,0.0,0.0,0.0,0.0
2025/07/05/17:44:54.082014,7647,1751712293,976142656,map,-0.01356203204533211,0.2596460500119372,0.0,0.0,0.0,0.0
2025/07/05/17:44:54.202555,7648,1751712294,176142656,map,-0.003129699702768948,0.05991831923352396,0.0,0.0,0.0,0.0
2025/07/05/17:44:54.281967,7649,1751712294,176142656,map,-0.003129699702768948,0.05991831923352396,0.0,0.0,0.0,0.0
2025/07/05/17:44:54.361465,7650,1751712294,176142656,map,-0.003129699702768948,0.05991831923352396,0.0,0.0,0.0,0.0
2025/07/05/17:44:54.541011,7651,1751712294,376142656,map,-0.005737782788409739,0.10985025192812727,0.0,0.0,0.0,0.0
2025/07/05/17:44:54.640535,7652,1751712294,576142656,map,-0.005737782788409739,0.10985025192812727,0.0,0.0,0.0,0.0
2025/07/05/17:44:54.722019,7653,1751712294,576142656,map,-0.005737782788409739,0.10985025192812727,0.0,0.0,0.0,0.0
2025/07/05/17:44:54.824727,7654,1751712294,776142656,map,-0.004694549554153422,0.08987747885028595,0.0,0.0,0.0,0.0
2025/07/05/17:44:54.922903,7655,1751712294,776142656,map,-0.004694549554153422,0.08987747885028595,0.0,0.0,0.0,0.0
2025/07/05/17:44:55.024566,7656,1751712294,976142656,map,-0.009389099108306844,0.1797549577005719,0.0,0.0,0.0,0.0
2025/07/05/17:44:55.102170,7657,1751712294,976142656,map,-0.009389099108306844,0.1797549577005719,0.0,0.0,0.0,0.0
2025/07/05/17:44:55.203311,7658,1751712295,176142656,map,-0.003129699702768948,0.05991831923352396,0.0,0.0,0.0,0.0
2025/07/05/17:44:55.281308,7659,1751712295,176142656,map,-0.003129699702768948,0.05991831923352396,0.0,0.0,0.0,0.0
2025/07/05/17:44:55.403340,7660,1751712295,376142656,map,-0.0041729329370252645,0.07989109231136529,0.0,0.0,0.0,0.0
2025/07/05/17:44:55.580842,7661,1751712295,376142656,map,-0.0041729329370252645,0.07989109231136529,0.0,0.0,0.0,0.0
2025/07/05/17:44:55.701818,7662,1751712295,576142656,map,-0.01095394895969132,0.20971411731733386,0.0,0.0,0.0,0.0
2025/07/05/17:44:55.803317,7663,1751712295,776144192,map,-0.0052161661712815804,0.09986386538920661,0.0,0.0,0.0,0.0
2025/07/05/17:44:55.881113,7664,1751712295,776144192,map,-0.0052161661712815804,0.09986386538920661,0.0,0.0,0.0,0.0
2025/07/05/17:44:56.003361,7665,1751712295,976144192,map,-0.001564849851384474,0.02995915961676198,0.0,0.0,0.0,0.0
2025/07/05/17:44:56.081888,7666,1751712295,976144192,map,-0.001564849851384474,0.02995915961676198,0.0,0.0,0.0,0.0
2025/07/05/17:44:56.181159,7667,1751712295,976144192,map,-0.001564849851384474,0.02995915961676198,0.0,0.0,0.0,0.0
2025/07/05/17:44:56.302013,7668,1751712296,176147008,map,-0.0052161661712815804,0.09986386538920661,0.0,0.0,0.0,0.0
2025/07/05/17:44:56.422767,7669,1751712296,376147008,map,-0.003129699702768948,0.05991831923352396,0.0,0.0,0.0,0.0
2025/07/05/17:44:56.602784,7670,1751712296,376147008,map,-0.003129699702768948,0.05991831923352396,0.0,0.0,0.0,0.0
2025/07/05/17:44:56.681969,7671,1751712296,576147008,map,-0.003129699702768948,0.05991831923352396,0.0,0.0,0.0,0.0
2025/07/05/17:44:56.781965,7672,1751712296,576147008,map,-0.003129699702768948,0.05991831923352396,0.0,0.0,0.0,0.0
2025/07/05/17:44:56.881685,7673,1751712296,776147008,map,-0.0005216166171281581,0.009986386538920661,0.0,0.0,0.0,0.0
2025/07/05/17:44:57.003300,7674,1751712296,976147008,map,-0.0010432332342563161,0.019972773077841323,0.0,0.0,0.0,0.0
2025/07/05/17:44:57.081815,7675,1751712296,976147008,map,-0.0010432332342563161,0.019972773077841323,0.0,0.0,0.0,0.0
2025/07/05/17:44:57.182091,7676,1751712296,976147008,map,-0.0010432332342563161,0.019972773077841323,0.0,0.0,0.0,0.0
2025/07/05/17:44:57.281913,7677,1751712297,176147008,map,-0.0020864664685126323,0.039945546155682646,0.0,0.0,0.0,0.0
2025/07/05/17:44:57.381972,7678,1751712297,176147008,map,-0.0020864664685126323,0.039945546155682646,0.0,0.0,0.0,0.0
2025/07/05/17:44:57.561434,7679,1751712297,376147008,map,-0.0026080830856407902,0.049931932694603304,0.0,0.0,0.0,0.0
2025/07/05/17:44:57.683854,7680,1751712297,576147008,map,-0.0036513163198971066,0.06990470577244463,0.0,0.0,0.0,0.0
2025/07/05/17:44:57.761369,7681,1751712297,576147008,map,-0.0036513163198971066,0.06990470577244463,0.0,0.0,0.0,0.0
2025/07/05/17:44:57.861140,7682,1751712297,776147008,map,-0.001564849851384474,0.02995915961676198,0.0,0.0,0.0,0.0
2025/07/05/17:44:57.960860,7683,1751712297,776147008,map,-0.001564849851384474,0.02995915961676198,0.0,0.0,0.0,0.0
2025/07/05/17:44:58.061912,7684,1751712297,976147008,map,-0.0010432332342563161,0.019972773077841323,0.0,0.0,0.0,0.0
2025/07/05/17:44:58.184185,7685,1751712297,976147008,map,-0.0010432332342563161,0.019972773077841323,0.0,0.0,0.0,0.0
2025/07/05/17:44:58.261705,7686,1751712298,176147008,map,-0.0005216166171281581,0.009986386538920661,0.0,0.0,0.0,0.0
2025/07/05/17:44:58.361804,7687,1751712298,176147008,map,-0.0005216166171281581,0.009986386538920661,0.0,0.0,0.0,0.0
2025/07/05/17:44:58.542062,7688,1751712298,376147008,map,-0.007302632639794213,0.13980941154488927,0.0,0.0,0.0,0.0
2025/07/05/17:44:58.643801,7689,1751712298,576147008,map,-0.00782424925692237,0.1497957980838099,0.0,0.0,0.0,0.0
2025/07/05/17:44:58.761513,7690,1751712298,576147008,map,-0.00782424925692237,0.1497957980838099,0.0,0.0,0.0,0.0
2025/07/05/17:44:58.861564,7691,1751712298,776147008,map,-0.008867482491178687,0.16976857116165125,0.0,0.0,0.0,0.0
2025/07/05/17:44:59.002433,7692,1751712298,976147008,map,-0.008345865874050529,0.15978218462273058,0.0,0.0,0.0,0.0
2025/07/05/17:44:59.102197,7693,1751712298,976147008,map,-0.008345865874050529,0.15978218462273058,0.0,0.0,0.0,0.0
2025/07/05/17:44:59.181943,7694,1751712298,976147008,map,-0.008345865874050529,0.15978218462273058,0.0,0.0,0.0,0.0
2025/07/05/17:44:59.301797,7695,1751712299,176147008,map,-0.01356203204533211,0.2596460500119372,0.0,0.0,0.0,0.0
2025/07/05/17:44:59.425008,7696,1751712299,379147008,map,-0.011475565576819478,0.21970050385625453,0.0,0.0,0.0,0.0
2025/07/05/17:44:59.602499,7697,1751712299,579147008,map,-0.015126881896716583,0.2896052096286991,0.0,0.0,0.0,0.0
2025/07/05/17:44:59.701804,7698,1751712299,579147008,map,-0.015126881896716583,0.2896052096286991,0.0,0.0,0.0,0.0
2025/07/05/17:44:59.781708,7699,1751712299,579147008,map,-0.015126881896716583,0.2896052096286991,0.0,0.0,0.0,0.0
2025/07/05/17:44:59.883738,7700,1751712299,779147008,map,-0.018778198216613688,0.3595099154011438,0.0,0.0,0.0,0.0
2025/07/05/17:44:59.962439,7701,1751712299,779147008,map,-0.018778198216613688,0.3595099154011438,0.0,0.0,0.0,0.0
2025/07/05/17:45:00.061156,7702,1751712299,979147008,map,-0.017213348365229215,0.3295507557843818,0.0,0.0,0.0,0.0
2025/07/05/17:45:00.160952,7703,1751712299,979147008,map,-0.017213348365229215,0.3295507557843818,0.0,0.0,0.0,0.0
2025/07/05/17:45:00.260934,7704,1751712300,179147008,map,-0.019821431450870005,0.3794826884789851,0.0,0.0,0.0,0.0
2025/07/05/17:45:00.360838,7705,1751712300,179147008,map,-0.019821431450870005,0.3794826884789851,0.0,0.0,0.0,0.0
2025/07/05/17:45:00.542540,7706,1751712300,379147008,map,-0.01825658159948553,0.3495235288622231,0.0,0.0,0.0,0.0
2025/07/05/17:45:00.640941,7707,1751712300,579147008,map,0.066244959974036,0.45520501455721946,0.0,0.0,0.0,0.0
2025/07/05/17:45:00.722543,7708,1751712300,579147008,map,0.066244959974036,0.45520501455721946,0.0,0.0,0.0,0.0
2025/07/05/17:45:00.824312,7709,1751712300,779147008,map,0.050403773893288255,0.3463516415109278,0.0,0.0,0.0,0.0
2025/07/05/17:45:00.921635,7710,1751712300,779147008,map,0.050403773893288255,0.3463516415109278,0.0,0.0,0.0,0.0
2025/07/05/17:45:01.042300,7711,1751712300,979147008,map,0.05760431302090087,0.3958304474410604,0.0,0.0,0.0,0.0
2025/07/05/17:45:01.123319,7712,1751712300,979147008,map,0.05760431302090087,0.3958304474410604,0.0,0.0,0.0,0.0
2025/07/05/17:45:01.202514,7713,1751712301,179147008,map,0.06480485214851348,0.4453092533711929,0.0,0.0,0.0,0.0
2025/07/05/17:45:01.281966,7714,1751712301,179147008,map,0.06480485214851348,0.4453092533711929,0.0,0.0,0.0,0.0
2025/07/05/17:45:01.403740,7715,1751712301,379147008,map,0.0532839895443333,0.36614316388298085,0.0,0.0,0.0,0.0
2025/07/05/17:45:01.541093,7716,1751712301,379147008,map,0.0532839895443333,0.36614316388298085,0.0,0.0,0.0,0.0
2025/07/05/17:45:01.642299,7717,1751712301,579147008,map,0.04320323476567565,0.29687283558079525,0.0,0.0,0.0,0.0
2025/07/05/17:45:01.742404,7718,1751712301,579147008,map,0.04320323476567565,0.29687283558079525,0.0,0.0,0.0,0.0
2025/07/05/17:45:01.824543,7719,1751712301,779147008,map,0.11638323237774985,0.4862663295163533,0.0,0.0,0.0,0.0
2025/07/05/17:45:01.921909,7720,1751712301,779147008,map,0.11638323237774985,0.4862663295163533,0.0,0.0,0.0,0.0
2025/07/05/17:45:02.024544,7721,1751712301,979147008,map,0.10241724449241987,0.4279143699743909,0.0,0.0,0.0,0.0
2025/07/05/17:45:02.101697,7722,1751712301,979147008,map,0.10241724449241987,0.4279143699743909,0.0,0.0,0.0,0.0
2025/07/05/17:45:02.182000,7723,1751712301,979147008,map,0.10241724449241987,0.4279143699743909,0.0,0.0,0.0,0.0
2025/07/05/17:45:02.261721,7724,1751712302,179147008,map,0.12576995879841804,0.4632298754008038,0.0,0.0,0.0,0.0
2025/07/05/17:45:02.362577,7725,1751712302,179147008,map,0.12576995879841804,0.4632298754008038,0.0,0.0,0.0,0.0
2025/07/05/17:45:02.541991,7726,1751712302,379147008,map,0.29749346459705917,0.5095072507060505,0.0,0.0,0.0,0.0
2025/07/05/17:45:02.624827,7727,1751712302,579147008,map,0.22690179503165533,0.38860722511478435,0.0,0.0,0.0,0.0
2025/07/05/17:45:02.701928,7728,1751712302,579147008,map,0.22690179503165533,0.38860722511478435,0.0,0.0,0.0,0.0
2025/07/05/17:45:02.781393,7729,1751712302,579147008,map,0.22690179503165533,0.38860722511478435,0.0,0.0,0.0,0.0
2025/07/05/17:45:02.860655,7730,1751712302,779147008,map,0.32869383083653664,0.44097660433406477,0.0,0.0,0.0,0.0
2025/07/05/17:45:02.961324,7731,1751712302,779147008,map,0.32869383083653664,0.44097660433406477,0.0,0.0,0.0,0.0
2025/07/05/17:45:03.060446,7732,1751712302,979147008,map,0.39487247073871096,0.3970840362602177,0.0,0.0,0.0,0.0
2025/07/05/17:45:03.160833,7733,1751712302,979147008,map,0.39487247073871096,0.3970840362602177,0.0,0.0,0.0,0.0
2025/07/05/17:45:03.260951,7734,1751712303,179147008,map,0.26089788245236256,0.26235909538621527,0.0,0.0,0.0,0.0
2025/07/05/17:45:03.361300,7735,1751712303,179147008,map,0.26089788245236256,0.26235909538621527,0.0,0.0,0.0,0.0
2025/07/05/17:45:03.542109,7736,1751712303,379147008,map,0.2115388236100237,0.21272359085368805,0.0,0.0,0.0,0.0
2025/07/05/17:45:03.641407,7737,1751712303,579147008,map,0.3807698824980427,0.38290246353663854,0.0,0.0,0.0,0.0
2025/07/05/17:45:03.742251,7738,1751712303,579147008,map,0.3807698824980427,0.38290246353663854,0.0,0.0,0.0,0.0
2025/07/05/17:45:03.842452,7739,1751712303,779147008,map,0.3596160001370403,0.3616301044512697,0.0,0.0,0.0,0.0
2025/07/05/17:45:03.921574,7740,1751712303,779147008,map,0.3596160001370403,0.3616301044512697,0.0,0.0,0.0,0.0
2025/07/05/17:45:04.024350,7741,1751712303,979147008,map,0.36666729425737443,0.3687208908130593,0.0,0.0,0.0,0.0
2025/07/05/17:45:04.102174,7742,1751712303,979147008,map,0.36666729425737443,0.3687208908130593,0.0,0.0,0.0,0.0
2025/07/05/17:45:04.202237,7743,1751712304,179147008,map,0.4739871780572897,0.48758194699689944,0.0,0.0,0.0,0.0
2025/07/05/17:45:04.281003,7744,1751712304,179147008,map,0.4739871780572897,0.48758194699689944,0.0,0.0,0.0,0.0
2025/07/05/17:45:04.403782,7745,1751712304,379147008,map,0.31366798547908875,0.32266452374794813,0.0,0.0,0.0,0.0
2025/07/05/17:45:04.581764,7746,1751712304,379147008,map,0.31366798547908875,0.32266452374794813,0.0,0.0,0.0,0.0
2025/07/05/17:45:04.660862,7747,1751712304,579147008,map,0.34851998386565414,0.35851613749772016,0.0,0.0,0.0,0.0
2025/07/05/17:45:04.761903,7748,1751712304,579147008,map,0.34851998386565414,0.35851613749772016,0.0,0.0,0.0,0.0
2025/07/05/17:45:04.860900,7749,1751712304,777147008,map,0.27184558741521025,0.2796425872482217,0.0,0.0,0.0,0.0
2025/07/05/17:45:04.982192,7750,1751712304,777147008,map,0.27184558741521025,0.2796425872482217,0.0,0.0,0.0,0.0
2025/07/05/17:45:05.101734,7751,1751712304,977147008,map,0.30669758580177564,0.31549420099799375,0.0,0.0,0.0,0.0
2025/07/05/17:45:05.180750,7752,1751712304,977147008,map,0.30669758580177564,0.31549420099799375,0.0,0.0,0.0,0.0
2025/07/05/17:45:05.301897,7753,1751712305,177147008,map,0.32760878483371486,0.33700516924785695,0.0,0.0,0.0,0.0
2025/07/05/17:45:05.425040,7754,1751712305,377147008,map,0.44747786192513045,0.3690034730011546,0.0,0.0,0.0,0.0
2025/07/05/17:45:05.602885,7755,1751712305,577147008,map,0.2854600153660315,0.23539876725935724,0.0,0.0,0.0,0.0
2025/07/05/17:45:05.701988,7756,1751712305,577147008,map,0.2854600153660315,0.23539876725935724,0.0,0.0,0.0,0.0
2025/07/05/17:45:05.802430,7757,1751712305,777147008,map,0.6596532039185825,0.31266219880239593,0.0,0.0,0.0,0.0
2025/07/05/17:45:05.881499,7758,1751712305,777147008,map,0.6596532039185825,0.31266219880239593,0.0,0.0,0.0,0.0
2025/07/05/17:45:06.003258,7759,1751712305,977147008,map,0.4156718819212986,0.19702001568370156,0.0,0.0,0.0,0.0
2025/07/05/17:45:06.080776,7760,1751712305,977147008,map,0.4156718819212986,0.19702001568370156,0.0,0.0,0.0,0.0
2025/07/05/17:45:06.181543,7761,1751712305,977147008,map,0.4156718819212986,0.19702001568370156,0.0,0.0,0.0,0.0
2025/07/05/17:45:06.260562,7762,1751712306,177147008,map,0.31627208407055324,0.1499065336723816,0.0,0.0,0.0,0.0
2025/07/05/17:45:06.361216,7763,1751712306,177147008,map,0.31627208407055324,0.1499065336723816,0.0,0.0,0.0,0.0
2025/07/05/17:45:06.542267,7764,1751712306,377147008,map,0.5239177215069231,0.19776304278351467,0.0,0.0,0.0,0.0
2025/07/05/17:45:06.602628,7765,1751712306,577147008,map,0.3087372287451511,0.11653893592599972,0.0,0.0,0.0,0.0
2025/07/05/17:45:06.685099,7766,1751712306,577147008,map,0.3087372287451511,0.11653893592599972,0.0,0.0,0.0,0.0
2025/07/05/17:45:06.802223,7767,1751712306,777147008,map,0.39293829113019224,0.14832228208763598,0.0,0.0,0.0,0.0
2025/07/05/17:45:06.901945,7768,1751712306,777147008,map,0.39293829113019224,0.14832228208763598,0.0,0.0,0.0,0.0
2025/07/05/17:45:06.980930,7769,1751712306,777147008,map,0.39293829113019224,0.14832228208763598,0.0,0.0,0.0,0.0
2025/07/05/17:45:07.101858,7770,1751712306,977147008,map,0.18711347196675823,0.07062965813696952,0.0,0.0,0.0,0.0
2025/07/05/17:45:07.181969,7771,1751712306,977147008,map,0.18711347196675823,0.07062965813696952,0.0,0.0,0.0,0.0
2025/07/05/17:45:07.281265,7772,1751712307,177147008,map,0.6517327285550946,0.15538484652671736,0.0,0.0,0.0,0.0
2025/07/05/17:45:07.402461,7773,1751712307,377147008,map,0.558056804850819,0.191500920519184,0.0,0.0,0.0,0.0
2025/07/05/17:45:07.560704,7774,1751712307,377147008,map,0.558056804850819,0.191500920519184,0.0,0.0,0.0,0.0
2025/07/05/17:45:07.641752,7775,1751712307,577147008,map,0.6325168265873544,0.36444816378171346,0.0,0.0,0.0,0.0
2025/07/05/17:45:07.741559,7776,1751712307,577147008,map,0.6325168265873544,0.36444816378171346,0.0,0.0,0.0,0.0
2025/07/05/17:45:07.842185,7777,1751712307,777147008,map,0.441895317204864,0.2546144705872245,0.0,0.0,0.0,0.0
2025/07/05/17:45:07.941653,7778,1751712307,777147008,map,0.441895317204864,0.2546144705872245,0.0,0.0,0.0,0.0
2025/07/05/17:45:08.042854,7779,1751712307,977147008,map,0.5319266406013221,0.2048268757233577,0.0,0.0,0.0,0.0
2025/07/05/17:45:08.121942,7780,1751712307,977147008,map,0.5319266406013221,0.2048268757233577,0.0,0.0,0.0,0.0
2025/07/05/17:45:08.224079,7781,1751712308,177147008,map,0.5653698306625241,0.27795135289584183,0.0,0.0,0.0,0.0
2025/07/05/17:45:08.301554,7782,1751712308,177147008,map,0.5653698306625241,0.27795135289584183,0.0,0.0,0.0,0.0
2025/07/05/17:45:08.483961,7783,1751712308,377147008,map,0.41074833732536037,0.24836626861241035,0.0,0.0,0.0,0.0
2025/07/05/17:45:08.602280,7784,1751712308,577147008,map,0.5852169944031383,0.3655421582550459,0.0,0.0,0.0,0.0
