time,.header.seq,.header.stamp.secs,.header.stamp.nsecs,.header.frame_id,.fix_type,.lat,.lon,.alt,.eph,.epv,.vel,.cog,.satellites_visible,.alt_ellipsoid,.h_acc,.v_acc,.vel_acc,.hdg_acc,.yaw,.dgps_numch,.dgps_age
2025/07/05/17:44:13.305199,7262,1751712253,173540352,/wgs84,4,-72870829,1127959232,18760,56,86,21,32210,22,36089,1273,1746,513,0,0,255,4294967295
2025/07/05/17:44:13.462795,7263,1751712253,373556736,/wgs84,4,-72870826,1127959230,18780,56,86,17,32210,22,36110,1277,1749,455,0,0,255,4294967295
2025/07/05/17:44:13.582973,7264,1751712253,373564160,/wgs84,4,-72870826,1127959230,18780,56,86,17,32210,22,36110,1277,1749,455,0,0,255,4294967295
2025/07/05/17:44:13.684204,7265,1751712253,573573888,/wgs84,4,-72870822,1127959227,18790,56,86,16,32210,22,36119,1281,1751,473,0,0,255,4294967295
2025/07/05/17:44:13.804053,7266,1751712253,773580032,/wgs84,4,-72870819,1127959223,18830,56,86,19,32210,22,36159,1286,1751,484,0,0,255,4294967295
2025/07/05/17:44:13.882544,7267,1751712253,773580032,/wgs84,4,-72870819,1127959223,18830,56,86,19,32210,22,36159,1286,1751,484,0,0,255,4294967295
2025/07/05/17:44:14.004401,7268,1751712253,973586944,/wgs84,4,-72870817,1127959220,18810,56,86,11,32210,22,36139,1290,1755,432,0,0,255,4294967295
2025/07/05/17:44:14.082511,7269,1751712253,973592576,/wgs84,4,-72870817,1127959220,18810,56,86,11,32210,22,36139,1290,1755,432,0,0,255,4294967295
2025/07/05/17:44:14.182540,7270,1751712253,973597184,/wgs84,4,-72870817,1127959220,18810,56,86,11,32210,22,36139,1290,1755,432,0,0,255,4294967295
2025/07/05/17:44:14.304172,7271,1751712254,173604864,/wgs84,4,-72870814,1127959217,18800,56,86,19,32210,22,36129,1293,1761,409,0,0,255,4294967295
2025/07/05/17:44:14.427652,7272,1751712254,373609728,/wgs84,4,-72870809,1127959215,18770,56,86,21,32210,22,36099,1296,1767,393,0,0,255,4294967295
2025/07/05/17:44:14.583292,7273,1751712254,373623808,/wgs84,4,-72870809,1127959215,18770,56,86,21,32210,22,36099,1296,1767,393,0,0,255,4294967295
2025/07/05/17:44:14.663031,7274,1751712254,573629696,/wgs84,4,-72870805,1127959213,18730,56,86,28,32210,22,36059,1297,1772,372,0,0,255,4294967295
2025/07/05/17:44:14.763072,7275,1751712254,573636352,/wgs84,4,-72870805,1127959213,18730,56,86,28,32210,22,36059,1297,1772,372,0,0,255,4294967295
2025/07/05/17:44:14.863028,7276,1751712254,773642496,/wgs84,4,-72870802,1127959210,18610,56,86,17,32210,22,35939,1288,1761,265,0,0,255,4294967295
2025/07/05/17:44:14.963336,7277,1751712254,773649152,/wgs84,4,-72870802,1127959210,18610,56,86,17,32210,22,35939,1288,1761,265,0,0,255,4294967295
2025/07/05/17:44:15.062678,7278,1751712254,973655296,/wgs84,4,-72870797,1127959208,18570,56,86,20,32210,22,35899,1282,1760,294,0,0,255,4294967295
2025/07/05/17:44:15.163988,7279,1751712254,973661184,/wgs84,4,-72870797,1127959208,18570,56,86,20,32210,22,35899,1282,1760,294,0,0,255,4294967295
2025/07/05/17:44:15.262491,7280,1751712255,173667328,/wgs84,4,-72870793,1127959205,18540,56,86,21,32210,22,35869,1279,1760,320,0,0,255,4294967295
2025/07/05/17:44:15.362519,7281,1751712255,173673216,/wgs84,4,-72870793,1127959205,18540,56,86,21,32210,22,35869,1279,1760,320,0,0,255,4294967295
2025/07/05/17:44:15.523897,7282,1751712255,373683200,/wgs84,4,-72870788,1127959202,18550,56,86,24,32210,22,35879,1279,1763,348,0,0,255,4294967295
2025/07/05/17:44:15.628272,7283,1751712255,573688320,/wgs84,4,-72870785,1127959200,18540,56,86,21,32210,22,35869,1280,1766,445,0,0,255,4294967295
2025/07/05/17:44:15.702755,7284,1751712255,573696768,/wgs84,4,-72870785,1127959200,18540,56,86,21,32210,22,35869,1280,1766,445,0,0,255,4294967295
2025/07/05/17:44:15.803752,7285,1751712255,773704960,/wgs84,4,-72870782,1127959198,18490,56,86,18,32210,22,35819,1278,1765,316,0,0,255,4294967295
2025/07/05/17:44:15.923342,7286,1751712255,773712640,/wgs84,4,-72870782,1127959198,18490,56,86,18,32210,22,35819,1278,1765,316,0,0,255,4294967295
2025/07/05/17:44:16.026009,7287,1751712255,973718272,/wgs84,4,-72870778,1127959197,18440,56,86,26,32210,22,35769,1273,1755,301,0,0,255,4294967295
2025/07/05/17:44:16.103275,7288,1751712255,973725440,/wgs84,4,-72870778,1127959197,18440,56,86,26,32210,22,35769,1273,1755,301,0,0,255,4294967295
2025/07/05/17:44:16.205690,7289,1751712256,173732864,/wgs84,4,-72870774,1127959197,18420,56,86,23,32210,22,35749,1268,1745,347,0,0,255,4294967295
2025/07/05/17:44:16.282637,7290,1751712256,173740544,/wgs84,4,-72870774,1127959197,18420,56,86,23,32210,22,35749,1268,1745,347,0,0,255,4294967295
2025/07/05/17:44:16.404767,7291,1751712256,173746688,/wgs84,4,-72870774,1127959197,18420,56,86,23,32210,22,35749,1268,1745,347,0,0,255,4294967295
2025/07/05/17:44:16.562721,7292,1751712256,373759744,/wgs84,4,-72870771,1127959198,18400,56,86,28,32210,22,35729,1266,1745,354,0,0,255,4294967295
2025/07/05/17:44:16.643487,7293,1751712256,573759744,/wgs84,4,-72870765,1127959196,18390,57,89,38,32210,21,35719,1265,1746,385,0,0,255,4294967295
2025/07/05/17:44:16.723855,7294,1751712256,573767680,/wgs84,4,-72870765,1127959196,18390,57,89,38,32210,21,35719,1265,1746,385,0,0,255,4294967295
2025/07/05/17:44:16.827851,7295,1751712256,773775872,/wgs84,4,-72870759,1127959195,18390,57,89,28,32210,21,35719,1263,1746,300,0,0,255,4294967295
2025/07/05/17:44:16.922904,7296,1751712256,773782528,/wgs84,4,-72870759,1127959195,18390,57,89,28,32210,21,35719,1263,1746,300,0,0,255,4294967295
2025/07/05/17:44:17.044680,7297,1751712256,973787904,/wgs84,4,-72870754,1127959195,18340,57,89,39,32210,21,35669,1263,1746,358,0,0,255,4294967295
2025/07/05/17:44:17.143957,7298,1751712256,973794048,/wgs84,4,-72870754,1127959195,18340,57,89,39,32210,21,35669,1263,1746,358,0,0,255,4294967295
2025/07/05/17:44:17.225963,7299,1751712257,173801728,/wgs84,4,-72870745,1127959193,18360,57,89,65,33283,21,35689,1263,1742,394,0,0,255,4294967295
2025/07/05/17:44:17.303015,7300,1751712257,173808896,/wgs84,4,-72870745,1127959193,18360,57,89,65,33283,21,35689,1263,1742,394,0,0,255,4294967295
2025/07/05/17:44:17.483297,7301,1751712257,373819904,/wgs84,4,-72870736,1127959192,18360,57,89,56,33776,21,35689,1263,1740,387,0,0,255,4294967295
2025/07/05/17:44:17.604695,7302,1751712257,573826816,/wgs84,4,-72870726,1127959189,18380,57,89,64,33164,21,35709,1262,1743,385,0,0,255,4294967295
2025/07/05/17:44:17.704316,7303,1751712257,573833728,/wgs84,4,-72870726,1127959189,18380,57,89,64,33164,21,35709,1262,1743,385,0,0,255,4294967295
2025/07/05/17:44:17.783021,7304,1751712257,573841920,/wgs84,4,-72870726,1127959189,18380,57,89,64,33164,21,35709,1262,1743,385,0,0,255,4294967295
2025/07/05/17:44:17.904171,7305,1751712257,773847808,/wgs84,4,-72870716,1127959187,18400,56,86,76,34677,22,35729,1261,1744,366,0,0,255,4294967295
2025/07/05/17:44:18.004683,7306,1751712257,973852928,/wgs84,4,-72870709,1127959186,18330,56,86,43,33636,22,35659,1257,1743,400,0,0,255,4294967295
2025/07/05/17:44:18.084209,7307,1751712257,973858048,/wgs84,4,-72870709,1127959186,18330,56,86,43,33636,22,35659,1257,1743,400,0,0,255,4294967295
2025/07/05/17:44:18.183641,7308,1751712257,973863936,/wgs84,4,-72870709,1127959186,18330,56,86,43,33636,22,35659,1257,1743,400,0,0,255,4294967295
2025/07/05/17:44:18.263237,7309,1751712258,173870592,/wgs84,4,-72870701,1127959183,18330,56,86,63,33765,22,35659,1256,1746,377,0,0,255,4294967295
2025/07/05/17:44:18.362387,7310,1751712258,173876224,/wgs84,4,-72870701,1127959183,18330,56,86,63,33765,22,35659,1256,1746,377,0,0,255,4294967295
2025/07/05/17:44:18.542887,7311,1751712258,373883904,/wgs84,4,-72870692,1127959181,18340,56,86,51,33971,22,35669,1256,1748,348,0,0,255,4294967295
2025/07/05/17:44:18.641616,7312,1751712258,573889792,/wgs84,4,-72870684,1127959181,18320,56,86,46,33971,22,35649,1257,1750,353,0,0,255,4294967295
2025/07/05/17:44:18.723875,7313,1751712258,573897984,/wgs84,4,-72870684,1127959181,18320,56,86,46,33971,22,35649,1257,1750,353,0,0,255,4294967295
2025/07/05/17:44:18.806852,7314,1751712258,773904384,/wgs84,4,-72870676,1127959181,18300,56,86,43,34119,22,35630,1257,1754,376,0,0,255,4294967295
2025/07/05/17:44:18.904163,7315,1751712258,773910272,/wgs84,4,-72870676,1127959181,18300,56,86,43,34119,22,35630,1257,1754,376,0,0,255,4294967295
2025/07/05/17:44:19.006042,7316,1751712258,973916672,/wgs84,4,-72870668,1127959179,18280,56,86,50,34957,22,35609,1255,1756,357,0,0,255,4294967295
2025/07/05/17:44:19.103073,7317,1751712258,973922048,/wgs84,4,-72870668,1127959179,18280,56,86,50,34957,22,35609,1255,1756,357,0,0,255,4294967295
2025/07/05/17:44:19.205239,7318,1751712259,173930752,/wgs84,4,-72870661,1127959180,18240,56,86,38,35082,22,35569,1249,1756,327,0,0,255,4294967295
2025/07/05/17:44:19.283148,7319,1751712259,173937920,/wgs84,4,-72870661,1127959180,18240,56,86,38,35082,22,35569,1249,1756,327,0,0,255,4294967295
2025/07/05/17:44:19.406172,7320,1751712259,375944320,/wgs84,4,-72870653,1127959180,18210,57,89,47,35215,21,35539,1246,1759,345,0,0,255,4294967295
2025/07/05/17:44:19.582367,7321,1751712259,375957888,/wgs84,4,-72870653,1127959180,18210,57,89,47,35215,21,35539,1246,1759,345,0,0,255,4294967295
2025/07/05/17:44:19.662767,7322,1751712259,575963520,/wgs84,4,-72870644,1127959181,18200,57,89,42,35343,21,35529,1242,1760,293,0,0,255,4294967295
2025/07/05/17:44:19.762391,7323,1751712259,575968640,/wgs84,4,-72870644,1127959181,18200,57,89,42,35343,21,35529,1242,1760,293,0,0,255,4294967295
2025/07/05/17:44:19.863447,7324,1751712259,775974272,/wgs84,4,-72870639,1127959183,18170,57,89,28,35343,21,35499,1234,1757,292,0,0,255,4294967295
2025/07/05/17:44:20.004735,7325,1751712259,975982976,/wgs84,4,-72870633,1127959185,18190,57,89,49,35481,21,35519,1226,1754,291,0,0,255,4294967295
2025/07/05/17:44:20.103962,7326,1751712259,975991936,/wgs84,4,-72870633,1127959185,18190,57,89,49,35481,21,35519,1226,1754,291,0,0,255,4294967295
2025/07/05/17:44:20.205148,7327,1751712260,176000384,/wgs84,4,-72870628,1127959185,18160,56,86,29,35326,22,35489,1214,1751,300,0,0,255,4294967295
2025/07/05/17:44:20.283325,7328,1751712260,176009088,/wgs84,4,-72870628,1127959185,18160,56,86,29,35326,22,35489,1214,1751,300,0,0,255,4294967295
2025/07/05/17:44:20.424872,7329,1751712260,376014976,/wgs84,4,-72870622,1127959186,18160,56,86,40,35719,22,35489,1208,1755,330,0,0,255,4294967295
2025/07/05/17:44:20.583252,7330,1751712260,376028800,/wgs84,4,-72870622,1127959186,18160,56,86,40,35719,22,35489,1208,1755,330,0,0,255,4294967295
2025/07/05/17:44:20.703919,7331,1751712260,575037248,/wgs84,4,-72870616,1127959187,18140,56,86,37,35392,22,35469,1205,1762,359,0,0,255,4294967295
2025/07/05/17:44:20.783382,7332,1751712260,575043136,/wgs84,4,-72870616,1127959187,18140,56,86,37,35392,22,35469,1205,1762,359,0,0,255,4294967295
2025/07/05/17:44:20.904203,7333,1751712260,775051072,/wgs84,4,-72870612,1127959190,18130,56,86,30,35392,22,35459,1200,1769,327,0,0,255,4294967295
2025/07/05/17:44:21.004691,7334,1751712260,975057216,/wgs84,4,-72870607,1127959191,18120,56,86,40,35129,22,35449,1195,1776,331,0,0,255,4294967295
2025/07/05/17:44:21.083511,7335,1751712260,975062592,/wgs84,4,-72870607,1127959191,18120,56,86,40,35129,22,35449,1195,1776,331,0,0,255,4294967295
2025/07/05/17:44:21.205678,7336,1751712261,175068736,/wgs84,4,-72870601,1127959192,18170,56,86,29,35129,22,35500,1194,1784,371,0,0,255,4294967295
2025/07/05/17:44:21.303941,7337,1751712261,175074880,/wgs84,4,-72870601,1127959192,18170,56,86,29,35129,22,35500,1194,1784,371,0,0,255,4294967295
2025/07/05/17:44:21.382425,7338,1751712261,175081280,/wgs84,4,-72870601,1127959192,18170,56,86,29,35129,22,35500,1194,1784,371,0,0,255,4294967295
2025/07/05/17:44:21.562997,7339,1751712261,375097664,/wgs84,4,-72870596,1127959193,18200,57,89,37,35073,21,35529,1193,1788,380,0,0,255,4294967295
2025/07/05/17:44:21.663716,7340,1751712261,575103808,/wgs84,4,-72870590,1127959195,18170,57,89,28,35073,21,35499,1192,1792,346,0,0,255,4294967295
2025/07/05/17:44:21.742380,7341,1751712261,575103808,/wgs84,4,-72870590,1127959195,18170,57,89,28,35073,21,35499,1192,1792,346,0,0,255,4294967295
2025/07/05/17:44:21.843139,7342,1751712261,775109952,/wgs84,4,-72870584,1127959198,18190,57,89,36,35073,21,35519,1190,1796,364,0,0,255,4294967295
2025/07/05/17:44:21.962435,7343,1751712261,775121472,/wgs84,4,-72870584,1127959198,18190,57,89,36,35073,21,35519,1190,1796,364,0,0,255,4294967295
2025/07/05/17:44:22.062946,7344,1751712261,975128128,/wgs84,4,-72870578,1127959200,18250,56,86,22,35073,22,35579,1188,1798,283,0,0,255,4294967295
2025/07/05/17:44:22.162453,7345,1751712261,975134272,/wgs84,4,-72870578,1127959200,18250,56,86,22,35073,22,35579,1188,1798,283,0,0,255,4294967295
2025/07/05/17:44:22.263818,7346,1751712262,175140672,/wgs84,4,-72870574,1127959207,18300,56,86,32,35073,22,35629,1183,1798,329,0,0,255,4294967295
2025/07/05/17:44:22.404974,7347,1751712262,375146560,/wgs84,4,-72870568,1127959213,18280,56,86,31,35073,22,35609,1181,1799,354,0,0,255,4294967295
2025/07/05/17:44:22.545325,7348,1751712262,375153472,/wgs84,4,-72870568,1127959213,18280,56,86,31,35073,22,35609,1181,1799,354,0,0,255,4294967295
2025/07/05/17:44:22.644019,7349,1751712262,575159616,/wgs84,4,-72870563,1127959216,18300,56,86,27,35073,22,35629,1179,1799,333,0,0,255,4294967295
2025/07/05/17:44:22.722982,7350,1751712262,575166016,/wgs84,4,-72870563,1127959216,18300,56,86,27,35073,22,35629,1179,1799,333,0,0,255,4294967295
2025/07/05/17:44:22.805916,7351,1751712262,775172416,/wgs84,4,-72870560,1127959218,18380,56,86,14,35073,22,35709,1177,1791,307,0,0,255,4294967295
2025/07/05/17:44:22.881920,7352,1751712262,775177536,/wgs84,4,-72870560,1127959218,18380,56,86,14,35073,22,35709,1177,1791,307,0,0,255,4294967295
2025/07/05/17:44:23.004826,7353,1751712262,975184448,/wgs84,4,-72870557,1127959221,18370,56,86,29,35073,22,35699,1173,1788,323,0,0,255,4294967295
2025/07/05/17:44:23.082690,7354,1751712262,975191872,/wgs84,4,-72870557,1127959221,18370,56,86,29,35073,22,35699,1173,1788,323,0,0,255,4294967295
2025/07/05/17:44:23.182652,7355,1751712262,975197760,/wgs84,4,-72870557,1127959221,18370,56,86,29,35073,22,35699,1173,1788,323,0,0,255,4294967295
2025/07/05/17:44:23.303478,7356,1751712263,175203904,/wgs84,4,-72870555,1127959225,18330,56,86,22,35073,22,35660,1161,1780,249,0,0,255,4294967295
2025/07/05/17:44:23.426430,7357,1751712263,375208512,/wgs84,4,-72870550,1127959227,18340,56,86,37,35701,22,35669,1155,1781,333,0,0,255,4294967295
2025/07/05/17:44:23.562759,7358,1751712263,375220032,/wgs84,4,-72870550,1127959227,18340,56,86,37,35701,22,35669,1155,1781,333,0,0,255,4294967295
2025/07/05/17:44:23.662601,7359,1751712263,575225152,/wgs84,4,-72870543,1127959228,18360,56,86,37,35701,22,35689,1156,1787,390,0,0,255,4294967295
2025/07/05/17:44:23.762756,7360,1751712263,575230528,/wgs84,4,-72870543,1127959228,18360,56,86,37,35701,22,35689,1156,1787,390,0,0,255,4294967295
2025/07/05/17:44:23.842140,7361,1751712263,775230528,/wgs84,4,-72870537,1127959229,18360,56,86,30,35701,22,35690,1157,1787,400,0,0,255,4294967295
2025/07/05/17:44:23.943368,7362,1751712263,775236160,/wgs84,4,-72870537,1127959229,18360,56,86,30,35701,22,35690,1157,1787,400,0,0,255,4294967295
2025/07/05/17:44:24.041798,7363,1751712263,975243072,/wgs84,4,-72870532,1127959232,18380,56,86,32,35701,22,35709,1158,1786,362,0,0,255,4294967295
2025/07/05/17:44:24.123085,7364,1751712263,975249216,/wgs84,4,-72870532,1127959232,18380,56,86,32,35701,22,35709,1158,1786,362,0,0,255,4294967295
2025/07/05/17:44:24.226497,7365,1751712264,175255872,/wgs84,4,-72870526,1127959235,18380,56,86,34,35701,22,35709,1161,1786,425,0,0,255,4294967295
2025/07/05/17:44:24.310519,7366,1751712264,175263040,/wgs84,4,-72870526,1127959235,18380,56,86,34,35701,22,35709,1161,1786,425,0,0,255,4294967295
2025/07/05/17:44:24.445544,7367,1751712264,375270464,/wgs84,4,-72870521,1127959238,18460,56,86,22,35701,22,35790,1164,1778,380,0,0,255,4294967295
2025/07/05/17:44:24.604405,7368,1751712264,575285312,/wgs84,4,-72870517,1127959240,18480,56,86,23,35701,22,35809,1166,1777,347,0,0,255,4294967295
2025/07/05/17:44:24.683886,7369,1751712264,575290432,/wgs84,4,-72870517,1127959240,18480,56,86,23,35701,22,35809,1166,1777,347,0,0,255,4294967295
2025/07/05/17:44:24.804632,7370,1751712264,775296832,/wgs84,4,-72870511,1127959243,18520,56,86,30,35701,22,35850,1167,1782,361,0,0,255,4294967295
2025/07/05/17:44:24.904577,7371,1751712264,775303232,/wgs84,4,-72870511,1127959243,18520,56,86,30,35701,22,35850,1167,1782,361,0,0,255,4294967295
2025/07/05/17:44:25.025934,7372,1751712264,975310144,/wgs84,4,-72870506,1127959246,18560,56,86,28,35701,22,35889,1170,1789,332,0,0,255,4294967295
2025/07/05/17:44:25.107872,7373,1751712264,975316800,/wgs84,4,-72870506,1127959246,18560,56,86,28,35701,22,35889,1170,1789,332,0,0,255,4294967295
2025/07/05/17:44:25.204875,7374,1751712265,175324736,/wgs84,4,-72870503,1127959248,18590,56,86,16,35701,22,35919,1172,1790,307,0,0,255,4294967295
2025/07/05/17:44:25.281802,7375,1751712265,175329600,/wgs84,4,-72870503,1127959248,18590,56,86,16,35701,22,35919,1172,1790,307,0,0,255,4294967295
2025/07/05/17:44:25.404978,7376,1751712265,375335232,/wgs84,4,-72870499,1127959250,18690,56,86,27,35701,22,36019,1174,1785,389,0,0,255,4294967295
2025/07/05/17:44:25.562198,7377,1751712265,375347264,/wgs84,4,-72870499,1127959250,18690,56,86,27,35701,22,36019,1174,1785,389,0,0,255,4294967295
2025/07/05/17:44:25.662875,7378,1751712265,575353408,/wgs84,4,-72870495,1127959252,18810,56,86,15,35701,22,36139,1177,1776,299,0,0,255,4294967295
2025/07/05/17:44:25.762334,7379,1751712265,575358016,/wgs84,4,-72870495,1127959252,18810,56,86,15,35701,22,36139,1177,1776,299,0,0,255,4294967295
2025/07/05/17:44:25.862847,7380,1751712265,775363648,/wgs84,4,-72870492,1127959254,18880,56,86,24,35701,22,36210,1179,1771,324,0,0,255,4294967295
2025/07/05/17:44:25.943748,7381,1751712265,775363648,/wgs84,4,-72870492,1127959254,18880,56,86,24,35701,22,36210,1179,1771,324,0,0,255,4294967295
2025/07/05/17:44:26.062334,7382,1751712265,975374144,/wgs84,4,-72870488,1127959256,18940,56,86,24,35701,22,36270,1182,1773,379,0,0,255,4294967295
2025/07/05/17:44:26.162290,7383,1751712265,975379008,/wgs84,4,-72870488,1127959256,18940,56,86,24,35701,22,36270,1182,1773,379,0,0,255,4294967295
2025/07/05/17:44:26.263108,7384,1751712266,175384896,/wgs84,4,-72870484,1127959258,18990,56,86,23,35701,22,36319,1185,1776,321,0,0,255,4294967295
2025/07/05/17:44:26.362205,7385,1751712266,175389504,/wgs84,4,-72870484,1127959258,18990,56,86,23,35701,22,36319,1185,1776,321,0,0,255,4294967295
2025/07/05/17:44:26.522994,7386,1751712266,375394880,/wgs84,4,-72870480,1127959261,19030,56,86,30,35701,22,36359,1189,1784,355,0,0,255,4294967295
2025/07/05/17:44:26.604449,7387,1751712266,575399744,/wgs84,4,-72870477,1127959264,19080,56,86,13,35701,22,36409,1192,1792,335,0,0,255,4294967295
2025/07/05/17:44:26.682880,7388,1751712266,575405120,/wgs84,4,-72870477,1127959264,19080,56,86,13,35701,22,36409,1192,1792,335,0,0,255,4294967295
2025/07/05/17:44:26.782637,7389,1751712266,575413312,/wgs84,4,-72870477,1127959264,19080,56,86,13,35701,22,36409,1192,1792,335,0,0,255,4294967295
2025/07/05/17:44:26.903767,7390,1751712266,775421504,/wgs84,4,-72870474,1127959267,19110,56,86,27,35701,22,36439,1196,1798,384,0,0,255,4294967295
2025/07/05/17:44:27.004454,7391,1751712266,975427392,/wgs84,4,-72870470,1127959269,19140,56,86,17,35701,22,36469,1198,1801,340,0,0,255,4294967295
2025/07/05/17:44:27.084211,7392,1751712266,975433024,/wgs84,4,-72870470,1127959269,19140,56,86,17,35701,22,36469,1198,1801,340,0,0,255,4294967295
2025/07/05/17:44:27.183126,7393,1751712266,975433024,/wgs84,4,-72870470,1127959269,19140,56,86,17,35701,22,36469,1198,1801,340,0,0,255,4294967295
2025/07/05/17:44:27.303544,7394,1751712267,175439680,/wgs84,4,-72870468,1127959270,19170,56,86,15,35701,22,36499,1199,1807,388,0,0,255,4294967295
2025/07/05/17:44:27.382842,7395,1751712267,175445824,/wgs84,4,-72870468,1127959270,19170,56,86,15,35701,22,36499,1199,1807,388,0,0,255,4294967295
2025/07/05/17:44:27.562385,7396,1751712267,375458880,/wgs84,4,-72870465,1127959272,19220,56,86,25,35701,22,36549,1201,1814,349,0,0,255,4294967295
2025/07/05/17:44:27.662753,7397,1751712267,575464000,/wgs84,4,-72870462,1127959276,19250,56,86,20,35701,22,36580,1203,1822,316,0,0,255,4294967295
2025/07/05/17:44:27.785327,7398,1751712267,575470656,/wgs84,4,-72870462,1127959276,19250,56,86,20,35701,22,36580,1203,1822,316,0,0,255,4294967295
2025/07/05/17:44:27.903909,7399,1751712267,775476544,/wgs84,4,-72870460,1127959277,19310,56,86,17,35701,22,36639,1206,1827,411,0,0,255,4294967295
2025/07/05/17:44:27.983306,7400,1751712267,775482688,/wgs84,4,-72870460,1127959277,19310,56,86,17,35701,22,36639,1206,1827,411,0,0,255,4294967295
2025/07/05/17:44:28.102923,7401,1751712267,975488832,/wgs84,4,-72870457,1127959277,19370,56,86,23,35701,22,36699,1209,1831,401,0,0,255,4294967295
2025/07/05/17:44:28.204535,7402,1751712268,175488832,/wgs84,4,-72870455,1127959278,19420,56,86,17,35701,22,36749,1211,1832,290,0,0,255,4294967295
2025/07/05/17:44:28.282612,7403,1751712268,175493440,/wgs84,4,-72870455,1127959278,19420,56,86,17,35701,22,36749,1211,1832,290,0,0,255,4294967295
2025/07/05/17:44:28.404861,7404,1751712268,375498816,/wgs84,4,-72870453,1127959279,19520,56,86,14,35701,22,36849,1212,1828,371,0,0,255,4294967295
2025/07/05/17:44:28.582479,7405,1751712268,375507008,/wgs84,4,-72870453,1127959279,19520,56,86,14,35701,22,36849,1212,1828,371,0,0,255,4294967295
2025/07/05/17:44:28.683093,7406,1751712268,575507008,/wgs84,4,-72870452,1127959278,19630,56,86,13,35701,22,36959,1212,1821,315,0,0,255,4294967295
2025/07/05/17:44:28.804066,7407,1751712268,775507008,/wgs84,4,-72870450,1127959279,19770,56,86,13,35701,22,37099,1212,1814,284,0,0,255,4294967295
2025/07/05/17:44:28.882056,7408,1751712268,775512384,/wgs84,4,-72870450,1127959279,19770,56,86,13,35701,22,37099,1212,1814,284,0,0,255,4294967295
2025/07/05/17:44:28.983619,7409,1751712268,775519040,/wgs84,4,-72870450,1127959279,19770,56,86,13,35701,22,37099,1212,1814,284,0,0,255,4294967295
2025/07/05/17:44:29.062539,7410,1751712268,975524160,/wgs84,4,-72870448,1127959280,19800,56,86,17,35701,22,37130,1211,1809,253,0,0,255,4294967295
2025/07/05/17:44:29.162345,7411,1751712268,975524160,/wgs84,4,-72870448,1127959280,19800,56,86,17,35701,22,37130,1211,1809,253,0,0,255,4294967295
2025/07/05/17:44:29.262591,7412,1751712269,175529024,/wgs84,4,-72870447,1127959283,19840,56,86,12,35701,22,37170,1210,1809,266,0,0,255,4294967295
2025/07/05/17:44:29.362127,7413,1751712269,175533632,/wgs84,4,-72870447,1127959283,19840,56,86,12,35701,22,37170,1210,1809,266,0,0,255,4294967295
2025/07/05/17:44:29.542659,7414,1751712269,375539776,/wgs84,4,-72870444,1127959284,19840,56,86,16,35701,22,37169,1209,1813,264,0,0,255,4294967295
2025/07/05/17:44:29.644816,7415,1751712269,575545664,/wgs84,4,-72870442,1127959286,19840,56,86,13,35701,22,37169,1208,1817,343,0,0,255,4294967295
2025/07/05/17:44:29.722730,7416,1751712269,575552320,/wgs84,4,-72870442,1127959286,19840,56,86,13,35701,22,37169,1208,1817,343,0,0,255,4294967295
2025/07/05/17:44:29.804266,7417,1751712269,775557184,/wgs84,4,-72870439,1127959287,19850,59,92,21,35701,21,37179,1208,1822,327,0,0,255,4294967295
2025/07/05/17:44:29.905354,7418,1751712269,775557184,/wgs84,4,-72870439,1127959287,19850,59,92,21,35701,21,37179,1208,1822,327,0,0,255,4294967295
2025/07/05/17:44:30.004344,7419,1751712269,975563072,/wgs84,4,-72870436,1127959289,19890,59,92,11,35701,21,37219,1210,1830,299,0,0,255,4294967295
2025/07/05/17:44:30.082225,7420,1751712269,975568192,/wgs84,4,-72870436,1127959289,19890,59,92,11,35701,21,37219,1210,1830,299,0,0,255,4294967295
2025/07/05/17:44:30.205353,7421,1751712270,175568192,/wgs84,4,-72870434,1127959290,19990,60,97,11,35701,20,37319,1211,1837,302,0,0,255,4294967295
2025/07/05/17:44:30.304633,7422,1751712270,175568192,/wgs84,4,-72870434,1127959290,19990,60,97,11,35701,20,37319,1211,1837,302,0,0,255,4294967295
2025/07/05/17:44:30.383415,7423,1751712270,175573312,/wgs84,4,-72870434,1127959290,19990,60,97,11,35701,20,37319,1211,1837,302,0,0,255,4294967295
2025/07/05/17:44:30.542426,7424,1751712270,375580480,/wgs84,4,-72870433,1127959291,20060,60,97,11,35701,20,37389,1212,1842,344,0,0,255,4294967295
2025/07/05/17:44:30.645188,7425,1751712270,575587392,/wgs84,4,-72870431,1127959294,20050,59,92,14,35701,21,37380,1214,1849,274,0,0,255,4294967295
2025/07/05/17:44:30.742961,7426,1751712270,575594304,/wgs84,4,-72870431,1127959294,20050,59,92,14,35701,21,37380,1214,1849,274,0,0,255,4294967295
2025/07/05/17:44:30.845239,7427,1751712270,775600704,/wgs84,4,-72870427,1127959295,20120,59,92,20,35701,21,37450,1216,1851,303,0,0,255,4294967295
2025/07/05/17:44:30.963030,7428,1751712270,775613504,/wgs84,4,-72870427,1127959295,20120,59,92,20,35701,21,37450,1216,1851,303,0,0,255,4294967295
2025/07/05/17:44:31.063057,7429,1751712270,975613504,/wgs84,4,-72870424,1127959297,20160,59,92,14,35701,21,37489,1218,1850,340,0,0,255,4294967295
2025/07/05/17:44:31.162381,7430,1751712270,975618112,/wgs84,4,-72870424,1127959297,20160,59,92,14,35701,21,37489,1218,1850,340,0,0,255,4294967295
2025/07/05/17:44:31.266181,7431,1751712271,175622976,/wgs84,4,-72870422,1127959298,20270,59,92,13,35701,21,37600,1218,1845,263,0,0,255,4294967295
2025/07/05/17:44:31.363213,7432,1751712271,175628352,/wgs84,4,-72870422,1127959298,20270,59,92,13,35701,21,37600,1218,1845,263,0,0,255,4294967295
2025/07/05/17:44:31.523335,7433,1751712271,375633728,/wgs84,4,-72870423,1127959300,20320,59,92,13,35701,21,37649,1217,1839,288,0,0,255,4294967295
2025/07/05/17:44:31.625440,7434,1751712271,575639872,/wgs84,4,-72870424,1127959301,20390,59,92,8,35701,21,37719,1216,1831,312,0,0,255,4294967295
2025/07/05/17:44:31.704145,7435,1751712271,575639872,/wgs84,4,-72870424,1127959301,20390,59,92,8,35701,21,37719,1216,1831,312,0,0,255,4294967295
2025/07/05/17:44:31.804600,7436,1751712271,775639872,/wgs84,4,-72870425,1127959304,20490,59,92,10,35701,21,37819,1213,1821,235,0,0,255,4294967295
2025/07/05/17:44:31.882018,7437,1751712271,775639872,/wgs84,4,-72870425,1127959304,20490,59,92,10,35701,21,37819,1213,1821,235,0,0,255,4294967295
2025/07/05/17:44:32.003050,7438,1751712271,775646528,/wgs84,4,-72870425,1127959304,20490,59,92,10,35701,21,37819,1213,1821,235,0,0,255,4294967295
2025/07/05/17:44:32.082153,7439,1751712271,975651648,/wgs84,4,-72870425,1127959306,20530,59,92,10,35701,21,37859,1209,1814,272,0,0,255,4294967295
2025/07/05/17:44:32.181474,7440,1751712271,975655488,/wgs84,4,-72870425,1127959306,20530,59,92,10,35701,21,37859,1209,1814,272,0,0,255,4294967295
2025/07/05/17:44:32.302582,7441,1751712272,175661120,/wgs84,4,-72870423,1127959307,20590,59,92,14,35701,21,37919,1203,1806,325,0,0,255,4294967295
2025/07/05/17:44:32.423378,7442,1751712272,375666496,/wgs84,4,-72870423,1127959308,20720,59,92,8,35701,21,38049,1196,1789,232,0,0,255,4294967295
2025/07/05/17:44:32.604146,7443,1751712272,575679296,/wgs84,4,-72870424,1127959310,20790,59,92,7,35701,21,38119,1182,1766,195,0,0,255,4294967295
2025/07/05/17:44:32.703467,7444,1751712272,575679296,/wgs84,4,-72870424,1127959310,20790,59,92,7,35701,21,38119,1182,1766,195,0,0,255,4294967295
2025/07/05/17:44:32.805258,7445,1751712272,775683136,/wgs84,4,-72870425,1127959314,20850,59,92,9,35701,21,38179,1167,1746,225,0,0,255,4294967295
2025/07/05/17:44:32.902592,7446,1751712272,775683136,/wgs84,4,-72870425,1127959314,20850,59,92,9,35701,21,38179,1167,1746,225,0,0,255,4294967295
2025/07/05/17:44:33.004409,7447,1751712272,975687488,/wgs84,4,-72870428,1127959318,20870,56,86,6,35701,22,38200,1154,1730,206,0,0,255,4294967295
2025/07/05/17:44:33.081779,7448,1751712272,975692096,/wgs84,4,-72870428,1127959318,20870,56,86,6,35701,22,38200,1154,1730,206,0,0,255,4294967295
2025/07/05/17:44:33.182226,7449,1751712272,975692096,/wgs84,4,-72870428,1127959318,20870,56,86,6,35701,22,38200,1154,1730,206,0,0,255,4294967295
2025/07/05/17:44:33.262103,7450,1751712273,175696960,/wgs84,4,-72870431,1127959320,20880,56,86,6,35701,22,38209,1142,1716,214,0,0,255,4294967295
2025/07/05/17:44:33.362341,7451,1751712273,175701824,/wgs84,4,-72870431,1127959320,20880,56,86,6,35701,22,38209,1142,1716,214,0,0,255,4294967295
2025/07/05/17:44:33.522969,7452,1751712273,375706944,/wgs84,4,-72870432,1127959323,20910,56,86,8,35701,22,38239,1134,1705,240,0,0,255,4294967295
2025/07/05/17:44:33.625259,7453,1751712273,575712320,/wgs84,4,-72870433,1127959325,20950,56,86,5,35701,22,38279,1129,1696,253,0,0,255,4294967295
2025/07/05/17:44:33.723162,7454,1751712273,575712320,/wgs84,4,-72870433,1127959325,20950,56,86,5,35701,22,38279,1129,1696,253,0,0,255,4294967295
2025/07/05/17:44:33.803997,7455,1751712273,775716928,/wgs84,4,-72870434,1127959327,20960,56,86,6,35701,22,38289,1126,1687,306,0,0,255,4294967295
2025/07/05/17:44:33.903667,7456,1751712273,775716928,/wgs84,4,-72870434,1127959327,20960,56,86,6,35701,22,38289,1126,1687,306,0,0,255,4294967295
2025/07/05/17:44:34.004273,7457,1751712273,975722816,/wgs84,4,-72870435,1127959328,20940,59,92,3,35701,21,38269,1123,1677,332,0,0,255,4294967295
2025/07/05/17:44:34.103190,7458,1751712273,975726912,/wgs84,4,-72870435,1127959328,20940,59,92,3,35701,21,38269,1123,1677,332,0,0,255,4294967295
2025/07/05/17:44:34.182932,7459,1751712273,975726912,/wgs84,4,-72870435,1127959328,20940,59,92,3,35701,21,38269,1123,1677,332,0,0,255,4294967295
2025/07/05/17:44:34.262130,7460,1751712274,175731776,/wgs84,4,-72870435,1127959329,20980,59,92,3,35701,21,38309,1120,1668,296,0,0,255,4294967295
2025/07/05/17:44:34.362968,7461,1751712274,175738176,/wgs84,4,-72870435,1127959329,20980,59,92,3,35701,21,38309,1120,1668,296,0,0,255,4294967295
2025/07/05/17:44:34.523294,7462,1751712274,375744832,/wgs84,4,-72870438,1127959332,20980,56,86,7,35701,22,38309,1117,1659,295,0,0,255,4294967295
2025/07/05/17:44:34.641860,7463,1751712274,575751232,/wgs84,4,-72870440,1127959334,21030,56,86,2,35701,22,38359,1112,1650,261,0,0,255,4294967295
2025/07/05/17:44:34.742091,7464,1751712274,575757376,/wgs84,4,-72870440,1127959334,21030,56,86,2,35701,22,38359,1112,1650,261,0,0,255,4294967295
2025/07/05/17:44:34.861930,7465,1751712274,775768896,/wgs84,4,-72870443,1127959336,21050,56,86,1,35701,22,38379,1108,1643,298,0,0,255,4294967295
2025/07/05/17:44:34.941757,7466,1751712274,775768896,/wgs84,4,-72870443,1127959336,21050,56,86,1,35701,22,38379,1108,1643,298,0,0,255,4294967295
2025/07/05/17:44:35.041857,7467,1751712274,975774528,/wgs84,4,-72870446,1127959338,21100,56,86,4,35701,22,38429,1104,1636,274,0,0,255,4294967295
2025/07/05/17:44:35.122869,7468,1751712274,975779136,/wgs84,4,-72870446,1127959338,21100,56,86,4,35701,22,38429,1104,1636,274,0,0,255,4294967295
2025/07/05/17:44:35.203646,7469,1751712275,175784768,/wgs84,4,-72870450,1127959341,21150,56,86,5,35701,22,38479,1100,1629,246,0,0,255,4294967295
2025/07/05/17:44:35.302865,7470,1751712275,175784768,/wgs84,4,-72870450,1127959341,21150,56,86,5,35701,22,38479,1100,1629,246,0,0,255,4294967295
2025/07/05/17:44:35.425863,7471,1751712275,375788608,/wgs84,4,-72870452,1127959342,21200,56,86,3,35701,22,38530,1096,1622,329,0,0,255,4294967295
2025/07/05/17:44:35.562003,7472,1751712275,375797312,/wgs84,4,-72870452,1127959342,21200,56,86,3,35701,22,38530,1096,1622,329,0,0,255,4294967295
2025/07/05/17:44:35.662633,7473,1751712275,575802432,/wgs84,4,-72870455,1127959344,21290,56,86,5,35701,22,38619,1090,1615,308,0,0,255,4294967295
2025/07/05/17:44:35.762192,7474,1751712275,575807040,/wgs84,4,-72870455,1127959344,21290,56,86,5,35701,22,38619,1090,1615,308,0,0,255,4294967295
2025/07/05/17:44:35.861963,7475,1751712275,775810624,/wgs84,4,-72870459,1127959346,21350,56,86,3,35701,22,38679,1085,1606,225,0,0,255,4294967295
2025/07/05/17:44:35.962078,7476,1751712275,775810624,/wgs84,4,-72870459,1127959346,21350,56,86,3,35701,22,38679,1085,1606,225,0,0,255,4294967295
2025/07/05/17:44:36.061995,7477,1751712275,975815488,/wgs84,4,-72870462,1127959347,21420,56,86,4,35701,22,38750,1079,1597,273,0,0,255,4294967295
2025/07/05/17:44:36.162003,7478,1751712275,975819840,/wgs84,4,-72870462,1127959347,21420,56,86,4,35701,22,38750,1079,1597,273,0,0,255,4294967295
2025/07/05/17:44:36.262211,7479,1751712276,175824704,/wgs84,4,-72870466,1127959348,21450,56,86,0,35701,22,38779,1074,1589,298,0,0,255,4294967295
2025/07/05/17:44:36.362076,7480,1751712276,175829312,/wgs84,4,-72870466,1127959348,21450,56,86,0,35701,22,38779,1074,1589,298,0,0,255,4294967295
2025/07/05/17:44:36.541693,7481,1751712276,375834432,/wgs84,4,-72870469,1127959349,21510,56,86,2,35701,22,38840,1069,1581,294,0,0,255,4294967295
2025/07/05/17:44:36.641489,7482,1751712276,575840064,/wgs84,4,-72870473,1127959351,21560,56,86,5,35701,22,38889,1064,1573,285,0,0,255,4294967295
2025/07/05/17:44:36.722774,7483,1751712276,575845696,/wgs84,4,-72870473,1127959351,21560,56,86,5,35701,22,38889,1064,1573,285,0,0,255,4294967295
2025/07/05/17:44:36.825111,7484,1751712276,775850048,/wgs84,4,-72870476,1127959352,21590,56,86,6,35701,22,38920,1059,1565,286,0,0,255,4294967295
2025/07/05/17:44:36.923206,7485,1751712276,775850048,/wgs84,4,-72870476,1127959352,21590,56,86,6,35701,22,38920,1059,1565,286,0,0,255,4294967295
2025/07/05/17:44:37.041537,7486,1751712276,975854400,/wgs84,4,-72870478,1127959353,21630,56,86,1,35701,22,38960,1055,1557,261,0,0,255,4294967295
2025/07/05/17:44:37.141720,7487,1751712276,975858752,/wgs84,4,-72870478,1127959353,21630,56,86,1,35701,22,38960,1055,1557,261,0,0,255,4294967295
2025/07/05/17:44:37.241418,7488,1751712277,175862592,/wgs84,4,-72870479,1127959354,21680,56,86,0,35701,22,39009,1051,1550,305,0,0,255,4294967295
2025/07/05/17:44:37.322840,7489,1751712277,175867712,/wgs84,4,-72870479,1127959354,21680,56,86,0,35701,22,39009,1051,1550,305,0,0,255,4294967295
2025/07/05/17:44:37.462113,7490,1751712277,375875904,/wgs84,4,-72870480,1127959354,21730,56,86,4,35701,22,39059,1049,1544,277,0,0,255,4294967295
2025/07/05/17:44:37.581882,7491,1751712277,375879744,/wgs84,4,-72870480,1127959354,21730,56,86,4,35701,22,39059,1049,1544,277,0,0,255,4294967295
2025/07/05/17:44:37.662245,7492,1751712277,575884096,/wgs84,4,-72870482,1127959354,21790,56,86,3,35701,22,39119,1047,1540,327,0,0,255,4294967295
2025/07/05/17:44:37.762206,7493,1751712277,575888448,/wgs84,4,-72870482,1127959354,21790,56,86,3,35701,22,39119,1047,1540,327,0,0,255,4294967295
2025/07/05/17:44:37.862015,7494,1751712277,775893312,/wgs84,4,-72870484,1127959355,21840,56,86,4,35701,22,39169,1045,1534,297,0,0,255,4294967295
2025/07/05/17:44:38.003416,7495,1751712277,975898432,/wgs84,4,-72870485,1127959356,21880,56,86,3,35701,22,39209,1043,1529,307,0,0,255,4294967295
2025/07/05/17:44:38.102562,7496,1751712277,975898432,/wgs84,4,-72870485,1127959356,21880,56,86,3,35701,22,39209,1043,1529,307,0,0,255,4294967295
2025/07/05/17:44:38.181886,7497,1751712277,975902528,/wgs84,4,-72870485,1127959356,21880,56,86,3,35701,22,39209,1043,1529,307,0,0,255,4294967295
2025/07/05/17:44:38.303154,7498,1751712278,175906624,/wgs84,4,-72870487,1127959356,21910,56,86,4,35701,22,39239,1041,1523,215,0,0,255,4294967295
2025/07/05/17:44:38.425724,7499,1751712278,375906624,/wgs84,4,-72870488,1127959357,21950,56,86,6,35701,22,39279,1039,1518,292,0,0,255,4294967295
2025/07/05/17:44:38.603445,7500,1751712278,575910464,/wgs84,4,-72870489,1127959358,21990,59,92,1,35701,21,39319,1037,1513,295,0,0,255,4294967295
2025/07/05/17:44:38.682998,7501,1751712278,575910464,/wgs84,4,-72870489,1127959358,21990,59,92,1,35701,21,39319,1037,1513,295,0,0,255,4294967295
2025/07/05/17:44:38.781642,7502,1751712278,575914304,/wgs84,4,-72870489,1127959358,21990,59,92,1,35701,21,39319,1037,1513,295,0,0,255,4294967295
2025/07/05/17:44:38.861894,7503,1751712278,775918912,/wgs84,4,-72870489,1127959359,22010,59,92,3,35701,21,39339,1035,1508,306,0,0,255,4294967295
2025/07/05/17:44:38.962083,7504,1751712278,775923520,/wgs84,4,-72870489,1127959359,22010,59,92,3,35701,21,39339,1035,1508,306,0,0,255,4294967295
2025/07/05/17:44:39.061951,7505,1751712278,975928640,/wgs84,4,-72870489,1127959360,22010,59,92,4,35701,21,39339,1033,1503,215,0,0,255,4294967295
2025/07/05/17:44:39.181612,7506,1751712278,975933504,/wgs84,4,-72870489,1127959360,22010,59,92,4,35701,21,39339,1033,1503,215,0,0,255,4294967295
2025/07/05/17:44:39.262082,7507,1751712279,175937856,/wgs84,4,-72870489,1127959361,22040,56,86,11,35701,22,39369,1031,1498,286,0,0,255,4294967295
2025/07/05/17:44:39.382110,7508,1751712279,175942208,/wgs84,4,-72870489,1127959361,22040,56,86,11,35701,22,39369,1031,1498,286,0,0,255,4294967295
2025/07/05/17:44:39.561987,7509,1751712279,375950400,/wgs84,4,-72870489,1127959363,22030,56,86,5,35701,22,39359,1028,1493,293,0,0,255,4294967295
2025/07/05/17:44:39.662076,7510,1751712279,575954496,/wgs84,4,-72870489,1127959364,22020,56,86,5,35701,22,39349,1025,1488,316,0,0,255,4294967295
2025/07/05/17:44:39.741418,7511,1751712279,575954496,/wgs84,4,-72870489,1127959364,22020,56,86,5,35701,22,39349,1025,1488,316,0,0,255,4294967295
2025/07/05/17:44:39.841477,7512,1751712279,775954496,/wgs84,4,-72870489,1127959366,22040,56,86,1,35701,22,39369,1022,1483,284,0,0,255,4294967295
2025/07/05/17:44:39.922207,7513,1751712279,775954496,/wgs84,4,-72870489,1127959366,22040,56,86,1,35701,22,39369,1022,1483,284,0,0,255,4294967295
2025/07/05/17:44:40.041285,7514,1751712279,975954496,/wgs84,4,-72870489,1127959368,22070,56,86,8,35701,22,39399,1018,1478,281,0,0,255,4294967295
2025/07/05/17:44:40.141813,7515,1751712279,975959104,/wgs84,4,-72870489,1127959368,22070,56,86,8,35701,22,39399,1018,1478,281,0,0,255,4294967295
2025/07/05/17:44:40.241616,7516,1751712280,175963200,/wgs84,4,-72870489,1127959370,22100,56,86,2,35701,22,39430,1015,1473,276,0,0,255,4294967295
2025/07/05/17:44:40.323081,7517,1751712280,175968064,/wgs84,4,-72870489,1127959370,22100,56,86,2,35701,22,39430,1015,1473,276,0,0,255,4294967295
2025/07/05/17:44:40.461872,7518,1751712280,375972672,/wgs84,4,-72870489,1127959372,22140,56,86,2,35701,22,39469,1010,1467,289,0,0,255,4294967295
2025/07/05/17:44:40.582358,7519,1751712280,375976256,/wgs84,4,-72870489,1127959372,22140,56,86,2,35701,22,39469,1010,1467,289,0,0,255,4294967295
2025/07/05/17:44:40.682456,7520,1751712280,575976256,/wgs84,4,-72870490,1127959374,22160,56,86,5,35701,22,39490,1005,1462,278,0,0,255,4294967295
2025/07/05/17:44:40.781935,7521,1751712280,575979840,/wgs84,4,-72870490,1127959374,22160,56,86,5,35701,22,39490,1005,1462,278,0,0,255,4294967295
2025/07/05/17:44:40.881742,7522,1751712280,775983424,/wgs84,4,-72870491,1127959375,22180,56,86,4,35701,22,39509,1000,1456,277,0,0,255,4294967295
2025/07/05/17:44:41.003351,7523,1751712280,975987520,/wgs84,4,-72870492,1127959377,22190,56,86,3,35701,22,39519,994,1450,272,0,0,255,4294967295
2025/07/05/17:44:41.102807,7524,1751712280,975987520,/wgs84,4,-72870492,1127959377,22190,56,86,3,35701,22,39519,994,1450,272,0,0,255,4294967295
2025/07/05/17:44:41.181997,7525,1751712280,975987520,/wgs84,4,-72870492,1127959377,22190,56,86,3,35701,22,39519,994,1450,272,0,0,255,4294967295
2025/07/05/17:44:41.281981,7526,1751712281,175991360,/wgs84,4,-72870495,1127959379,22200,56,86,7,35701,22,39529,987,1444,235,0,0,255,4294967295
2025/07/05/17:44:41.361778,7527,1751712281,175994944,/wgs84,4,-72870495,1127959379,22200,56,86,7,35701,22,39529,987,1444,235,0,0,255,4294967295
2025/07/05/17:44:41.541474,7528,1751712281,375994944,/wgs84,4,-72870497,1127959380,22220,56,86,2,35701,22,39549,981,1437,236,0,0,255,4294967295
2025/07/05/17:44:41.641653,7529,1751712281,575999808,/wgs84,4,-72870500,1127959381,22230,56,86,7,35701,22,39559,974,1430,242,0,0,255,4294967295
2025/07/05/17:44:41.722550,7530,1751712281,576005440,/wgs84,4,-72870500,1127959381,22230,56,86,7,35701,22,39559,974,1430,242,0,0,255,4294967295
2025/07/05/17:44:41.803403,7531,1751712281,776010048,/wgs84,4,-72870503,1127959382,22240,56,86,4,35701,22,39569,968,1423,251,0,0,255,4294967295
2025/07/05/17:44:41.882032,7532,1751712281,776013632,/wgs84,4,-72870503,1127959382,22240,56,86,4,35701,22,39569,968,1423,251,0,0,255,4294967295
2025/07/05/17:44:42.003845,7533,1751712281,976013632,/wgs84,4,-72870505,1127959383,22300,56,86,1,35701,22,39630,962,1416,219,0,0,255,4294967295
2025/07/05/17:44:42.081580,7534,1751712281,976013632,/wgs84,4,-72870505,1127959383,22300,56,86,1,35701,22,39630,962,1416,219,0,0,255,4294967295
2025/07/05/17:44:42.181490,7535,1751712281,976017984,/wgs84,4,-72870505,1127959383,22300,56,86,1,35701,22,39630,962,1416,219,0,0,255,4294967295
2025/07/05/17:44:42.281778,7536,1751712282,176021568,/wgs84,4,-72870508,1127959384,22350,56,86,5,35701,22,39680,956,1410,194,0,0,255,4294967295
2025/07/05/17:44:42.381695,7537,1751712282,176026176,/wgs84,4,-72870508,1127959384,22350,56,86,5,35701,22,39680,956,1410,194,0,0,255,4294967295
2025/07/05/17:44:42.541801,7538,1751712282,376026176,/wgs84,4,-72870511,1127959386,22420,56,86,5,35701,22,39749,950,1401,249,0,0,255,4294967295
2025/07/05/17:44:42.641443,7539,1751712282,576030528,/wgs84,4,-72870513,1127959388,22490,56,86,2,35701,22,39819,943,1392,219,0,0,255,4294967295
2025/07/05/17:44:42.722204,7540,1751712282,576030528,/wgs84,4,-72870513,1127959388,22490,56,86,2,35701,22,39819,943,1392,219,0,0,255,4294967295
2025/07/05/17:44:42.803870,7541,1751712282,776030528,/wgs84,4,-72870515,1127959390,22530,56,86,5,35701,22,39859,937,1386,250,0,0,255,4294967295
2025/07/05/17:44:42.903339,7542,1751712282,776030528,/wgs84,4,-72870515,1127959390,22530,56,86,5,35701,22,39859,937,1386,250,0,0,255,4294967295
2025/07/05/17:44:42.981774,7543,1751712282,776030528,/wgs84,4,-72870515,1127959390,22530,56,86,5,35701,22,39859,937,1386,250,0,0,255,4294967295
2025/07/05/17:44:43.102269,7544,1751712282,976034112,/wgs84,4,-72870516,1127959391,22530,56,86,6,35701,22,39859,933,1381,230,0,0,255,4294967295
2025/07/05/17:44:43.182091,7545,1751712282,976034112,/wgs84,4,-72870516,1127959391,22530,56,86,6,35701,22,39859,933,1381,230,0,0,255,4294967295
2025/07/05/17:44:43.283711,7546,1751712283,176034112,/wgs84,4,-72870517,1127959393,22560,56,86,3,35701,22,39889,927,1376,261,0,0,255,4294967295
2025/07/05/17:44:43.404090,7547,1751712283,376034112,/wgs84,4,-72870518,1127959394,22580,56,86,4,35701,22,39909,923,1374,263,0,0,255,4294967295
2025/07/05/17:44:43.581932,7548,1751712283,376039488,/wgs84,4,-72870518,1127959394,22580,56,86,4,35701,22,39909,923,1374,263,0,0,255,4294967295
2025/07/05/17:44:43.702591,7549,1751712283,576044608,/wgs84,4,-72870518,1127959394,22570,56,86,5,35701,22,39899,920,1371,308,0,0,255,4294967295
2025/07/05/17:44:43.803453,7550,1751712283,776044608,/wgs84,4,-72870520,1127959396,22570,56,86,12,35701,22,39899,917,1369,272,0,0,255,4294967295
2025/07/05/17:44:43.881800,7551,1751712283,776044608,/wgs84,4,-72870520,1127959396,22570,56,86,12,35701,22,39899,917,1369,272,0,0,255,4294967295
2025/07/05/17:44:44.003789,7552,1751712283,976048192,/wgs84,4,-72870521,1127959397,22620,56,86,2,35701,22,39949,914,1367,270,0,0,255,4294967295
2025/07/05/17:44:44.102272,7553,1751712283,976051264,/wgs84,4,-72870521,1127959397,22620,56,86,2,35701,22,39949,914,1367,270,0,0,255,4294967295
2025/07/05/17:44:44.181579,7554,1751712283,976051264,/wgs84,4,-72870521,1127959397,22620,56,86,2,35701,22,39949,914,1367,270,0,0,255,4294967295
2025/07/05/17:44:44.302489,7555,1751712284,176054592,/wgs84,4,-72870521,1127959398,22640,56,86,2,35701,22,39970,912,1365,224,0,0,255,4294967295
2025/07/05/17:44:44.481955,7556,1751712284,376057920,/wgs84,4,-72870521,1127959399,22680,56,86,2,35701,22,40010,910,1364,280,0,0,255,4294967295
2025/07/05/17:44:44.602809,7557,1751712284,576057920,/wgs84,4,-72870522,1127959400,22720,56,86,3,35701,22,40049,908,1362,283,0,0,255,4294967295
2025/07/05/17:44:44.703275,7558,1751712284,576057920,/wgs84,4,-72870522,1127959400,22720,56,86,3,35701,22,40049,908,1362,283,0,0,255,4294967295
2025/07/05/17:44:44.782017,7559,1751712284,576057920,/wgs84,4,-72870522,1127959400,22720,56,86,3,35701,22,40049,908,1362,283,0,0,255,4294967295
2025/07/05/17:44:44.861952,7560,1751712284,776062016,/wgs84,4,-72870522,1127959401,22740,56,86,5,35701,22,40069,906,1361,247,0,0,255,4294967295
2025/07/05/17:44:44.961775,7561,1751712284,776065344,/wgs84,4,-72870522,1127959401,22740,56,86,5,35701,22,40069,906,1361,247,0,0,255,4294967295
2025/07/05/17:44:45.061560,7562,1751712284,976069184,/wgs84,4,-72870522,1127959402,22760,56,86,4,35701,22,40090,904,1359,293,0,0,255,4294967295
2025/07/05/17:44:45.181953,7563,1751712284,976073024,/wgs84,4,-72870522,1127959402,22760,56,86,4,35701,22,40090,904,1359,293,0,0,255,4294967295
2025/07/05/17:44:45.262088,7564,1751712285,176077632,/wgs84,4,-72870521,1127959403,22770,56,86,7,35701,22,40099,903,1360,285,0,0,255,4294967295
2025/07/05/17:44:45.361788,7565,1751712285,176081472,/wgs84,4,-72870521,1127959403,22770,56,86,7,35701,22,40099,903,1360,285,0,0,255,4294967295
2025/07/05/17:44:45.541981,7566,1751712285,376086848,/wgs84,4,-72870521,1127959403,22790,56,86,5,35701,22,40119,901,1361,268,0,0,255,4294967295
2025/07/05/17:44:45.641264,7567,1751712285,576086848,/wgs84,4,-72870521,1127959404,22830,56,86,5,35701,22,40159,900,1363,272,0,0,255,4294967295
2025/07/05/17:44:45.721773,7568,1751712285,576086848,/wgs84,4,-72870521,1127959404,22830,56,86,5,35701,22,40159,900,1363,272,0,0,255,4294967295
2025/07/05/17:44:45.803312,7569,1751712285,776086848,/wgs84,4,-72870521,1127959404,22880,56,86,2,35701,22,40209,900,1365,306,0,0,255,4294967295
2025/07/05/17:44:45.902688,7570,1751712285,776086848,/wgs84,4,-72870521,1127959404,22880,56,86,2,35701,22,40209,900,1365,306,0,0,255,4294967295
2025/07/05/17:44:46.003488,7571,1751712285,976086848,/wgs84,4,-72870520,1127959405,22890,56,86,2,35701,22,40219,901,1369,358,0,0,255,4294967295
2025/07/05/17:44:46.103277,7572,1751712285,976090432,/wgs84,4,-72870520,1127959405,22890,56,86,2,35701,22,40219,901,1369,358,0,0,255,4294967295
2025/07/05/17:44:46.203747,7573,1751712286,176090432,/wgs84,4,-72870518,1127959405,22910,56,86,3,35701,22,40239,902,1372,298,0,0,255,4294967295
2025/07/05/17:44:46.281557,7574,1751712286,176090432,/wgs84,4,-72870518,1127959405,22910,56,86,3,35701,22,40239,902,1372,298,0,0,255,4294967295
2025/07/05/17:44:46.403370,7575,1751712286,176094272,/wgs84,4,-72870518,1127959405,22910,56,86,3,35701,22,40239,902,1372,298,0,0,255,4294967295
2025/07/05/17:44:46.581618,7576,1751712286,376098112,/wgs84,4,-72870517,1127959405,22930,56,86,3,35701,22,40259,903,1376,357,0,0,255,4294967295
2025/07/05/17:44:46.702254,7577,1751712286,576098112,/wgs84,4,-72870515,1127959405,22940,56,86,2,35701,22,40270,904,1380,274,0,0,255,4294967295
2025/07/05/17:44:46.803710,7578,1751712286,776098112,/wgs84,4,-72870513,1127959406,22950,56,86,3,35701,22,40279,904,1384,370,0,0,255,4294967295
2025/07/05/17:44:46.881311,7579,1751712286,776101952,/wgs84,4,-72870513,1127959406,22950,56,86,3,35701,22,40279,904,1384,370,0,0,255,4294967295
2025/07/05/17:44:47.003586,7580,1751712286,976101952,/wgs84,4,-72870510,1127959406,22950,56,86,2,35701,22,40279,905,1387,341,0,0,255,4294967295
2025/07/05/17:44:47.102507,7581,1751712286,976105280,/wgs84,4,-72870510,1127959406,22950,56,86,2,35701,22,40279,905,1387,341,0,0,255,4294967295
2025/07/05/17:44:47.203547,7582,1751712287,176105280,/wgs84,4,-72870508,1127959407,22980,56,86,3,35701,22,40310,906,1389,226,0,0,255,4294967295
2025/07/05/17:44:47.302737,7583,1751712287,176105280,/wgs84,4,-72870508,1127959407,22980,56,86,3,35701,22,40310,906,1389,226,0,0,255,4294967295
2025/07/05/17:44:47.425149,7584,1751712287,376105280,/wgs84,4,-72870506,1127959406,22960,56,86,1,35701,22,40289,906,1391,325,0,0,255,4294967295
2025/07/05/17:44:47.561638,7585,1751712287,376105280,/wgs84,4,-72870506,1127959406,22960,56,86,1,35701,22,40289,906,1391,325,0,0,255,4294967295
2025/07/05/17:44:47.661666,7586,1751712287,576108608,/wgs84,4,-72870505,1127959407,22960,56,86,2,35701,22,40289,907,1392,318,0,0,255,4294967295
2025/07/05/17:44:47.761396,7587,1751712287,576108608,/wgs84,4,-72870505,1127959407,22960,56,86,2,35701,22,40289,907,1392,318,0,0,255,4294967295
2025/07/05/17:44:47.861814,7588,1751712287,776108608,/wgs84,4,-72870503,1127959408,22970,56,86,1,35701,22,40299,906,1392,280,0,0,255,4294967295
2025/07/05/17:44:47.961850,7589,1751712287,776108608,/wgs84,4,-72870503,1127959408,22970,56,86,1,35701,22,40299,906,1392,280,0,0,255,4294967295
2025/07/05/17:44:48.081996,7590,1751712287,976111168,/wgs84,4,-72870503,1127959408,22940,56,86,1,35701,22,40269,904,1392,321,0,0,255,4294967295
2025/07/05/17:44:48.203187,7591,1751712288,176114752,/wgs84,4,-72870503,1127959409,22940,56,86,1,35701,22,40269,902,1391,310,0,0,255,4294967295
2025/07/05/17:44:48.302391,7592,1751712288,176118080,/wgs84,4,-72870503,1127959409,22940,56,86,1,35701,22,40269,902,1391,310,0,0,255,4294967295
2025/07/05/17:44:48.381593,7593,1751712288,176121408,/wgs84,4,-72870503,1127959409,22940,56,86,1,35701,22,40269,902,1391,310,0,0,255,4294967295
2025/07/05/17:44:48.561441,7594,1751712288,376125248,/wgs84,4,-72870503,1127959411,22950,56,86,8,35701,22,40280,899,1389,261,0,0,255,4294967295
2025/07/05/17:44:48.661118,7595,1751712288,576125248,/wgs84,4,-72870503,1127959413,22980,56,86,4,35701,22,40309,898,1390,299,0,0,255,4294967295
2025/07/05/17:44:48.761803,7596,1751712288,576125248,/wgs84,4,-72870503,1127959413,22980,56,86,4,35701,22,40309,898,1390,299,0,0,255,4294967295
2025/07/05/17:44:48.861971,7597,1751712288,776125248,/wgs84,4,-72870502,1127959414,23000,56,86,3,35701,22,40329,895,1390,202,0,0,255,4294967295
2025/07/05/17:44:48.962277,7598,1751712288,776129088,/wgs84,4,-72870502,1127959414,23000,56,86,3,35701,22,40329,895,1390,202,0,0,255,4294967295
2025/07/05/17:44:49.040922,7599,1751712288,976129088,/wgs84,4,-72870502,1127959414,23030,56,86,1,35701,22,40359,893,1390,325,0,0,255,4294967295
2025/07/05/17:44:49.141424,7600,1751712288,976132672,/wgs84,4,-72870502,1127959414,23030,56,86,1,35701,22,40359,893,1390,325,0,0,255,4294967295
2025/07/05/17:44:49.225324,7601,1751712289,176132672,/wgs84,4,-72870503,1127959415,23030,56,86,1,35701,22,40359,892,1391,335,0,0,255,4294967295
2025/07/05/17:44:49.302269,7602,1751712289,176132672,/wgs84,4,-72870503,1127959415,23030,56,86,1,35701,22,40359,892,1391,335,0,0,255,4294967295
2025/07/05/17:44:49.461671,7603,1751712289,376135744,/wgs84,4,-72870502,1127959417,23070,56,86,1,35701,22,40400,890,1391,328,0,0,255,4294967295
2025/07/05/17:44:49.581574,7604,1751712289,376135744,/wgs84,4,-72870502,1127959417,23070,56,86,1,35701,22,40400,890,1391,328,0,0,255,4294967295
2025/07/05/17:44:49.682520,7605,1751712289,576135744,/wgs84,4,-72870503,1127959417,23080,56,86,4,35701,22,40409,889,1392,225,0,0,255,4294967295
2025/07/05/17:44:49.781991,7606,1751712289,576135744,/wgs84,4,-72870503,1127959417,23080,56,86,4,35701,22,40409,889,1392,225,0,0,255,4294967295
2025/07/05/17:44:49.881943,7607,1751712289,776135744,/wgs84,4,-72870503,1127959417,23080,56,86,3,35701,22,40409,889,1393,336,0,0,255,4294967295
2025/07/05/17:44:50.003747,7608,1751712289,976135744,/wgs84,4,-72870502,1127959417,23070,56,86,2,35701,22,40400,889,1394,321,0,0,255,4294967295
2025/07/05/17:44:50.102245,7609,1751712289,976135744,/wgs84,4,-72870502,1127959417,23070,56,86,2,35701,22,40400,889,1394,321,0,0,255,4294967295
2025/07/05/17:44:50.181995,7610,1751712289,976135744,/wgs84,4,-72870502,1127959417,23070,56,86,2,35701,22,40400,889,1394,321,0,0,255,4294967295
2025/07/05/17:44:50.282068,7611,1751712290,176135744,/wgs84,4,-72870502,1127959417,23060,56,86,2,35701,22,40389,888,1395,298,0,0,255,4294967295
2025/07/05/17:44:50.423033,7612,1751712290,376135744,/wgs84,4,-72870502,1127959418,23050,56,86,4,35701,22,40380,888,1396,277,0,0,255,4294967295
2025/07/05/17:44:50.581990,7613,1751712290,376139328,/wgs84,4,-72870502,1127959418,23050,56,86,4,35701,22,40380,888,1396,277,0,0,255,4294967295
2025/07/05/17:44:50.662012,7614,1751712290,576139328,/wgs84,4,-72870503,1127959419,23050,57,86,7,35701,21,40380,887,1396,274,0,0,255,4294967295
2025/07/05/17:44:50.761443,7615,1751712290,576139328,/wgs84,4,-72870503,1127959419,23050,57,86,7,35701,21,40380,887,1396,274,0,0,255,4294967295
2025/07/05/17:44:50.861894,7616,1751712290,776139328,/wgs84,4,-72870504,1127959420,23040,57,86,5,35701,21,40370,887,1396,318,0,0,255,4294967295
2025/07/05/17:44:50.961458,7617,1751712290,776139328,/wgs84,4,-72870504,1127959420,23040,57,86,5,35701,21,40370,887,1396,318,0,0,255,4294967295
2025/07/05/17:44:51.081687,7618,1751712290,976139328,/wgs84,4,-72870505,1127959421,23050,57,86,8,35701,21,40380,887,1396,291,0,0,255,4294967295
2025/07/05/17:44:51.181692,7619,1751712290,976139328,/wgs84,4,-72870505,1127959421,23050,57,86,8,35701,21,40380,887,1396,291,0,0,255,4294967295
2025/07/05/17:44:51.261342,7620,1751712291,176139328,/wgs84,4,-72870506,1127959422,23020,56,86,7,35701,22,40349,887,1397,228,0,0,255,4294967295
2025/07/05/17:44:51.361454,7621,1751712291,176139328,/wgs84,4,-72870506,1127959422,23020,56,86,7,35701,22,40349,887,1397,228,0,0,255,4294967295
2025/07/05/17:44:51.522829,7622,1751712291,376139328,/wgs84,4,-72870506,1127959423,23000,56,86,4,35701,22,40329,888,1394,265,0,0,255,4294967295
2025/07/05/17:44:51.625129,7623,1751712291,576139328,/wgs84,4,-72870507,1127959423,22990,56,86,4,35701,22,40319,888,1391,287,0,0,255,4294967295
2025/07/05/17:44:51.702419,7624,1751712291,576139328,/wgs84,4,-72870507,1127959423,22990,56,86,4,35701,22,40319,888,1391,287,0,0,255,4294967295
2025/07/05/17:44:51.803269,7625,1751712291,776139328,/wgs84,4,-72870507,1127959423,22980,56,86,0,35701,22,40309,888,1389,309,0,0,255,4294967295
2025/07/05/17:44:51.902417,7626,1751712291,776139328,/wgs84,4,-72870507,1127959423,22980,56,86,0,35701,22,40309,888,1389,309,0,0,255,4294967295
2025/07/05/17:44:52.024819,7627,1751712291,976139328,/wgs84,4,-72870506,1127959424,22990,56,86,6,35701,22,40319,889,1387,303,0,0,255,4294967295
2025/07/05/17:44:52.102425,7628,1751712291,976139328,/wgs84,4,-72870506,1127959424,22990,56,86,6,35701,22,40319,889,1387,303,0,0,255,4294967295
2025/07/05/17:44:52.203482,7629,1751712292,176139328,/wgs84,4,-72870506,1127959425,22990,56,86,3,35701,22,40319,890,1388,307,0,0,255,4294967295
2025/07/05/17:44:52.281179,7630,1751712292,176139328,/wgs84,4,-72870506,1127959425,22990,56,86,3,35701,22,40319,890,1388,307,0,0,255,4294967295
2025/07/05/17:44:52.402324,7631,1751712292,176139328,/wgs84,4,-72870506,1127959425,22990,56,86,3,35701,22,40319,890,1388,307,0,0,255,4294967295
2025/07/05/17:44:52.541815,7632,1751712292,376139328,/wgs84,4,-72870506,1127959426,22980,56,86,1,35701,22,40309,891,1389,323,0,0,255,4294967295
2025/07/05/17:44:52.625867,7633,1751712292,576139328,/wgs84,4,-72870506,1127959426,22970,56,86,1,35701,22,40299,891,1390,255,0,0,255,4294967295
2025/07/05/17:44:52.702396,7634,1751712292,576139328,/wgs84,4,-72870506,1127959426,22970,56,86,1,35701,22,40299,891,1390,255,0,0,255,4294967295
2025/07/05/17:44:52.803483,7635,1751712292,776139328,/wgs84,4,-72870505,1127959426,22950,56,86,8,35701,22,40279,892,1390,315,0,0,255,4294967295
2025/07/05/17:44:52.922295,7636,1751712292,776142656,/wgs84,4,-72870505,1127959426,22950,56,86,8,35701,22,40279,892,1390,315,0,0,255,4294967295
2025/07/05/17:44:53.003303,7637,1751712292,976142656,/wgs84,4,-72870505,1127959427,22920,56,86,4,35701,22,40249,892,1391,217,0,0,255,4294967295
2025/07/05/17:44:53.081920,7638,1751712292,976142656,/wgs84,4,-72870505,1127959427,22920,56,86,4,35701,22,40249,892,1391,217,0,0,255,4294967295
2025/07/05/17:44:53.182065,7639,1751712292,976142656,/wgs84,4,-72870505,1127959427,22920,56,86,4,35701,22,40249,892,1391,217,0,0,255,4294967295
2025/07/05/17:44:53.301930,7640,1751712293,176142656,/wgs84,4,-72870504,1127959427,22890,56,86,1,35701,22,40219,893,1391,334,0,0,255,4294967295
2025/07/05/17:44:53.425109,7641,1751712293,376142656,/wgs84,4,-72870503,1127959427,22880,56,86,11,35701,22,40210,893,1392,309,0,0,255,4294967295
2025/07/05/17:44:53.582213,7642,1751712293,376142656,/wgs84,4,-72870503,1127959427,22880,56,86,11,35701,22,40210,893,1392,309,0,0,255,4294967295
2025/07/05/17:44:53.702283,7643,1751712293,576142656,/wgs84,4,-72870503,1127959426,22840,56,86,2,35701,22,40169,894,1392,343,0,0,255,4294967295
2025/07/05/17:44:53.781269,7644,1751712293,576142656,/wgs84,4,-72870503,1127959426,22840,56,86,2,35701,22,40169,894,1392,343,0,0,255,4294967295
2025/07/05/17:44:53.902383,7645,1751712293,776142656,/wgs84,4,-72870503,1127959426,22840,56,86,6,35701,22,40169,895,1393,294,0,0,255,4294967295
2025/07/05/17:44:54.003683,7646,1751712293,976142656,/wgs84,4,-72870504,1127959427,22810,56,86,26,35701,22,40139,896,1393,296,0,0,255,4294967295
2025/07/05/17:44:54.082078,7647,1751712293,976142656,/wgs84,4,-72870504,1127959427,22810,56,86,26,35701,22,40139,896,1393,296,0,0,255,4294967295
2025/07/05/17:44:54.202610,7648,1751712294,176142656,/wgs84,4,-72870504,1127959430,22800,56,86,6,35701,22,40129,898,1395,343,0,0,255,4294967295
2025/07/05/17:44:54.282018,7649,1751712294,176142656,/wgs84,4,-72870504,1127959430,22800,56,86,6,35701,22,40129,898,1395,343,0,0,255,4294967295
2025/07/05/17:44:54.361521,7650,1751712294,176142656,/wgs84,4,-72870504,1127959430,22800,56,86,6,35701,22,40129,898,1395,343,0,0,255,4294967295
2025/07/05/17:44:54.541063,7651,1751712294,376142656,/wgs84,4,-72870505,1127959431,22790,56,86,11,35701,22,40119,899,1394,328,0,0,255,4294967295
2025/07/05/17:44:54.640617,7652,1751712294,576142656,/wgs84,4,-72870506,1127959432,22780,56,86,11,35701,22,40109,901,1392,334,0,0,255,4294967295
2025/07/05/17:44:54.722052,7653,1751712294,576142656,/wgs84,4,-72870506,1127959432,22780,56,86,11,35701,22,40109,901,1392,334,0,0,255,4294967295
2025/07/05/17:44:54.824818,7654,1751712294,776142656,/wgs84,4,-72870506,1127959433,22790,56,86,9,35701,22,40119,902,1390,302,0,0,255,4294967295
2025/07/05/17:44:54.922966,7655,1751712294,776142656,/wgs84,4,-72870506,1127959433,22790,56,86,9,35701,22,40119,902,1390,302,0,0,255,4294967295
2025/07/05/17:44:55.024618,7656,1751712294,976142656,/wgs84,4,-72870507,1127959434,22760,56,86,18,35701,22,40089,903,1387,322,0,0,255,4294967295
2025/07/05/17:44:55.102208,7657,1751712294,976142656,/wgs84,4,-72870507,1127959434,22760,56,86,18,35701,22,40089,903,1387,322,0,0,255,4294967295
2025/07/05/17:44:55.203507,7658,1751712295,176142656,/wgs84,4,-72870506,1127959436,22760,56,86,6,35701,22,40089,902,1381,319,0,0,255,4294967295
2025/07/05/17:44:55.281333,7659,1751712295,176142656,/wgs84,4,-72870506,1127959436,22760,56,86,6,35701,22,40089,902,1381,319,0,0,255,4294967295
2025/07/05/17:44:55.403419,7660,1751712295,376142656,/wgs84,4,-72870505,1127959436,22740,56,86,8,35701,22,40069,903,1378,317,0,0,255,4294967295
2025/07/05/17:44:55.580889,7661,1751712295,376142656,/wgs84,4,-72870505,1127959436,22740,56,86,8,35701,22,40069,903,1378,317,0,0,255,4294967295
2025/07/05/17:44:55.701916,7662,1751712295,576142656,/wgs84,4,-72870506,1127959437,22700,56,86,21,35701,22,40029,904,1376,359,0,0,255,4294967295
2025/07/05/17:44:55.803439,7663,1751712295,776144192,/wgs84,4,-72870506,1127959439,22670,56,86,10,35701,22,39999,905,1373,347,0,0,255,4294967295
2025/07/05/17:44:55.881168,7664,1751712295,776144192,/wgs84,4,-72870506,1127959439,22670,56,86,10,35701,22,39999,905,1373,347,0,0,255,4294967295
2025/07/05/17:44:56.003422,7665,1751712295,976144192,/wgs84,4,-72870506,1127959440,22690,56,86,3,35701,22,40019,905,1372,326,0,0,255,4294967295
2025/07/05/17:44:56.081907,7666,1751712295,976144192,/wgs84,4,-72870506,1127959440,22690,56,86,3,35701,22,40019,905,1372,326,0,0,255,4294967295
2025/07/05/17:44:56.181343,7667,1751712295,976144192,/wgs84,4,-72870506,1127959440,22690,56,86,3,35701,22,40019,905,1372,326,0,0,255,4294967295
2025/07/05/17:44:56.302059,7668,1751712296,176147008,/wgs84,4,-72870506,1127959439,22690,56,86,10,35701,22,40020,904,1371,283,0,0,255,4294967295
2025/07/05/17:44:56.422819,7669,1751712296,376147008,/wgs84,4,-72870506,1127959440,22720,56,86,6,35701,22,40049,903,1370,273,0,0,255,4294967295
2025/07/05/17:44:56.602809,7670,1751712296,376147008,/wgs84,4,-72870506,1127959440,22720,56,86,6,35701,22,40049,903,1370,273,0,0,255,4294967295
2025/07/05/17:44:56.681991,7671,1751712296,576147008,/wgs84,4,-72870506,1127959440,22700,56,86,6,35701,22,40030,902,1370,273,0,0,255,4294967295
2025/07/05/17:44:56.782038,7672,1751712296,576147008,/wgs84,4,-72870506,1127959440,22700,56,86,6,35701,22,40030,902,1370,273,0,0,255,4294967295
2025/07/05/17:44:56.881731,7673,1751712296,776147008,/wgs84,4,-72870506,1127959439,22720,56,86,1,35701,22,40050,901,1368,324,0,0,255,4294967295
