time,.header.seq,.header.stamp.secs,.header.stamp.nsecs,.header.frame_id,.status.status,.status.service,.latitude,.longitude,.altitude,.position_covariance,.position_covariance_type
2025/07/05/17:44:13.305208,7262,1751712253,173540352,base_link,0,1,-7.2870829,112.7959232,48.01515025966437,"(1.6205289999999997, 0.0, 0.0, 0.0, 1.6205289999999997, 0.0, 0.0, 0.0, 3.048516)",2
2025/07/05/17:44:13.462757,7263,1751712253,373556736,base_link,0,1,-7.2870826,112.795923,48.03515039666931,"(1.6307289999999999, 0.0, 0.0, 0.0, 1.6307289999999999, 0.0, 0.0, 0.0, 3.0590010000000003)",2
2025/07/05/17:44:13.582948,7264,1751712253,373564160,base_link,0,1,-7.2870826,112.795923,48.03515039666931,"(1.6307289999999999, 0.0, 0.0, 0.0, 1.6307289999999999, 0.0, 0.0, 0.0, 3.0590010000000003)",2
2025/07/05/17:44:13.684181,7265,1751712253,573573888,base_link,0,1,-7.2870822,112.7959227,48.04515047527335,"(1.640961, 0.0, 0.0, 0.0, 1.640961, 0.0, 0.0, 0.0, 3.0660009999999995)",2
2025/07/05/17:44:13.803961,7266,1751712253,773580032,base_link,0,1,-7.2870819,112.7959223,48.085149987858514,"(1.653796, 0.0, 0.0, 0.0, 1.653796, 0.0, 0.0, 0.0, 3.0660009999999995)",2
2025/07/05/17:44:13.882515,7267,1751712253,773580032,base_link,0,1,-7.2870819,112.7959223,48.085149987858514,"(1.653796, 0.0, 0.0, 0.0, 1.653796, 0.0, 0.0, 0.0, 3.0660009999999995)",2
2025/07/05/17:44:14.004302,7268,1751712253,973586944,base_link,0,1,-7.2870817,112.795922,48.06514955884498,"(1.6641000000000001, 0.0, 0.0, 0.0, 1.6641000000000001, 0.0, 0.0, 0.0, 3.0800249999999996)",2
2025/07/05/17:44:14.082481,7269,1751712253,973592576,base_link,0,1,-7.2870817,112.795922,48.06514955884498,"(1.6641000000000001, 0.0, 0.0, 0.0, 1.6641000000000001, 0.0, 0.0, 0.0, 3.0800249999999996)",2
2025/07/05/17:44:14.182422,7270,1751712253,973597184,base_link,0,1,-7.2870817,112.795922,48.06514955884498,"(1.6641000000000001, 0.0, 0.0, 0.0, 1.6641000000000001, 0.0, 0.0, 0.0, 3.0800249999999996)",2
2025/07/05/17:44:14.304126,7271,1751712254,173604864,base_link,0,1,-7.2870814,112.7959217,48.05514938364051,"(1.671849, 0.0, 0.0, 0.0, 1.671849, 0.0, 0.0, 0.0, 3.1011209999999996)",2
2025/07/05/17:44:14.427504,7272,1751712254,373609728,base_link,0,1,-7.2870809,112.7959215,48.02515002826688,"(1.679616, 0.0, 0.0, 0.0, 1.679616, 0.0, 0.0, 0.0, 3.122289)",2
2025/07/05/17:44:14.582828,7273,1751712254,373623808,base_link,0,1,-7.2870809,112.7959215,48.02515002826688,"(1.679616, 0.0, 0.0, 0.0, 1.679616, 0.0, 0.0, 0.0, 3.122289)",2
2025/07/05/17:44:14.662957,7274,1751712254,573629696,base_link,0,1,-7.2870805,112.7959213,47.985150419084945,"(1.6822089999999998, 0.0, 0.0, 0.0, 1.6822089999999998, 0.0, 0.0, 0.0, 3.139984)",2
2025/07/05/17:44:14.762935,7275,1751712254,573636352,base_link,0,1,-7.2870805,112.7959213,47.985150419084945,"(1.6822089999999998, 0.0, 0.0, 0.0, 1.6822089999999998, 0.0, 0.0, 0.0, 3.139984)",2
2025/07/05/17:44:14.862985,7276,1751712254,773642496,base_link,0,1,-7.2870802,112.795921,47.86515024388213,"(1.6589440000000002, 0.0, 0.0, 0.0, 1.6589440000000002, 0.0, 0.0, 0.0, 3.1011209999999996)",2
2025/07/05/17:44:14.963194,7277,1751712254,773649152,base_link,0,1,-7.2870802,112.795921,47.86515024388213,"(1.6589440000000002, 0.0, 0.0, 0.0, 1.6589440000000002, 0.0, 0.0, 0.0, 3.1011209999999996)",2
2025/07/05/17:44:15.062626,7278,1751712254,973655296,base_link,0,1,-7.2870797,112.7959208,47.82515088851316,"(1.643524, 0.0, 0.0, 0.0, 1.643524, 0.0, 0.0, 0.0, 3.0976)",2
2025/07/05/17:44:15.163788,7279,1751712254,973661184,base_link,0,1,-7.2870797,112.7959208,47.82515088851316,"(1.643524, 0.0, 0.0, 0.0, 1.643524, 0.0, 0.0, 0.0, 3.0976)",2
2025/07/05/17:44:15.262444,7280,1751712255,173667328,base_link,0,1,-7.2870793,112.7959205,47.79515096712269,"(1.6358409999999999, 0.0, 0.0, 0.0, 1.6358409999999999, 0.0, 0.0, 0.0, 3.0976)",2
2025/07/05/17:44:15.362471,7281,1751712255,173673216,base_link,0,1,-7.2870793,112.7959205,47.79515096712269,"(1.6358409999999999, 0.0, 0.0, 0.0, 1.6358409999999999, 0.0, 0.0, 0.0, 3.0976)",2
2025/07/05/17:44:15.523844,7282,1751712255,373683200,base_link,0,1,-7.2870788,112.7959202,47.80515129954493,"(1.6358409999999999, 0.0, 0.0, 0.0, 1.6358409999999999, 0.0, 0.0, 0.0, 3.1081689999999997)",2
2025/07/05/17:44:15.627415,7283,1751712255,573688320,base_link,0,1,-7.2870785,112.79592,47.79515143655659,"(1.6384, 0.0, 0.0, 0.0, 1.6384, 0.0, 0.0, 0.0, 3.118756)",2
2025/07/05/17:44:15.702683,7284,1751712255,573696768,base_link,0,1,-7.2870785,112.79592,47.79515143655659,"(1.6384, 0.0, 0.0, 0.0, 1.6384, 0.0, 0.0, 0.0, 3.118756)",2
2025/07/05/17:44:15.803643,7285,1751712255,773704960,base_link,0,1,-7.2870782,112.7959198,47.74515157356883,"(1.633284, 0.0, 0.0, 0.0, 1.633284, 0.0, 0.0, 0.0, 3.1152249999999997)",2
2025/07/05/17:44:15.923280,7286,1751712255,773712640,base_link,0,1,-7.2870782,112.7959198,47.74515157356883,"(1.633284, 0.0, 0.0, 0.0, 1.633284, 0.0, 0.0, 0.0, 3.1152249999999997)",2
2025/07/05/17:44:16.025854,7287,1751712255,973718272,base_link,0,1,-7.2870778,112.7959197,47.695152276607246,"(1.6205289999999997, 0.0, 0.0, 0.0, 1.6205289999999997, 0.0, 0.0, 0.0, 3.0800249999999996)",2
2025/07/05/17:44:16.103158,7288,1751712255,973725440,base_link,0,1,-7.2870778,112.7959197,47.695152276607246,"(1.6205289999999997, 0.0, 0.0, 0.0, 1.6205289999999997, 0.0, 0.0, 0.0, 3.0800249999999996)",2
2025/07/05/17:44:16.205559,7289,1751712256,173732864,base_link,0,1,-7.2870774,112.7959197,47.67515329186024,"(1.6078240000000001, 0.0, 0.0, 0.0, 1.6078240000000001, 0.0, 0.0, 0.0, 3.0450250000000003)",2
2025/07/05/17:44:16.282215,7290,1751712256,173740544,base_link,0,1,-7.2870774,112.7959197,47.67515329186024,"(1.6078240000000001, 0.0, 0.0, 0.0, 1.6078240000000001, 0.0, 0.0, 0.0, 3.0450250000000003)",2
2025/07/05/17:44:16.404620,7291,1751712256,173746688,base_link,0,1,-7.2870774,112.7959197,47.67515329186024,"(1.6078240000000001, 0.0, 0.0, 0.0, 1.6078240000000001, 0.0, 0.0, 0.0, 3.0450250000000003)",2
2025/07/05/17:44:16.562655,7292,1751712256,373759744,base_link,0,1,-7.2870771,112.7959198,47.6551543655143,"(1.602756, 0.0, 0.0, 0.0, 1.602756, 0.0, 0.0, 0.0, 3.0450250000000003)",2
2025/07/05/17:44:16.643332,7293,1751712256,573759744,base_link,0,1,-7.2870765,112.7959196,47.645155263973336,"(1.6002249999999998, 0.0, 0.0, 0.0, 1.6002249999999998, 0.0, 0.0, 0.0, 3.048516)",2
2025/07/05/17:44:16.723603,7294,1751712256,573767680,base_link,0,1,-7.2870765,112.7959196,47.645155263973336,"(1.6002249999999998, 0.0, 0.0, 0.0, 1.6002249999999998, 0.0, 0.0, 0.0, 3.048516)",2
2025/07/05/17:44:16.827806,7295,1751712256,773775872,base_link,0,1,-7.2870759,112.7959195,47.64515647464928,"(1.5951689999999998, 0.0, 0.0, 0.0, 1.5951689999999998, 0.0, 0.0, 0.0, 3.048516)",2
2025/07/05/17:44:16.922860,7296,1751712256,773782528,base_link,0,1,-7.2870759,112.7959195,47.64515647464928,"(1.5951689999999998, 0.0, 0.0, 0.0, 1.5951689999999998, 0.0, 0.0, 0.0, 3.048516)",2
2025/07/05/17:44:17.044502,7297,1751712256,973787904,base_link,0,1,-7.2870754,112.7959195,47.59515774372704,"(1.5951689999999998, 0.0, 0.0, 0.0, 1.5951689999999998, 0.0, 0.0, 0.0, 3.048516)",2
2025/07/05/17:44:17.143904,7298,1751712256,973794048,base_link,0,1,-7.2870754,112.7959195,47.59515774372704,"(1.5951689999999998, 0.0, 0.0, 0.0, 1.5951689999999998, 0.0, 0.0, 0.0, 3.048516)",2
2025/07/05/17:44:17.225912,7299,1751712257,173801728,base_link,0,1,-7.2870745,112.7959193,47.61515940364636,"(1.5951689999999998, 0.0, 0.0, 0.0, 1.5951689999999998, 0.0, 0.0, 0.0, 3.034564)",2
2025/07/05/17:44:17.302909,7300,1751712257,173808896,base_link,0,1,-7.2870745,112.7959193,47.61515940364636,"(1.5951689999999998, 0.0, 0.0, 0.0, 1.5951689999999998, 0.0, 0.0, 0.0, 3.034564)",2
2025/07/05/17:44:17.483241,7301,1751712257,373819904,base_link,0,1,-7.2870736,112.7959192,47.615161375788645,"(1.5951689999999998, 0.0, 0.0, 0.0, 1.5951689999999998, 0.0, 0.0, 0.0, 3.0276)",2
2025/07/05/17:44:17.604560,7302,1751712257,573826816,base_link,0,1,-7.2870726,112.7959189,47.63516297732923,"(1.592644, 0.0, 0.0, 0.0, 1.592644, 0.0, 0.0, 0.0, 3.0380490000000004)",2
2025/07/05/17:44:17.703920,7303,1751712257,573833728,base_link,0,1,-7.2870726,112.7959189,47.63516297732923,"(1.592644, 0.0, 0.0, 0.0, 1.592644, 0.0, 0.0, 0.0, 3.0380490000000004)",2
2025/07/05/17:44:17.782979,7304,1751712257,573841920,base_link,0,1,-7.2870726,112.7959189,47.63516297732923,"(1.592644, 0.0, 0.0, 0.0, 1.592644, 0.0, 0.0, 0.0, 3.0380490000000004)",2
2025/07/05/17:44:17.904058,7305,1751712257,773847808,base_link,0,1,-7.2870716,112.7959187,47.65516489109486,"(1.5901209999999997, 0.0, 0.0, 0.0, 1.5901209999999997, 0.0, 0.0, 0.0, 3.041536)",2
2025/07/05/17:44:18.004574,7306,1751712257,973852928,base_link,0,1,-7.2870709,112.7959186,47.58516635562337,"(1.5800489999999998, 0.0, 0.0, 0.0, 1.5800489999999998, 0.0, 0.0, 0.0, 3.0380490000000004)",2
2025/07/05/17:44:18.084147,7307,1751712257,973858048,base_link,0,1,-7.2870709,112.7959186,47.58516635562337,"(1.5800489999999998, 0.0, 0.0, 0.0, 1.5800489999999998, 0.0, 0.0, 0.0, 3.0380490000000004)",2
2025/07/05/17:44:18.183585,7308,1751712257,973863936,base_link,0,1,-7.2870709,112.7959186,47.58516635562337,"(1.5800489999999998, 0.0, 0.0, 0.0, 1.5800489999999998, 0.0, 0.0, 0.0, 3.0380490000000004)",2
2025/07/05/17:44:18.263029,7309,1751712258,173870592,base_link,0,1,-7.2870701,112.7959183,47.58516744954697,"(1.577536, 0.0, 0.0, 0.0, 1.577536, 0.0, 0.0, 0.0, 3.048516)",2
2025/07/05/17:44:18.362330,7310,1751712258,173876224,base_link,0,1,-7.2870701,112.7959183,47.58516744954697,"(1.577536, 0.0, 0.0, 0.0, 1.577536, 0.0, 0.0, 0.0, 3.048516)",2
2025/07/05/17:44:18.542739,7311,1751712258,373883904,base_link,0,1,-7.2870692,112.7959181,47.59516910951558,"(1.577536, 0.0, 0.0, 0.0, 1.577536, 0.0, 0.0, 0.0, 3.055504)",2
2025/07/05/17:44:18.641588,7312,1751712258,573889792,base_link,0,1,-7.2870684,112.7959181,47.57517114010253,"(1.5800489999999998, 0.0, 0.0, 0.0, 1.5800489999999998, 0.0, 0.0, 0.0, 3.0625)",2
2025/07/05/17:44:18.723632,7313,1751712258,573897984,base_link,0,1,-7.2870684,112.7959181,47.57517114010253,"(1.5800489999999998, 0.0, 0.0, 0.0, 1.5800489999999998, 0.0, 0.0, 0.0, 3.0625)",2
2025/07/05/17:44:18.806716,7314,1751712258,773904384,base_link,0,1,-7.2870676,112.7959181,47.5551731706973,"(1.5800489999999998, 0.0, 0.0, 0.0, 1.5800489999999998, 0.0, 0.0, 0.0, 3.076516)",2
2025/07/05/17:44:18.904121,7315,1751712258,773910272,base_link,0,1,-7.2870676,112.7959181,47.5551731706973,"(1.5800489999999998, 0.0, 0.0, 0.0, 1.5800489999999998, 0.0, 0.0, 0.0, 3.076516)",2
2025/07/05/17:44:19.005531,7316,1751712258,973916672,base_link,0,1,-7.2870668,112.7959179,47.535174576864904,"(1.5750249999999997, 0.0, 0.0, 0.0, 1.5750249999999997, 0.0, 0.0, 0.0, 3.083536)",2
2025/07/05/17:44:19.102930,7317,1751712258,973922048,base_link,0,1,-7.2870668,112.7959179,47.535174576864904,"(1.5750249999999997, 0.0, 0.0, 0.0, 1.5750249999999997, 0.0, 0.0, 0.0, 3.083536)",2
2025/07/05/17:44:19.204614,7318,1751712259,173930752,base_link,0,1,-7.2870661,112.795918,47.4951766658658,"(1.5600010000000002, 0.0, 0.0, 0.0, 1.5600010000000002, 0.0, 0.0, 0.0, 3.083536)",2
2025/07/05/17:44:19.283082,7319,1751712259,173937920,base_link,0,1,-7.2870661,112.795918,47.4951766658658,"(1.5600010000000002, 0.0, 0.0, 0.0, 1.5600010000000002, 0.0, 0.0, 0.0, 3.083536)",2
2025/07/05/17:44:19.405596,7320,1751712259,375944320,base_link,0,1,-7.2870653,112.795918,47.46517869648272,"(1.552516, 0.0, 0.0, 0.0, 1.552516, 0.0, 0.0, 0.0, 3.0940809999999996)",2
2025/07/05/17:44:19.582312,7321,1751712259,375957888,base_link,0,1,-7.2870653,112.795918,47.46517869648272,"(1.552516, 0.0, 0.0, 0.0, 1.552516, 0.0, 0.0, 0.0, 3.0940809999999996)",2
2025/07/05/17:44:19.662697,7322,1751712259,575963520,base_link,0,1,-7.2870644,112.7959181,47.455181293154524,"(1.542564, 0.0, 0.0, 0.0, 1.542564, 0.0, 0.0, 0.0, 3.0976)",2
2025/07/05/17:44:19.762336,7323,1751712259,575968640,base_link,0,1,-7.2870644,112.7959181,47.455181293154524,"(1.542564, 0.0, 0.0, 0.0, 1.542564, 0.0, 0.0, 0.0, 3.0976)",2
2025/07/05/17:44:19.863388,7324,1751712259,775974272,base_link,0,1,-7.2870639,112.7959183,47.42518318673696,"(1.522756, 0.0, 0.0, 0.0, 1.522756, 0.0, 0.0, 0.0, 3.0870489999999995)",2
2025/07/05/17:44:20.004450,7325,1751712259,975982976,base_link,0,1,-7.2870633,112.7959185,47.44518533415325,"(1.5030759999999999, 0.0, 0.0, 0.0, 1.5030759999999999, 0.0, 0.0, 0.0, 3.076516)",2
2025/07/05/17:44:20.103848,7326,1751712259,975991936,base_link,0,1,-7.2870633,112.7959185,47.44518533415325,"(1.5030759999999999, 0.0, 0.0, 0.0, 1.5030759999999999, 0.0, 0.0, 0.0, 3.076516)",2
2025/07/05/17:44:20.205133,7327,1751712260,176000384,base_link,0,1,-7.2870628,112.7959185,47.41518660330598,"(1.4737959999999999, 0.0, 0.0, 0.0, 1.4737959999999999, 0.0, 0.0, 0.0, 3.0660009999999995)",2
2025/07/05/17:44:20.283244,7328,1751712260,176009088,base_link,0,1,-7.2870628,112.7959185,47.41518660330598,"(1.4737959999999999, 0.0, 0.0, 0.0, 1.4737959999999999, 0.0, 0.0, 0.0, 3.0660009999999995)",2
2025/07/05/17:44:20.424800,7329,1751712260,376014976,base_link,0,1,-7.2870622,112.7959186,47.41518843851236,"(1.459264, 0.0, 0.0, 0.0, 1.459264, 0.0, 0.0, 0.0, 3.0800249999999996)",2
2025/07/05/17:44:20.583168,7330,1751712260,376028800,base_link,0,1,-7.2870622,112.7959186,47.41518843851236,"(1.459264, 0.0, 0.0, 0.0, 1.459264, 0.0, 0.0, 0.0, 3.0800249999999996)",2
2025/07/05/17:44:20.703706,7331,1751712260,575037248,base_link,0,1,-7.2870616,112.7959187,47.395190273723685,"(1.4520250000000001, 0.0, 0.0, 0.0, 1.4520250000000001, 0.0, 0.0, 0.0, 3.104644)",2
2025/07/05/17:44:20.783351,7332,1751712260,575043136,base_link,0,1,-7.2870616,112.7959187,47.395190273723685,"(1.4520250000000001, 0.0, 0.0, 0.0, 1.4520250000000001, 0.0, 0.0, 0.0, 3.104644)",2
2025/07/05/17:44:20.904021,7333,1751712260,775051072,base_link,0,1,-7.2870612,112.795919,47.38519222571256,"(1.44, 0.0, 0.0, 0.0, 1.44, 0.0, 0.0, 0.0, 3.129361)",2
2025/07/05/17:44:21.004624,7334,1751712260,975057216,base_link,0,1,-7.2870607,112.7959191,47.375193807098725,"(1.428025, 0.0, 0.0, 0.0, 1.428025, 0.0, 0.0, 0.0, 3.154176)",2
2025/07/05/17:44:21.083466,7335,1751712260,975062592,base_link,0,1,-7.2870607,112.7959191,47.375193807098725,"(1.428025, 0.0, 0.0, 0.0, 1.428025, 0.0, 0.0, 0.0, 3.154176)",2
2025/07/05/17:44:21.205504,7336,1751712261,175068736,base_link,0,1,-7.2870601,112.7959192,47.42519564232252,"(1.425636, 0.0, 0.0, 0.0, 1.425636, 0.0, 0.0, 0.0, 3.182656)",2
2025/07/05/17:44:21.303884,7337,1751712261,175074880,base_link,0,1,-7.2870601,112.7959192,47.42519564232252,"(1.425636, 0.0, 0.0, 0.0, 1.425636, 0.0, 0.0, 0.0, 3.182656)",2
2025/07/05/17:44:21.382370,7338,1751712261,175081280,base_link,0,1,-7.2870601,112.7959192,47.42519564232252,"(1.425636, 0.0, 0.0, 0.0, 1.425636, 0.0, 0.0, 0.0, 3.182656)",2
2025/07/05/17:44:21.562949,7339,1751712261,375097664,base_link,0,1,-7.2870596,112.7959193,47.45519722371613,"(1.4232490000000002, 0.0, 0.0, 0.0, 1.4232490000000002, 0.0, 0.0, 0.0, 3.1969440000000002)",2
2025/07/05/17:44:21.662692,7340,1751712261,575103808,base_link,0,1,-7.287059,112.7959195,47.42519937116906,"(1.420864, 0.0, 0.0, 0.0, 1.420864, 0.0, 0.0, 0.0, 3.2112640000000003)",2
2025/07/05/17:44:21.742326,7341,1751712261,575103808,base_link,0,1,-7.287059,112.7959195,47.42519937116906,"(1.420864, 0.0, 0.0, 0.0, 1.420864, 0.0, 0.0, 0.0, 3.2112640000000003)",2
2025/07/05/17:44:21.842880,7342,1751712261,775109952,base_link,0,1,-7.2870584,112.7959198,47.44520183084745,"(1.4161, 0.0, 0.0, 0.0, 1.4161, 0.0, 0.0, 0.0, 3.225616)",2
2025/07/05/17:44:21.962396,7343,1751712261,775121472,base_link,0,1,-7.2870584,112.7959198,47.44520183084745,"(1.4161, 0.0, 0.0, 0.0, 1.4161, 0.0, 0.0, 0.0, 3.225616)",2
2025/07/05/17:44:22.062872,7344,1751712261,975128128,base_link,0,1,-7.2870578,112.79592,47.50520397831093,"(1.411344, 0.0, 0.0, 0.0, 1.411344, 0.0, 0.0, 0.0, 3.2328040000000002)",2
2025/07/05/17:44:22.162384,7345,1751712261,975134272,base_link,0,1,-7.2870578,112.79592,47.50520397831093,"(1.411344, 0.0, 0.0, 0.0, 1.411344, 0.0, 0.0, 0.0, 3.2328040000000002)",2
2025/07/05/17:44:22.263696,7346,1751712262,175140672,base_link,0,1,-7.2870574,112.7959207,47.55520717920568,"(1.3994890000000002, 0.0, 0.0, 0.0, 1.3994890000000002, 0.0, 0.0, 0.0, 3.2328040000000002)",2
2025/07/05/17:44:22.404200,7347,1751712262,375146560,base_link,0,1,-7.2870568,112.7959213,47.53521057556108,"(1.3947610000000001, 0.0, 0.0, 0.0, 1.3947610000000001, 0.0, 0.0, 0.0, 3.236401)",2
2025/07/05/17:44:22.545216,7348,1751712262,375153472,base_link,0,1,-7.2870568,112.7959213,47.53521057556108,"(1.3947610000000001, 0.0, 0.0, 0.0, 1.3947610000000001, 0.0, 0.0, 0.0, 3.236401)",2
2025/07/05/17:44:22.643845,7349,1751712262,575159616,base_link,0,1,-7.2870563,112.7959216,47.55521278142088,"(1.390041, 0.0, 0.0, 0.0, 1.390041, 0.0, 0.0, 0.0, 3.236401)",2
2025/07/05/17:44:22.722938,7350,1751712262,575166016,base_link,0,1,-7.2870563,112.7959216,47.55521278142088,"(1.390041, 0.0, 0.0, 0.0, 1.390041, 0.0, 0.0, 0.0, 3.236401)",2
2025/07/05/17:44:22.805878,7351,1751712262,775172416,base_link,0,1,-7.287056,112.7959218,47.63521416738277,"(1.385329, 0.0, 0.0, 0.0, 1.385329, 0.0, 0.0, 0.0, 3.2076809999999996)",2
2025/07/05/17:44:22.881878,7352,1751712262,775177536,base_link,0,1,-7.287056,112.7959218,47.63521416738277,"(1.385329, 0.0, 0.0, 0.0, 1.385329, 0.0, 0.0, 0.0, 3.2076809999999996)",2
2025/07/05/17:44:23.004780,7353,1751712262,975184448,base_link,0,1,-7.2870557,112.7959221,47.625215865566815,"(1.3759290000000002, 0.0, 0.0, 0.0, 1.3759290000000002, 0.0, 0.0, 0.0, 3.1969440000000002)",2
2025/07/05/17:44:23.082632,7354,1751712262,975191872,base_link,0,1,-7.2870557,112.7959221,47.625215865566815,"(1.3759290000000002, 0.0, 0.0, 0.0, 1.3759290000000002, 0.0, 0.0, 0.0, 3.1969440000000002)",2
2025/07/05/17:44:23.182611,7355,1751712262,975197760,base_link,0,1,-7.2870557,112.7959221,47.625215865566815,"(1.3759290000000002, 0.0, 0.0, 0.0, 1.3759290000000002, 0.0, 0.0, 0.0, 3.1969440000000002)",2
2025/07/05/17:44:23.303403,7356,1751712263,175203904,base_link,0,1,-7.2870555,112.7959225,47.58521762213174,"(1.3479210000000001, 0.0, 0.0, 0.0, 1.3479210000000001, 0.0, 0.0, 0.0, 3.1684)",2
2025/07/05/17:44:23.426237,7357,1751712263,375208512,base_link,0,1,-7.287055,112.7959227,47.59521951578151,"(1.334025, 0.0, 0.0, 0.0, 1.334025, 0.0, 0.0, 0.0, 3.1719609999999996)",2
2025/07/05/17:44:23.562689,7358,1751712263,375220032,base_link,0,1,-7.287055,112.7959227,47.59521951578151,"(1.334025, 0.0, 0.0, 0.0, 1.334025, 0.0, 0.0, 0.0, 3.1719609999999996)",2
2025/07/05/17:44:23.662538,7359,1751712263,575225152,base_link,0,1,-7.2870543,112.7959228,47.61522160489956,"(1.3363359999999997, 0.0, 0.0, 0.0, 1.3363359999999997, 0.0, 0.0, 0.0, 3.1933689999999997)",2
2025/07/05/17:44:23.762665,7360,1751712263,575230528,base_link,0,1,-7.2870543,112.7959228,47.61522160489956,"(1.3363359999999997, 0.0, 0.0, 0.0, 1.3363359999999997, 0.0, 0.0, 0.0, 3.1933689999999997)",2
2025/07/05/17:44:23.842083,7361,1751712263,775230528,base_link,0,1,-7.2870537,112.7959229,47.615223440180316,"(1.338649, 0.0, 0.0, 0.0, 1.338649, 0.0, 0.0, 0.0, 3.1933689999999997)",2
2025/07/05/17:44:23.943310,7362,1751712263,775236160,base_link,0,1,-7.2870537,112.7959229,47.615223440180316,"(1.338649, 0.0, 0.0, 0.0, 1.338649, 0.0, 0.0, 0.0, 3.1933689999999997)",2
2025/07/05/17:44:24.041717,7363,1751712263,975243072,base_link,0,1,-7.2870532,112.7959232,47.63522564606441,"(1.3409639999999998, 0.0, 0.0, 0.0, 1.3409639999999998, 0.0, 0.0, 0.0, 3.1897960000000003)",2
2025/07/05/17:44:24.123037,7364,1751712263,975249216,base_link,0,1,-7.2870532,112.7959232,47.63522564606441,"(1.3409639999999998, 0.0, 0.0, 0.0, 1.3409639999999998, 0.0, 0.0, 0.0, 3.1897960000000003)",2
2025/07/05/17:44:24.226329,7365,1751712264,175255872,base_link,0,1,-7.2870526,112.7959235,47.63522810579761,"(1.3479210000000001, 0.0, 0.0, 0.0, 1.3479210000000001, 0.0, 0.0, 0.0, 3.1897960000000003)",2
2025/07/05/17:44:24.310462,7366,1751712264,175263040,base_link,0,1,-7.2870526,112.7959235,47.63522810579761,"(1.3479210000000001, 0.0, 0.0, 0.0, 1.3479210000000001, 0.0, 0.0, 0.0, 3.1897960000000003)",2
2025/07/05/17:44:24.445491,7367,1751712264,375270464,base_link,0,1,-7.2870521,112.7959238,47.715230311690355,"(1.3548959999999999, 0.0, 0.0, 0.0, 1.3548959999999999, 0.0, 0.0, 0.0, 3.161284)",2
2025/07/05/17:44:24.604337,7368,1751712264,575285312,base_link,0,1,-7.2870517,112.795924,47.735231951518685,"(1.3595559999999998, 0.0, 0.0, 0.0, 1.3595559999999998, 0.0, 0.0, 0.0, 3.157729)",2
2025/07/05/17:44:24.683480,7369,1751712264,575290432,base_link,0,1,-7.2870517,112.795924,47.735231951518685,"(1.3595559999999998, 0.0, 0.0, 0.0, 1.3595559999999998, 0.0, 0.0, 0.0, 3.157729)",2
2025/07/05/17:44:24.804457,7370,1751712264,775296832,base_link,0,1,-7.2870511,112.7959243,47.77523441126577,"(1.3618890000000001, 0.0, 0.0, 0.0, 1.3618890000000001, 0.0, 0.0, 0.0, 3.1755240000000002)",2
2025/07/05/17:44:24.903870,7371,1751712264,775303232,base_link,0,1,-7.2870511,112.7959243,47.77523441126577,"(1.3618890000000001, 0.0, 0.0, 0.0, 1.3618890000000001, 0.0, 0.0, 0.0, 3.1755240000000002)",2
2025/07/05/17:44:25.025841,7372,1751712264,975310144,base_link,0,1,-7.2870506,112.7959246,47.81523661717034,"(1.3688999999999998, 0.0, 0.0, 0.0, 1.3688999999999998, 0.0, 0.0, 0.0, 3.2005209999999997)",2
2025/07/05/17:44:25.104448,7373,1751712264,975316800,base_link,0,1,-7.2870506,112.7959246,47.81523661717034,"(1.3688999999999998, 0.0, 0.0, 0.0, 1.3688999999999998, 0.0, 0.0, 0.0, 3.2005209999999997)",2
2025/07/05/17:44:25.204574,7374,1751712265,175324736,base_link,0,1,-7.2870503,112.7959248,47.84523800315938,"(1.373584, 0.0, 0.0, 0.0, 1.373584, 0.0, 0.0, 0.0, 3.2041)",2
2025/07/05/17:44:25.281729,7375,1751712265,175329600,base_link,0,1,-7.2870503,112.7959248,47.84523800315938,"(1.373584, 0.0, 0.0, 0.0, 1.373584, 0.0, 0.0, 0.0, 3.2041)",2
2025/07/05/17:44:25.404672,7376,1751712265,375335232,base_link,0,1,-7.2870499,112.795925,47.9452396429989,"(1.3782759999999998, 0.0, 0.0, 0.0, 1.3782759999999998, 0.0, 0.0, 0.0, 3.186225)",2
2025/07/05/17:44:25.562139,7377,1751712265,375347264,base_link,0,1,-7.2870499,112.795925,47.9452396429989,"(1.3782759999999998, 0.0, 0.0, 0.0, 1.3782759999999998, 0.0, 0.0, 0.0, 3.186225)",2
2025/07/05/17:44:25.662824,7378,1751712265,575353408,base_link,0,1,-7.2870495,112.7959252,48.06524128284093,"(1.385329, 0.0, 0.0, 0.0, 1.385329, 0.0, 0.0, 0.0, 3.154176)",2
2025/07/05/17:44:25.762300,7379,1751712265,575358016,base_link,0,1,-7.2870495,112.7959252,48.06524128284093,"(1.385329, 0.0, 0.0, 0.0, 1.385329, 0.0, 0.0, 0.0, 3.154176)",2
2025/07/05/17:44:25.862764,7380,1751712265,775363648,base_link,0,1,-7.2870492,112.7959254,48.13524266883522,"(1.390041, 0.0, 0.0, 0.0, 1.390041, 0.0, 0.0, 0.0, 3.1364409999999996)",2
2025/07/05/17:44:25.943677,7381,1751712265,775363648,base_link,0,1,-7.2870492,112.7959254,48.13524266883522,"(1.390041, 0.0, 0.0, 0.0, 1.390041, 0.0, 0.0, 0.0, 3.1364409999999996)",2
2025/07/05/17:44:26.062288,7382,1751712265,975374144,base_link,0,1,-7.2870488,112.7959256,48.19524430868154,"(1.3971239999999998, 0.0, 0.0, 0.0, 1.3971239999999998, 0.0, 0.0, 0.0, 3.1435289999999996)",2
2025/07/05/17:44:26.162252,7383,1751712265,975379008,base_link,0,1,-7.2870488,112.7959256,48.19524430868154,"(1.3971239999999998, 0.0, 0.0, 0.0, 1.3971239999999998, 0.0, 0.0, 0.0, 3.1435289999999996)",2
2025/07/05/17:44:26.263048,7384,1751712266,175384896,base_link,0,1,-7.2870484,112.7959258,48.24524594853041,"(1.404225, 0.0, 0.0, 0.0, 1.404225, 0.0, 0.0, 0.0, 3.154176)",2
2025/07/05/17:44:26.362118,7385,1751712266,175389504,base_link,0,1,-7.2870484,112.7959258,48.24524594853041,"(1.404225, 0.0, 0.0, 0.0, 1.404225, 0.0, 0.0, 0.0, 3.154176)",2
2025/07/05/17:44:26.522943,7386,1751712266,375394880,base_link,0,1,-7.287048,112.7959261,48.285247900604304,"(1.4137210000000002, 0.0, 0.0, 0.0, 1.4137210000000002, 0.0, 0.0, 0.0, 3.182656)",2
2025/07/05/17:44:26.604381,7387,1751712266,575399744,base_link,0,1,-7.2870477,112.7959264,48.33524959882844,"(1.420864, 0.0, 0.0, 0.0, 1.420864, 0.0, 0.0, 0.0, 3.2112640000000003)",2
2025/07/05/17:44:26.682713,7388,1751712266,575405120,base_link,0,1,-7.2870477,112.7959264,48.33524959882844,"(1.420864, 0.0, 0.0, 0.0, 1.420864, 0.0, 0.0, 0.0, 3.2112640000000003)",2
2025/07/05/17:44:26.782570,7389,1751712266,575413312,base_link,0,1,-7.2870477,112.7959264,48.33524959882844,"(1.420864, 0.0, 0.0, 0.0, 1.420864, 0.0, 0.0, 0.0, 3.2112640000000003)",2
2025/07/05/17:44:26.903678,7390,1751712266,775421504,base_link,0,1,-7.2870474,112.7959267,48.36525129705406,"(1.430416, 0.0, 0.0, 0.0, 1.430416, 0.0, 0.0, 0.0, 3.2328040000000002)",2
2025/07/05/17:44:27.004422,7391,1751712266,975427392,base_link,0,1,-7.287047,112.7959269,48.395252936911945,"(1.435204, 0.0, 0.0, 0.0, 1.435204, 0.0, 0.0, 0.0, 3.243601)",2
2025/07/05/17:44:27.083981,7392,1751712266,975433024,base_link,0,1,-7.287047,112.7959269,48.395252936911945,"(1.435204, 0.0, 0.0, 0.0, 1.435204, 0.0, 0.0, 0.0, 3.243601)",2
2025/07/05/17:44:27.183085,7393,1751712266,975433024,base_link,0,1,-7.287047,112.7959269,48.395252936911945,"(1.435204, 0.0, 0.0, 0.0, 1.435204, 0.0, 0.0, 0.0, 3.243601)",2
2025/07/05/17:44:27.303483,7394,1751712267,175439680,base_link,0,1,-7.2870468,112.795927,48.4252537568418,"(1.4376010000000001, 0.0, 0.0, 0.0, 1.4376010000000001, 0.0, 0.0, 0.0, 3.265249)",2
2025/07/05/17:44:27.382638,7395,1751712267,175445824,base_link,0,1,-7.2870468,112.795927,48.4252537568418,"(1.4376010000000001, 0.0, 0.0, 0.0, 1.4376010000000001, 0.0, 0.0, 0.0, 3.265249)",2
2025/07/05/17:44:27.562173,7396,1751712267,375458880,base_link,0,1,-7.2870465,112.7959272,48.475255142849136,"(1.4424010000000003, 0.0, 0.0, 0.0, 1.4424010000000003, 0.0, 0.0, 0.0, 3.2905960000000003)",2
2025/07/05/17:44:27.662721,7397,1751712267,575464000,base_link,0,1,-7.2870462,112.7959276,48.505257153303745,"(1.4472090000000002, 0.0, 0.0, 0.0, 1.4472090000000002, 0.0, 0.0, 0.0, 3.319684)",2
2025/07/05/17:44:27.783872,7398,1751712267,575470656,base_link,0,1,-7.2870462,112.7959276,48.505257153303745,"(1.4472090000000002, 0.0, 0.0, 0.0, 1.4472090000000002, 0.0, 0.0, 0.0, 3.319684)",2
2025/07/05/17:44:27.903831,7399,1751712267,775476544,base_link,0,1,-7.287046,112.7959277,48.565257973236214,"(1.4544359999999998, 0.0, 0.0, 0.0, 1.4544359999999998, 0.0, 0.0, 0.0, 3.337929)",2
2025/07/05/17:44:27.983042,7400,1751712267,775482688,base_link,0,1,-7.287046,112.7959277,48.565257973236214,"(1.4544359999999998, 0.0, 0.0, 0.0, 1.4544359999999998, 0.0, 0.0, 0.0, 3.337929)",2
2025/07/05/17:44:28.102875,7401,1751712267,975488832,base_link,0,1,-7.2870457,112.7959277,48.62525873480155,"(1.4616810000000002, 0.0, 0.0, 0.0, 1.4616810000000002, 0.0, 0.0, 0.0, 3.3525609999999997)",2
2025/07/05/17:44:28.204469,7402,1751712268,175488832,base_link,0,1,-7.2870455,112.7959278,48.67525955473549,"(1.4665210000000002, 0.0, 0.0, 0.0, 1.4665210000000002, 0.0, 0.0, 0.0, 3.356224)",2
2025/07/05/17:44:28.282479,7403,1751712268,175493440,base_link,0,1,-7.2870455,112.7959278,48.67525955473549,"(1.4665210000000002, 0.0, 0.0, 0.0, 1.4665210000000002, 0.0, 0.0, 0.0, 3.356224)",2
2025/07/05/17:44:28.404595,7404,1751712268,375498816,base_link,0,1,-7.2870453,112.7959279,48.775260374670054,"(1.468944, 0.0, 0.0, 0.0, 1.468944, 0.0, 0.0, 0.0, 3.341584)",2
2025/07/05/17:44:28.582309,7405,1751712268,375507008,base_link,0,1,-7.2870453,112.7959279,48.775260374670054,"(1.468944, 0.0, 0.0, 0.0, 1.468944, 0.0, 0.0, 0.0, 3.341584)",2
2025/07/05/17:44:28.683035,7406,1751712268,575507008,base_link,0,1,-7.2870452,112.7959278,48.88526031630275,"(1.468944, 0.0, 0.0, 0.0, 1.468944, 0.0, 0.0, 0.0, 3.316041)",2
2025/07/05/17:44:28.803943,7407,1751712268,775507008,base_link,0,1,-7.287045,112.7959279,49.02526113623814,"(1.468944, 0.0, 0.0, 0.0, 1.468944, 0.0, 0.0, 0.0, 3.2905960000000003)",2
2025/07/05/17:44:28.881976,7408,1751712268,775512384,base_link,0,1,-7.287045,112.7959279,49.02526113623814,"(1.468944, 0.0, 0.0, 0.0, 1.468944, 0.0, 0.0, 0.0, 3.2905960000000003)",2
2025/07/05/17:44:28.983495,7409,1751712268,775519040,base_link,0,1,-7.287045,112.7959279,49.02526113623814,"(1.468944, 0.0, 0.0, 0.0, 1.468944, 0.0, 0.0, 0.0, 3.2905960000000003)",2
2025/07/05/17:44:29.062454,7410,1751712268,975524160,base_link,0,1,-7.2870448,112.795928,49.055261956174164,"(1.4665210000000002, 0.0, 0.0, 0.0, 1.4665210000000002, 0.0, 0.0, 0.0, 3.272481)",2
2025/07/05/17:44:29.162241,7411,1751712268,975524160,base_link,0,1,-7.2870448,112.795928,49.055261956174164,"(1.4665210000000002, 0.0, 0.0, 0.0, 1.4665210000000002, 0.0, 0.0, 0.0, 3.272481)",2
2025/07/05/17:44:29.262479,7412,1751712269,175529024,base_link,0,1,-7.2870447,112.7959283,49.09526314670063,"(1.4641, 0.0, 0.0, 0.0, 1.4641, 0.0, 0.0, 0.0, 3.272481)",2
2025/07/05/17:44:29.362012,7413,1751712269,175533632,base_link,0,1,-7.2870447,112.7959283,49.09526314670063,"(1.4641, 0.0, 0.0, 0.0, 1.4641, 0.0, 0.0, 0.0, 3.272481)",2
2025/07/05/17:44:29.542641,7414,1751712269,375539776,base_link,0,1,-7.2870444,112.7959284,49.095264220494784,"(1.4616810000000002, 0.0, 0.0, 0.0, 1.4616810000000002, 0.0, 0.0, 0.0, 3.2869689999999996)",2
2025/07/05/17:44:29.644636,7415,1751712269,575545664,base_link,0,1,-7.2870442,112.7959286,49.0952653526561,"(1.459264, 0.0, 0.0, 0.0, 1.459264, 0.0, 0.0, 0.0, 3.3014889999999997)",2
2025/07/05/17:44:29.722468,7416,1751712269,575552320,base_link,0,1,-7.2870442,112.7959286,49.0952653526561,"(1.459264, 0.0, 0.0, 0.0, 1.459264, 0.0, 0.0, 0.0, 3.3014889999999997)",2
2025/07/05/17:44:29.804183,7417,1751712269,775557184,base_link,0,1,-7.2870439,112.7959287,49.10526642645261,"(1.459264, 0.0, 0.0, 0.0, 1.459264, 0.0, 0.0, 0.0, 3.319684)",2
2025/07/05/17:44:29.905219,7418,1751712269,775557184,base_link,0,1,-7.2870439,112.7959287,49.10526642645261,"(1.459264, 0.0, 0.0, 0.0, 1.459264, 0.0, 0.0, 0.0, 3.319684)",2
2025/07/05/17:44:30.004288,7419,1751712269,975563072,base_link,0,1,-7.2870436,112.7959289,49.14526781247385,"(1.4641, 0.0, 0.0, 0.0, 1.4641, 0.0, 0.0, 0.0, 3.3489000000000004)",2
2025/07/05/17:44:30.082196,7420,1751712269,975568192,base_link,0,1,-7.2870436,112.7959289,49.14526781247385,"(1.4641, 0.0, 0.0, 0.0, 1.4641, 0.0, 0.0, 0.0, 3.3489000000000004)",2
2025/07/05/17:44:30.204900,7421,1751712270,175568192,base_link,0,1,-7.2870434,112.795929,49.24526863241432,"(1.4665210000000002, 0.0, 0.0, 0.0, 1.4665210000000002, 0.0, 0.0, 0.0, 3.3745689999999997)",2
2025/07/05/17:44:30.304410,7422,1751712270,175568192,base_link,0,1,-7.2870434,112.795929,49.24526863241432,"(1.4665210000000002, 0.0, 0.0, 0.0, 1.4665210000000002, 0.0, 0.0, 0.0, 3.3745689999999997)",2
2025/07/05/17:44:30.383336,7423,1751712270,175573312,base_link,0,1,-7.2870434,112.795929,49.24526863241432,"(1.4665210000000002, 0.0, 0.0, 0.0, 1.4665210000000002, 0.0, 0.0, 0.0, 3.3745689999999997)",2
2025/07/05/17:44:30.542321,7424,1751712270,375580480,base_link,0,1,-7.2870433,112.7959291,49.31526919849662,"(1.468944, 0.0, 0.0, 0.0, 1.468944, 0.0, 0.0, 0.0, 3.392964)",2
2025/07/05/17:44:30.645055,7425,1751712270,575587392,base_link,0,1,-7.2870431,112.7959294,49.305270642885304,"(1.4737959999999999, 0.0, 0.0, 0.0, 1.4737959999999999, 0.0, 0.0, 0.0, 3.4188009999999998)",2
2025/07/05/17:44:30.742849,7426,1751712270,575594304,base_link,0,1,-7.2870431,112.7959294,49.305270642885304,"(1.4737959999999999, 0.0, 0.0, 0.0, 1.4737959999999999, 0.0, 0.0, 0.0, 3.4188009999999998)",2
2025/07/05/17:44:30.845077,7427,1751712270,775600704,base_link,0,1,-7.2870427,112.7959295,49.375271970546436,"(1.478656, 0.0, 0.0, 0.0, 1.478656, 0.0, 0.0, 0.0, 3.426201)",2
2025/07/05/17:44:30.962958,7428,1751712270,775613504,base_link,0,1,-7.2870427,112.7959295,49.375271970546436,"(1.478656, 0.0, 0.0, 0.0, 1.478656, 0.0, 0.0, 0.0, 3.426201)",2
2025/07/05/17:44:31.062890,7429,1751712270,975613504,base_link,0,1,-7.2870424,112.7959297,49.41527335657355,"(1.4835239999999998, 0.0, 0.0, 0.0, 1.4835239999999998, 0.0, 0.0, 0.0, 3.4225000000000003)",2
2025/07/05/17:44:31.162347,7430,1751712270,975618112,base_link,0,1,-7.2870424,112.7959297,49.41527335657355,"(1.4835239999999998, 0.0, 0.0, 0.0, 1.4835239999999998, 0.0, 0.0, 0.0, 3.4225000000000003)",2
2025/07/05/17:44:31.263918,7431,1751712271,175622976,base_link,0,1,-7.2870422,112.7959298,49.52527417651778,"(1.4835239999999998, 0.0, 0.0, 0.0, 1.4835239999999998, 0.0, 0.0, 0.0, 3.404025)",2
2025/07/05/17:44:31.362756,7432,1751712271,175628352,base_link,0,1,-7.2870422,112.7959298,49.52527417651778,"(1.4835239999999998, 0.0, 0.0, 0.0, 1.4835239999999998, 0.0, 0.0, 0.0, 3.404025)",2
2025/07/05/17:44:31.523294,7433,1751712271,375633728,base_link,0,1,-7.2870423,112.79593,49.57527454710502,"(1.481089, 0.0, 0.0, 0.0, 1.481089, 0.0, 0.0, 0.0, 3.3819209999999997)",2
2025/07/05/17:44:31.625333,7434,1751712271,575639872,base_link,0,1,-7.2870424,112.7959301,49.64527460546843,"(1.478656, 0.0, 0.0, 0.0, 1.478656, 0.0, 0.0, 0.0, 3.3525609999999997)",2
2025/07/05/17:44:31.704071,7435,1751712271,575639872,base_link,0,1,-7.2870424,112.7959301,49.64527460546843,"(1.478656, 0.0, 0.0, 0.0, 1.478656, 0.0, 0.0, 0.0, 3.3525609999999997)",2
2025/07/05/17:44:31.804448,7436,1751712271,775639872,base_link,0,1,-7.2870425,112.7959304,49.745275288279046,"(1.4713690000000001, 0.0, 0.0, 0.0, 1.4713690000000001, 0.0, 0.0, 0.0, 3.316041)",2
2025/07/05/17:44:31.881906,7437,1751712271,775639872,base_link,0,1,-7.2870425,112.7959304,49.745275288279046,"(1.4713690000000001, 0.0, 0.0, 0.0, 1.4713690000000001, 0.0, 0.0, 0.0, 3.316041)",2
2025/07/05/17:44:32.003024,7438,1751712271,775646528,base_link,0,1,-7.2870425,112.7959304,49.745275288279046,"(1.4713690000000001, 0.0, 0.0, 0.0, 1.4713690000000001, 0.0, 0.0, 0.0, 3.316041)",2
2025/07/05/17:44:32.082114,7439,1751712271,975651648,base_link,0,1,-7.2870425,112.7959306,49.785275912726036,"(1.4616810000000002, 0.0, 0.0, 0.0, 1.4616810000000002, 0.0, 0.0, 0.0, 3.2905960000000003)",2
2025/07/05/17:44:32.181443,7440,1751712271,975655488,base_link,0,1,-7.2870425,112.7959306,49.785275912726036,"(1.4616810000000002, 0.0, 0.0, 0.0, 1.4616810000000002, 0.0, 0.0, 0.0, 3.2905960000000003)",2
2025/07/05/17:44:32.302442,7441,1751712272,175661120,base_link,0,1,-7.2870423,112.7959307,49.84527673267047,"(1.4472090000000002, 0.0, 0.0, 0.0, 1.4472090000000002, 0.0, 0.0, 0.0, 3.261636)",2
2025/07/05/17:44:32.423339,7442,1751712272,375666496,base_link,0,1,-7.2870423,112.7959308,49.97527704489397,"(1.430416, 0.0, 0.0, 0.0, 1.430416, 0.0, 0.0, 0.0, 3.2005209999999997)",2
2025/07/05/17:44:32.604071,7443,1751712272,575679296,base_link,0,1,-7.2870424,112.795931,50.04527741548032,"(1.3971239999999998, 0.0, 0.0, 0.0, 1.3971239999999998, 0.0, 0.0, 0.0, 3.118756)",2
2025/07/05/17:44:32.703442,7444,1751712272,575679296,base_link,0,1,-7.2870424,112.795931,50.04527741548032,"(1.3971239999999998, 0.0, 0.0, 0.0, 1.3971239999999998, 0.0, 0.0, 0.0, 3.118756)",2
2025/07/05/17:44:32.805213,7445,1751712272,775683136,base_link,0,1,-7.2870425,112.7959314,50.105278410513115,"(1.3618890000000001, 0.0, 0.0, 0.0, 1.3618890000000001, 0.0, 0.0, 0.0, 3.048516)",2
2025/07/05/17:44:32.902487,7446,1751712272,775683136,base_link,0,1,-7.2870425,112.7959314,50.105278410513115,"(1.3618890000000001, 0.0, 0.0, 0.0, 1.3618890000000001, 0.0, 0.0, 0.0, 3.048516)",2
2025/07/05/17:44:33.004258,7447,1751712272,975687488,base_link,0,1,-7.2870428,112.7959318,50.12527889782422,"(1.331716, 0.0, 0.0, 0.0, 1.331716, 0.0, 0.0, 0.0, 2.9929)",2
2025/07/05/17:44:33.081705,7448,1751712272,975692096,base_link,0,1,-7.2870428,112.7959318,50.12527889782422,"(1.331716, 0.0, 0.0, 0.0, 1.331716, 0.0, 0.0, 0.0, 2.9929)",2
2025/07/05/17:44:33.182170,7449,1751712272,975692096,base_link,0,1,-7.2870428,112.7959318,50.12527889782422,"(1.331716, 0.0, 0.0, 0.0, 1.331716, 0.0, 0.0, 0.0, 2.9929)",2
2025/07/05/17:44:33.262053,7450,1751712273,175696960,base_link,0,1,-7.2870431,112.795932,50.13527876068923,"(1.3041639999999999, 0.0, 0.0, 0.0, 1.3041639999999999, 0.0, 0.0, 0.0, 2.9446559999999997)",2
2025/07/05/17:44:33.362287,7451,1751712273,175701824,base_link,0,1,-7.2870431,112.795932,50.13527876068923,"(1.3041639999999999, 0.0, 0.0, 0.0, 1.3041639999999999, 0.0, 0.0, 0.0, 2.9446559999999997)",2
2025/07/05/17:44:33.522849,7452,1751712273,375706944,base_link,0,1,-7.2870432,112.7959323,50.16527944349761,"(1.2859559999999999, 0.0, 0.0, 0.0, 1.2859559999999999, 0.0, 0.0, 0.0, 2.9070250000000004)",2
2025/07/05/17:44:33.625220,7453,1751712273,575712320,base_link,0,1,-7.2870433,112.7959325,50.20527981408294,"(1.274641, 0.0, 0.0, 0.0, 1.274641, 0.0, 0.0, 0.0, 2.876416)",2
2025/07/05/17:44:33.723078,7454,1751712273,575712320,base_link,0,1,-7.2870433,112.7959325,50.20527981408294,"(1.274641, 0.0, 0.0, 0.0, 1.274641, 0.0, 0.0, 0.0, 2.876416)",2
2025/07/05/17:44:33.803863,7455,1751712273,775716928,base_link,0,1,-7.2870434,112.7959327,50.215280184668096,"(1.2678759999999998, 0.0, 0.0, 0.0, 1.2678759999999998, 0.0, 0.0, 0.0, 2.845969)",2
2025/07/05/17:44:33.903518,7456,1751712273,775716928,base_link,0,1,-7.2870434,112.7959327,50.215280184668096,"(1.2678759999999998, 0.0, 0.0, 0.0, 1.2678759999999998, 0.0, 0.0, 0.0, 2.845969)",2
2025/07/05/17:44:34.004166,7457,1751712273,975722816,base_link,0,1,-7.2870435,112.7959328,50.19528024303062,"(1.261129, 0.0, 0.0, 0.0, 1.261129, 0.0, 0.0, 0.0, 2.812329)",2
2025/07/05/17:44:34.103189,7458,1751712273,975726912,base_link,0,1,-7.2870435,112.7959328,50.19528024303062,"(1.261129, 0.0, 0.0, 0.0, 1.261129, 0.0, 0.0, 0.0, 2.812329)",2
2025/07/05/17:44:34.182871,7459,1751712273,975726912,base_link,0,1,-7.2870435,112.7959328,50.19528024303062,"(1.261129, 0.0, 0.0, 0.0, 1.261129, 0.0, 0.0, 0.0, 2.812329)",2
2025/07/05/17:44:34.262102,7460,1751712274,175731776,base_link,0,1,-7.2870435,112.7959329,50.23528055525311,"(1.2544000000000002, 0.0, 0.0, 0.0, 1.2544000000000002, 0.0, 0.0, 0.0, 2.782224)",2
2025/07/05/17:44:34.362910,7461,1751712274,175738176,base_link,0,1,-7.2870435,112.7959329,50.23528055525311,"(1.2544000000000002, 0.0, 0.0, 0.0, 1.2544000000000002, 0.0, 0.0, 0.0, 2.782224)",2
2025/07/05/17:44:34.523186,7462,1751712274,375744832,base_link,0,1,-7.2870438,112.7959332,50.235280730340676,"(1.247689, 0.0, 0.0, 0.0, 1.247689, 0.0, 0.0, 0.0, 2.752281)",2
2025/07/05/17:44:34.641810,7463,1751712274,575751232,base_link,0,1,-7.287044,112.7959334,50.28528084706579,"(1.2365440000000003, 0.0, 0.0, 0.0, 1.2365440000000003, 0.0, 0.0, 0.0, 2.7224999999999997)",2
2025/07/05/17:44:34.742033,7464,1751712274,575757376,base_link,0,1,-7.287044,112.7959334,50.28528084706579,"(1.2365440000000003, 0.0, 0.0, 0.0, 1.2365440000000003, 0.0, 0.0, 0.0, 2.7224999999999997)",2
2025/07/05/17:44:34.861821,7465,1751712274,775768896,base_link,0,1,-7.2870443,112.7959336,50.30528070993158,"(1.2276640000000003, 0.0, 0.0, 0.0, 1.2276640000000003, 0.0, 0.0, 0.0, 2.699449)",2
2025/07/05/17:44:34.941717,7466,1751712274,775768896,base_link,0,1,-7.2870443,112.7959336,50.30528070993158,"(1.2276640000000003, 0.0, 0.0, 0.0, 1.2276640000000003, 0.0, 0.0, 0.0, 2.699449)",2
2025/07/05/17:44:35.041471,7467,1751712274,975774528,base_link,0,1,-7.2870446,112.7959338,50.355280572797945,"(1.2188160000000001, 0.0, 0.0, 0.0, 1.2188160000000001, 0.0, 0.0, 0.0, 2.6764959999999998)",2
2025/07/05/17:44:35.122831,7468,1751712274,975779136,base_link,0,1,-7.2870446,112.7959338,50.355280572797945,"(1.2188160000000001, 0.0, 0.0, 0.0, 1.2188160000000001, 0.0, 0.0, 0.0, 2.6764959999999998)",2
2025/07/05/17:44:35.203493,7469,1751712275,175784768,base_link,0,1,-7.287045,112.7959341,50.405280494027714,"(1.2100000000000002, 0.0, 0.0, 0.0, 1.2100000000000002, 0.0, 0.0, 0.0, 2.653641)",2
2025/07/05/17:44:35.302829,7470,1751712275,175784768,base_link,0,1,-7.287045,112.7959341,50.405280494027714,"(1.2100000000000002, 0.0, 0.0, 0.0, 1.2100000000000002, 0.0, 0.0, 0.0, 2.653641)",2
2025/07/05/17:44:35.425804,7471,1751712275,375788608,base_link,0,1,-7.2870452,112.7959342,50.45528029853223,"(1.2012160000000003, 0.0, 0.0, 0.0, 1.2012160000000003, 0.0, 0.0, 0.0, 2.6308840000000004)",2
2025/07/05/17:44:35.561839,7472,1751712275,375797312,base_link,0,1,-7.2870452,112.7959342,50.45528029853223,"(1.2012160000000003, 0.0, 0.0, 0.0, 1.2012160000000003, 0.0, 0.0, 0.0, 2.6308840000000004)",2
2025/07/05/17:44:35.662493,7473,1751712275,575802432,base_link,0,1,-7.2870455,112.7959344,50.54528016140015,"(1.1881000000000002, 0.0, 0.0, 0.0, 1.1881000000000002, 0.0, 0.0, 0.0, 2.608225)",2
2025/07/05/17:44:35.762111,7474,1751712275,575807040,base_link,0,1,-7.2870455,112.7959344,50.54528016140015,"(1.1881000000000002, 0.0, 0.0, 0.0, 1.1881000000000002, 0.0, 0.0, 0.0, 2.608225)",2
2025/07/05/17:44:35.861910,7475,1751712275,775810624,base_link,0,1,-7.2870459,112.7959346,50.605279770410796,"(1.177225, 0.0, 0.0, 0.0, 1.177225, 0.0, 0.0, 0.0, 2.5792360000000003)",2
2025/07/05/17:44:35.961906,7476,1751712275,775810624,base_link,0,1,-7.2870459,112.7959346,50.605279770410796,"(1.177225, 0.0, 0.0, 0.0, 1.177225, 0.0, 0.0, 0.0, 2.5792360000000003)",2
2025/07/05/17:44:36.061758,7477,1751712275,975815488,base_link,0,1,-7.2870462,112.7959347,50.67527932105922,"(1.1642409999999999, 0.0, 0.0, 0.0, 1.1642409999999999, 0.0, 0.0, 0.0, 2.5504089999999997)",2
2025/07/05/17:44:36.161950,7478,1751712275,975819840,base_link,0,1,-7.2870462,112.7959347,50.67527932105922,"(1.1642409999999999, 0.0, 0.0, 0.0, 1.1642409999999999, 0.0, 0.0, 0.0, 2.5504089999999997)",2
2025/07/05/17:44:36.262035,7479,1751712276,175824704,base_link,0,1,-7.2870466,112.7959348,50.705278617851334,"(1.1534760000000002, 0.0, 0.0, 0.0, 1.1534760000000002, 0.0, 0.0, 0.0, 2.524921)",2
2025/07/05/17:44:36.361951,7480,1751712276,175829312,base_link,0,1,-7.2870466,112.7959348,50.705278617851334,"(1.1534760000000002, 0.0, 0.0, 0.0, 1.1534760000000002, 0.0, 0.0, 0.0, 2.524921)",2
2025/07/05/17:44:36.541634,7481,1751712276,375834432,base_link,0,1,-7.2870469,112.7959349,50.765278168501695,"(1.142761, 0.0, 0.0, 0.0, 1.142761, 0.0, 0.0, 0.0, 2.499561)",2
2025/07/05/17:44:36.641399,7482,1751712276,575840064,base_link,0,1,-7.2870473,112.7959351,50.815277777517025,"(1.1320960000000002, 0.0, 0.0, 0.0, 1.1320960000000002, 0.0, 0.0, 0.0, 2.474329)",2
2025/07/05/17:44:36.722700,7483,1751712276,575845696,base_link,0,1,-7.2870473,112.7959351,50.815277777517025,"(1.1320960000000002, 0.0, 0.0, 0.0, 1.1320960000000002, 0.0, 0.0, 0.0, 2.474329)",2
2025/07/05/17:44:36.825014,7484,1751712276,775850048,base_link,0,1,-7.2870476,112.7959352,50.84527732816926,"(1.121481, 0.0, 0.0, 0.0, 1.121481, 0.0, 0.0, 0.0, 2.4492249999999998)",2
2025/07/05/17:44:36.922718,7485,1751712276,775850048,base_link,0,1,-7.2870476,112.7959352,50.84527732816926,"(1.121481, 0.0, 0.0, 0.0, 1.121481, 0.0, 0.0, 0.0, 2.4492249999999998)",2
2025/07/05/17:44:37.041485,7486,1751712276,975854400,base_link,0,1,-7.2870478,112.7959353,50.88527713267791,"(1.113025, 0.0, 0.0, 0.0, 1.113025, 0.0, 0.0, 0.0, 2.4242489999999997)",2
2025/07/05/17:44:37.141649,7487,1751712276,975858752,base_link,0,1,-7.2870478,112.7959353,50.88527713267791,"(1.113025, 0.0, 0.0, 0.0, 1.113025, 0.0, 0.0, 0.0, 2.4242489999999997)",2
2025/07/05/17:44:37.241369,7488,1751712277,175862592,base_link,0,1,-7.2870479,112.7959354,50.93527719104241,"(1.104601, 0.0, 0.0, 0.0, 1.104601, 0.0, 0.0, 0.0, 2.4025000000000003)",2
2025/07/05/17:44:37.322792,7489,1751712277,175867712,base_link,0,1,-7.2870479,112.7959354,50.93527719104241,"(1.104601, 0.0, 0.0, 0.0, 1.104601, 0.0, 0.0, 0.0, 2.4025000000000003)",2
2025/07/05/17:44:37.462079,7490,1751712277,375875904,base_link,0,1,-7.287048,112.7959354,50.98527693718687,"(1.100401, 0.0, 0.0, 0.0, 1.100401, 0.0, 0.0, 0.0, 2.3839360000000003)",2
2025/07/05/17:44:37.581793,7491,1751712277,375879744,base_link,0,1,-7.287048,112.7959354,50.98527693718687,"(1.100401, 0.0, 0.0, 0.0, 1.100401, 0.0, 0.0, 0.0, 2.3839360000000003)",2
2025/07/05/17:44:37.662150,7492,1751712277,575884096,base_link,0,1,-7.2870482,112.7959354,51.045276429476196,"(1.0962089999999998, 0.0, 0.0, 0.0, 1.0962089999999998, 0.0, 0.0, 0.0, 2.3716)",2
2025/07/05/17:44:37.762124,7493,1751712277,575888448,base_link,0,1,-7.2870482,112.7959354,51.045276429476196,"(1.0962089999999998, 0.0, 0.0, 0.0, 1.0962089999999998, 0.0, 0.0, 0.0, 2.3716)",2
2025/07/05/17:44:37.861838,7494,1751712277,775893312,base_link,0,1,-7.2870484,112.7959355,51.09527623398586,"(1.0920249999999998, 0.0, 0.0, 0.0, 1.0920249999999998, 0.0, 0.0, 0.0, 2.3531560000000002)",2
2025/07/05/17:44:38.003308,7495,1751712277,975898432,base_link,0,1,-7.2870485,112.7959356,51.13527629235074,"(1.0878489999999998, 0.0, 0.0, 0.0, 1.0878489999999998, 0.0, 0.0, 0.0, 2.3378409999999996)",2
2025/07/05/17:44:38.102404,7496,1751712277,975898432,base_link,0,1,-7.2870485,112.7959356,51.13527629235074,"(1.0878489999999998, 0.0, 0.0, 0.0, 1.0878489999999998, 0.0, 0.0, 0.0, 2.3378409999999996)",2
2025/07/05/17:44:38.181715,7497,1751712277,975902528,base_link,0,1,-7.2870485,112.7959356,51.13527629235074,"(1.0878489999999998, 0.0, 0.0, 0.0, 1.0878489999999998, 0.0, 0.0, 0.0, 2.3378409999999996)",2
2025/07/05/17:44:38.302991,7498,1751712278,175906624,base_link,0,1,-7.2870487,112.7959356,51.165275784641096,"(1.083681, 0.0, 0.0, 0.0, 1.083681, 0.0, 0.0, 0.0, 2.3195289999999997)",2
2025/07/05/17:44:38.425659,7499,1751712278,375906624,base_link,0,1,-7.2870488,112.7959357,51.20527584300616,"(1.0795209999999997, 0.0, 0.0, 0.0, 1.0795209999999997, 0.0, 0.0, 0.0, 2.3043240000000003)",2
2025/07/05/17:44:38.603271,7500,1751712278,575910464,base_link,0,1,-7.2870489,112.7959358,51.24527590137116,"(1.0753689999999998, 0.0, 0.0, 0.0, 1.0753689999999998, 0.0, 0.0, 0.0, 2.289169)",2
2025/07/05/17:44:38.682977,7501,1751712278,575910464,base_link,0,1,-7.2870489,112.7959358,51.24527590137116,"(1.0753689999999998, 0.0, 0.0, 0.0, 1.0753689999999998, 0.0, 0.0, 0.0, 2.289169)",2
2025/07/05/17:44:38.781581,7502,1751712278,575914304,base_link,0,1,-7.2870489,112.7959358,51.24527590137116,"(1.0753689999999998, 0.0, 0.0, 0.0, 1.0753689999999998, 0.0, 0.0, 0.0, 2.289169)",2
2025/07/05/17:44:38.861839,7503,1751712278,775918912,base_link,0,1,-7.2870489,112.7959359,51.26527621359078,"(1.0712249999999999, 0.0, 0.0, 0.0, 1.0712249999999999, 0.0, 0.0, 0.0, 2.274064)",2
2025/07/05/17:44:38.962047,7504,1751712278,775923520,base_link,0,1,-7.2870489,112.7959359,51.26527621359078,"(1.0712249999999999, 0.0, 0.0, 0.0, 1.0712249999999999, 0.0, 0.0, 0.0, 2.274064)",2
2025/07/05/17:44:39.061905,7505,1751712278,975928640,base_link,0,1,-7.2870489,112.795936,51.26527652581031,"(1.0670889999999997, 0.0, 0.0, 0.0, 1.0670889999999997, 0.0, 0.0, 0.0, 2.259009)",2
2025/07/05/17:44:39.181578,7506,1751712278,975933504,base_link,0,1,-7.2870489,112.795936,51.26527652581031,"(1.0670889999999997, 0.0, 0.0, 0.0, 1.0670889999999997, 0.0, 0.0, 0.0, 2.259009)",2
2025/07/05/17:44:39.262002,7507,1751712279,175937856,base_link,0,1,-7.2870489,112.7959361,51.29527683802986,"(1.0629609999999998, 0.0, 0.0, 0.0, 1.0629609999999998, 0.0, 0.0, 0.0, 2.244004)",2
2025/07/05/17:44:39.382051,7508,1751712279,175942208,base_link,0,1,-7.2870489,112.7959361,51.29527683802986,"(1.0629609999999998, 0.0, 0.0, 0.0, 1.0629609999999998, 0.0, 0.0, 0.0, 2.244004)",2
2025/07/05/17:44:39.561932,7509,1751712279,375950400,base_link,0,1,-7.2870489,112.7959363,51.28527746246877,"(1.056784, 0.0, 0.0, 0.0, 1.056784, 0.0, 0.0, 0.0, 2.2290490000000003)",2
2025/07/05/17:44:39.661994,7510,1751712279,575954496,base_link,0,1,-7.2870489,112.7959364,51.275277774688206,"(1.050625, 0.0, 0.0, 0.0, 1.050625, 0.0, 0.0, 0.0, 2.214144)",2
2025/07/05/17:44:39.741345,7511,1751712279,575954496,base_link,0,1,-7.2870489,112.7959364,51.275277774688206,"(1.050625, 0.0, 0.0, 0.0, 1.050625, 0.0, 0.0, 0.0, 2.214144)",2
2025/07/05/17:44:39.841444,7512,1751712279,775954496,base_link,0,1,-7.2870489,112.7959366,51.29527839912701,"(1.044484, 0.0, 0.0, 0.0, 1.044484, 0.0, 0.0, 0.0, 2.1992890000000003)",2
2025/07/05/17:44:39.922156,7513,1751712279,775954496,base_link,0,1,-7.2870489,112.7959366,51.29527839912701,"(1.044484, 0.0, 0.0, 0.0, 1.044484, 0.0, 0.0, 0.0, 2.1992890000000003)",2
2025/07/05/17:44:40.041174,7514,1751712279,975954496,base_link,0,1,-7.2870489,112.7959368,51.32527902356575,"(1.036324, 0.0, 0.0, 0.0, 1.036324, 0.0, 0.0, 0.0, 2.184484)",2
2025/07/05/17:44:40.141711,7515,1751712279,975959104,base_link,0,1,-7.2870489,112.7959368,51.32527902356575,"(1.036324, 0.0, 0.0, 0.0, 1.036324, 0.0, 0.0, 0.0, 2.184484)",2
2025/07/05/17:44:40.241555,7516,1751712280,175963200,base_link,0,1,-7.2870489,112.795937,51.35527964800426,"(1.0302249999999997, 0.0, 0.0, 0.0, 1.0302249999999997, 0.0, 0.0, 0.0, 2.1697290000000002)",2
2025/07/05/17:44:40.323041,7517,1751712280,175968064,base_link,0,1,-7.2870489,112.795937,51.35527964800426,"(1.0302249999999997, 0.0, 0.0, 0.0, 1.0302249999999997, 0.0, 0.0, 0.0, 2.1697290000000002)",2
2025/07/05/17:44:40.461822,7518,1751712280,375972672,base_link,0,1,-7.2870489,112.7959372,51.39528027244269,"(1.0201, 0.0, 0.0, 0.0, 1.0201, 0.0, 0.0, 0.0, 2.152089)",2
2025/07/05/17:44:40.582292,7519,1751712280,375976256,base_link,0,1,-7.2870489,112.7959372,51.39528027244269,"(1.0201, 0.0, 0.0, 0.0, 1.0201, 0.0, 0.0, 0.0, 2.152089)",2
2025/07/05/17:44:40.682395,7520,1751712280,575976256,base_link,0,1,-7.287049,112.7959374,51.415280643025994,"(1.0100249999999997, 0.0, 0.0, 0.0, 1.0100249999999997, 0.0, 0.0, 0.0, 2.137444)",2
2025/07/05/17:44:40.781859,7521,1751712280,575979840,base_link,0,1,-7.287049,112.7959374,51.415280643025994,"(1.0100249999999997, 0.0, 0.0, 0.0, 1.0100249999999997, 0.0, 0.0, 0.0, 2.137444)",2
2025/07/05/17:44:40.881700,7522,1751712280,775983424,base_link,0,1,-7.2870491,112.7959375,51.43528070139009,"(1.0, 0.0, 0.0, 0.0, 1.0, 0.0, 0.0, 0.0, 2.119936)",2
2025/07/05/17:44:41.003218,7523,1751712280,975987520,base_link,0,1,-7.2870492,112.7959377,51.4452810719732,"(0.988036, 0.0, 0.0, 0.0, 0.988036, 0.0, 0.0, 0.0, 2.1025)",2
2025/07/05/17:44:41.102775,7524,1751712280,975987520,base_link,0,1,-7.2870492,112.7959377,51.4452810719732,"(0.988036, 0.0, 0.0, 0.0, 0.988036, 0.0, 0.0, 0.0, 2.1025)",2
2025/07/05/17:44:41.181865,7525,1751712280,975987520,base_link,0,1,-7.2870492,112.7959377,51.4452810719732,"(0.988036, 0.0, 0.0, 0.0, 0.988036, 0.0, 0.0, 0.0, 2.1025)",2
2025/07/05/17:44:41.281927,7526,1751712281,175991360,base_link,0,1,-7.2870495,112.7959379,51.45528093484664,"(0.974169, 0.0, 0.0, 0.0, 0.974169, 0.0, 0.0, 0.0, 2.085136)",2
2025/07/05/17:44:41.361540,7527,1751712281,175994944,base_link,0,1,-7.2870495,112.7959379,51.45528093484664,"(0.974169, 0.0, 0.0, 0.0, 0.974169, 0.0, 0.0, 0.0, 2.085136)",2
2025/07/05/17:44:41.541429,7528,1751712281,375994944,base_link,0,1,-7.2870497,112.795938,51.475280739356435,"(0.962361, 0.0, 0.0, 0.0, 0.962361, 0.0, 0.0, 0.0, 2.064969)",2
2025/07/05/17:44:41.641603,7529,1751712281,575999808,base_link,0,1,-7.28705,112.7959381,51.485280290012284,"(0.948676, 0.0, 0.0, 0.0, 0.948676, 0.0, 0.0, 0.0, 2.0448999999999997)",2
2025/07/05/17:44:41.722489,7530,1751712281,576005440,base_link,0,1,-7.28705,112.7959381,51.485280290012284,"(0.948676, 0.0, 0.0, 0.0, 0.948676, 0.0, 0.0, 0.0, 2.0448999999999997)",2
2025/07/05/17:44:41.803202,7531,1751712281,776010048,base_link,0,1,-7.2870503,112.7959382,51.49527984066894,"(0.937024, 0.0, 0.0, 0.0, 0.937024, 0.0, 0.0, 0.0, 2.024929)",2
2025/07/05/17:44:41.881951,7532,1751712281,776013632,base_link,0,1,-7.2870503,112.7959382,51.49527984066894,"(0.937024, 0.0, 0.0, 0.0, 0.937024, 0.0, 0.0, 0.0, 2.024929)",2
2025/07/05/17:44:42.003788,7533,1751712281,976013632,base_link,0,1,-7.2870505,112.7959383,51.55527964518011,"(0.9254439999999999, 0.0, 0.0, 0.0, 0.9254439999999999, 0.0, 0.0, 0.0, 2.0050559999999997)",2
2025/07/05/17:44:42.081468,7534,1751712281,976013632,base_link,0,1,-7.2870505,112.7959383,51.55527964518011,"(0.9254439999999999, 0.0, 0.0, 0.0, 0.9254439999999999, 0.0, 0.0, 0.0, 2.0050559999999997)",2
2025/07/05/17:44:42.181376,7535,1751712281,976017984,base_link,0,1,-7.2870505,112.7959383,51.55527964518011,"(0.9254439999999999, 0.0, 0.0, 0.0, 0.9254439999999999, 0.0, 0.0, 0.0, 2.0050559999999997)",2
2025/07/05/17:44:42.281614,7536,1751712282,176021568,base_link,0,1,-7.2870508,112.7959384,51.605279195838115,"(0.913936, 0.0, 0.0, 0.0, 0.913936, 0.0, 0.0, 0.0, 1.9880999999999998)",2
2025/07/05/17:44:42.381557,7537,1751712282,176026176,base_link,0,1,-7.2870508,112.7959384,51.605279195838115,"(0.913936, 0.0, 0.0, 0.0, 0.913936, 0.0, 0.0, 0.0, 1.9880999999999998)",2
2025/07/05/17:44:42.541766,7538,1751712282,376026176,base_link,0,1,-7.2870511,112.7959386,51.67527905871505,"(0.9025, 0.0, 0.0, 0.0, 0.9025, 0.0, 0.0, 0.0, 1.962801)",2
2025/07/05/17:44:42.641386,7539,1751712282,576030528,base_link,0,1,-7.2870513,112.7959388,51.74527917544519,"(0.889249, 0.0, 0.0, 0.0, 0.889249, 0.0, 0.0, 0.0, 1.9376639999999998)",2
2025/07/05/17:44:42.722162,7540,1751712282,576030528,base_link,0,1,-7.2870513,112.7959388,51.74527917544519,"(0.889249, 0.0, 0.0, 0.0, 0.889249, 0.0, 0.0, 0.0, 1.9376639999999998)",2
2025/07/05/17:44:42.803835,7541,1751712282,776030528,base_link,0,1,-7.2870515,112.795939,51.7852792921754,"(0.8779690000000001, 0.0, 0.0, 0.0, 0.8779690000000001, 0.0, 0.0, 0.0, 1.9209959999999997)",2
2025/07/05/17:44:42.903125,7542,1751712282,776030528,base_link,0,1,-7.2870515,112.795939,51.7852792921754,"(0.8779690000000001, 0.0, 0.0, 0.0, 0.8779690000000001, 0.0, 0.0, 0.0, 1.9209959999999997)",2
2025/07/05/17:44:42.981450,7543,1751712282,776030528,base_link,0,1,-7.2870515,112.795939,51.7852792921754,"(0.8779690000000001, 0.0, 0.0, 0.0, 0.8779690000000001, 0.0, 0.0, 0.0, 1.9209959999999997)",2
2025/07/05/17:44:43.102232,7544,1751712282,976034112,base_link,0,1,-7.2870516,112.7959391,51.78527935054046,"(0.8704890000000001, 0.0, 0.0, 0.0, 0.8704890000000001, 0.0, 0.0, 0.0, 1.907161)",2
2025/07/05/17:44:43.182019,7545,1751712282,976034112,base_link,0,1,-7.2870516,112.7959391,51.78527935054046,"(0.8704890000000001, 0.0, 0.0, 0.0, 0.8704890000000001, 0.0, 0.0, 0.0, 1.907161)",2
2025/07/05/17:44:43.283450,7546,1751712283,176034112,base_link,0,1,-7.2870517,112.7959393,51.815279721123204,"(0.8593290000000001, 0.0, 0.0, 0.0, 0.8593290000000001, 0.0, 0.0, 0.0, 1.8933759999999997)",2
2025/07/05/17:44:43.404042,7547,1751712283,376034112,base_link,0,1,-7.2870518,112.7959394,51.83527977948823,"(0.851929, 0.0, 0.0, 0.0, 0.851929, 0.0, 0.0, 0.0, 1.8878760000000003)",2
2025/07/05/17:44:43.581842,7548,1751712283,376039488,base_link,0,1,-7.2870518,112.7959394,51.83527977948823,"(0.851929, 0.0, 0.0, 0.0, 0.851929, 0.0, 0.0, 0.0, 1.8878760000000003)",2
2025/07/05/17:44:43.702554,7549,1751712283,576044608,base_link,0,1,-7.2870518,112.7959394,51.825279779488234,"(0.8464, 0.0, 0.0, 0.0, 0.8464, 0.0, 0.0, 0.0, 1.879641)",2
2025/07/05/17:44:43.803348,7550,1751712283,776044608,base_link,0,1,-7.287052,112.7959396,51.8252798962185,"(0.8408890000000001, 0.0, 0.0, 0.0, 0.8408890000000001, 0.0, 0.0, 0.0, 1.874161)",2
2025/07/05/17:44:43.881623,7551,1751712283,776044608,base_link,0,1,-7.287052,112.7959396,51.8252798962185,"(0.8408890000000001, 0.0, 0.0, 0.0, 0.8408890000000001, 0.0, 0.0, 0.0, 1.874161)",2
2025/07/05/17:44:44.003556,7552,1751712283,976048192,base_link,0,1,-7.2870521,112.7959397,51.87527995458365,"(0.835396, 0.0, 0.0, 0.0, 0.835396, 0.0, 0.0, 0.0, 1.868689)",2
2025/07/05/17:44:44.102222,7553,1751712283,976051264,base_link,0,1,-7.2870521,112.7959397,51.87527995458365,"(0.835396, 0.0, 0.0, 0.0, 0.835396, 0.0, 0.0, 0.0, 1.868689)",2
2025/07/05/17:44:44.181543,7554,1751712283,976051264,base_link,0,1,-7.2870521,112.7959397,51.87527995458365,"(0.835396, 0.0, 0.0, 0.0, 0.835396, 0.0, 0.0, 0.0, 1.868689)",2
2025/07/05/17:44:44.302431,7555,1751712284,176054592,base_link,0,1,-7.2870521,112.7959398,51.895280266800924,"(0.831744, 0.0, 0.0, 0.0, 0.831744, 0.0, 0.0, 0.0, 1.863225)",2
2025/07/05/17:44:44.481748,7556,1751712284,376057920,base_link,0,1,-7.2870521,112.7959399,51.93528057901809,"(0.8281000000000001, 0.0, 0.0, 0.0, 0.8281000000000001, 0.0, 0.0, 0.0, 1.8604960000000004)",2
2025/07/05/17:44:44.602700,7557,1751712284,576057920,base_link,0,1,-7.2870522,112.79594,51.97528063738321,"(0.8244640000000001, 0.0, 0.0, 0.0, 0.8244640000000001, 0.0, 0.0, 0.0, 1.8550440000000004)",2
2025/07/05/17:44:44.703151,7558,1751712284,576057920,base_link,0,1,-7.2870522,112.79594,51.97528063738321,"(0.8244640000000001, 0.0, 0.0, 0.0, 0.8244640000000001, 0.0, 0.0, 0.0, 1.8550440000000004)",2
2025/07/05/17:44:44.781944,7559,1751712284,576057920,base_link,0,1,-7.2870522,112.79594,51.97528063738321,"(0.8244640000000001, 0.0, 0.0, 0.0, 0.8244640000000001, 0.0, 0.0, 0.0, 1.8550440000000004)",2
2025/07/05/17:44:44.861859,7560,1751712284,776062016,base_link,0,1,-7.2870522,112.7959401,51.995280949600286,"(0.820836, 0.0, 0.0, 0.0, 0.820836, 0.0, 0.0, 0.0, 1.8523209999999999)",2
2025/07/05/17:44:44.961732,7561,1751712284,776065344,base_link,0,1,-7.2870522,112.7959401,51.995280949600286,"(0.820836, 0.0, 0.0, 0.0, 0.820836, 0.0, 0.0, 0.0, 1.8523209999999999)",2
2025/07/05/17:44:45.061475,7562,1751712284,976069184,base_link,0,1,-7.2870522,112.7959402,52.015281261817435,"(0.817216, 0.0, 0.0, 0.0, 0.817216, 0.0, 0.0, 0.0, 1.846881)",2
2025/07/05/17:44:45.181750,7563,1751712284,976073024,base_link,0,1,-7.2870522,112.7959402,52.015281261817435,"(0.817216, 0.0, 0.0, 0.0, 0.817216, 0.0, 0.0, 0.0, 1.846881)",2
2025/07/05/17:44:45.261975,7564,1751712285,176077632,base_link,0,1,-7.2870521,112.7959403,52.025281827886815,"(0.815409, 0.0, 0.0, 0.0, 0.815409, 0.0, 0.0, 0.0, 1.8496000000000004)",2
2025/07/05/17:44:45.361668,7565,1751712285,176081472,base_link,0,1,-7.2870521,112.7959403,52.025281827886815,"(0.815409, 0.0, 0.0, 0.0, 0.815409, 0.0, 0.0, 0.0, 1.8496000000000004)",2
2025/07/05/17:44:45.541909,7566,1751712285,376086848,base_link,0,1,-7.2870521,112.7959403,52.04528182788682,"(0.811801, 0.0, 0.0, 0.0, 0.811801, 0.0, 0.0, 0.0, 1.8523209999999999)",2
2025/07/05/17:44:45.641165,7567,1751712285,576086848,base_link,0,1,-7.2870521,112.7959404,52.085282140103956,"(0.81, 0.0, 0.0, 0.0, 0.81, 0.0, 0.0, 0.0, 1.857769)",2
2025/07/05/17:44:45.721717,7568,1751712285,576086848,base_link,0,1,-7.2870521,112.7959404,52.085282140103956,"(0.81, 0.0, 0.0, 0.0, 0.81, 0.0, 0.0, 0.0, 1.857769)",2
2025/07/05/17:44:45.803248,7569,1751712285,776086848,base_link,0,1,-7.2870521,112.7959404,52.13528214010395,"(0.81, 0.0, 0.0, 0.0, 0.81, 0.0, 0.0, 0.0, 1.863225)",2
2025/07/05/17:44:45.902599,7570,1751712285,776086848,base_link,0,1,-7.2870521,112.7959404,52.13528214010395,"(0.81, 0.0, 0.0, 0.0, 0.81, 0.0, 0.0, 0.0, 1.863225)",2
2025/07/05/17:44:46.003390,7571,1751712285,976086848,base_link,0,1,-7.287052,112.7959405,52.14528270617346,"(0.811801, 0.0, 0.0, 0.0, 0.811801, 0.0, 0.0, 0.0, 1.874161)",2
2025/07/05/17:44:46.103148,7572,1751712285,976090432,base_link,0,1,-7.287052,112.7959405,52.14528270617346,"(0.811801, 0.0, 0.0, 0.0, 0.811801, 0.0, 0.0, 0.0, 1.874161)",2
2025/07/05/17:44:46.203573,7573,1751712286,176090432,base_link,0,1,-7.2870518,112.7959405,52.16528321387884,"(0.813604, 0.0, 0.0, 0.0, 0.813604, 0.0, 0.0, 0.0, 1.8823840000000003)",2
2025/07/05/17:44:46.281507,7574,1751712286,176090432,base_link,0,1,-7.2870518,112.7959405,52.16528321387884,"(0.813604, 0.0, 0.0, 0.0, 0.813604, 0.0, 0.0, 0.0, 1.8823840000000003)",2
2025/07/05/17:44:46.403275,7575,1751712286,176094272,base_link,0,1,-7.2870518,112.7959405,52.16528321387884,"(0.813604, 0.0, 0.0, 0.0, 0.813604, 0.0, 0.0, 0.0, 1.8823840000000003)",2
2025/07/05/17:44:46.581525,7576,1751712286,376098112,base_link,0,1,-7.2870517,112.7959405,52.185283467731715,"(0.815409, 0.0, 0.0, 0.0, 0.815409, 0.0, 0.0, 0.0, 1.8933759999999997)",2
2025/07/05/17:44:46.702201,7577,1751712286,576098112,base_link,0,1,-7.2870515,112.7959405,52.19528397543783,"(0.817216, 0.0, 0.0, 0.0, 0.817216, 0.0, 0.0, 0.0, 1.9043999999999996)",2
2025/07/05/17:44:46.803579,7578,1751712286,776098112,base_link,0,1,-7.2870513,112.7959406,52.20528479536178,"(0.817216, 0.0, 0.0, 0.0, 0.817216, 0.0, 0.0, 0.0, 1.9154559999999998)",2
2025/07/05/17:44:46.881278,7579,1751712286,776101952,base_link,0,1,-7.2870513,112.7959406,52.20528479536178,"(0.817216, 0.0, 0.0, 0.0, 0.817216, 0.0, 0.0, 0.0, 1.9154559999999998)",2
2025/07/05/17:44:47.003437,7580,1751712286,976101952,base_link,0,1,-7.287051,112.7959406,52.205285556922675,"(0.819025, 0.0, 0.0, 0.0, 0.819025, 0.0, 0.0, 0.0, 1.923769)",2
