time,.header.seq,.header.stamp.secs,.header.stamp.nsecs,.header.frame_id,.twist.linear.x,.twist.linear.y,.twist.linear.z,.twist.angular.x,.twist.angular.y,.twist.angular.z
2025/07/05/17:44:13.324290,7262,1751712253,319540352,base_link,-0.05348372459411621,0.13584840297698975,0.004645256325602531,-0.021142059547175095,0.05373533116170506,0.052315024930799314
2025/07/05/17:44:13.463100,7263,1751712253,459556736,base_link,-0.08245192468166351,0.1275317221879959,0.006055084057152271,-0.014344811981800059,0.010915601691597871,0.03858459110321844
2025/07/05/17:44:13.604589,7264,1751712253,600564160,base_link,-0.08714315295219421,0.1259544938802719,0.00030616982257924974,-0.01620703310416954,0.019877949667610455,-0.025028130597246855
2025/07/05/17:44:13.704431,7265,1751712253,700573888,base_link,-0.08527273684740067,0.13491052389144897,-0.0014560128329321742,0.010927996615963472,-0.020282192176315553,-0.033782113300980146
2025/07/05/17:44:13.804476,7266,1751712253,800580032,base_link,-0.09092459827661514,0.1340283304452896,-0.0037262276746332645,0.03200626148127886,-0.04652380219683956,-0.03789224949640709
2025/07/05/17:44:13.923484,7267,1751712253,919580032,base_link,-0.10400772839784622,0.13329671323299408,0.003817728953436017,0.024960505562165832,-0.033617023716508126,-0.04991405851421694
2025/07/05/17:44:14.005316,7268,1751712254,586944,base_link,-0.10720732063055038,0.13562358915805817,0.006889259442687035,-0.0004640442180085915,-0.001022561351784487,-0.06230722146092566
2025/07/05/17:44:14.104134,7269,1751712254,100592576,base_link,-0.10956639796495438,0.1396084576845169,0.009965351782739162,-0.014503510278683287,0.013034938663650592,-0.06585458900983099
2025/07/05/17:44:14.205001,7270,1751712254,200597184,base_link,-0.13133083283901215,0.1800963580608368,-0.0016692960634827614,-0.014522718816589439,0.023437835589164478,-0.06712442864430096
2025/07/05/17:44:14.323720,7271,1751712254,319604864,base_link,-0.18444885313510895,0.22277824580669403,-5.5551063269376755e-05,-0.004725874430428667,0.06005137540599478,-0.08807915942798945
2025/07/05/17:44:14.482389,7272,1751712254,478617152,base_link,-0.1570879966020584,0.2227301299571991,-0.0014532145578414202,-0.010961449099610531,0.09630261331864484,-0.14299291488126903
2025/07/05/17:44:14.604089,7273,1751712254,600623808,base_link,-0.14457841217517853,0.20908178389072418,-0.004682914353907108,0.012587313727411124,-0.12493931443452339,-0.12957028423920636
2025/07/05/17:44:14.703914,7274,1751712254,699629696,base_link,-0.13778990507125854,0.20917491614818573,-0.006228064186871052,0.014890678191823532,-0.14420651956667677,-0.1205841785129418
2025/07/05/17:44:14.782644,7275,1751712254,778636352,base_link,-0.13260871171951294,0.20795953273773193,-0.0067386324517428875,0.006601210892767249,-0.08165817273196768,-0.116153476183476
2025/07/05/17:44:14.882963,7276,1751712254,878642496,base_link,-0.1251121312379837,0.20575785636901855,-0.007380242925137281,-0.0017278364285273975,-0.0006546022778553713,-0.1022430000488133
2025/07/05/17:44:15.003936,7277,1751712254,999649152,base_link,-0.117599256336689,0.20153000950813293,-0.008408570662140846,-0.010608921240942737,0.06098392747292912,-0.0867772556549662
2025/07/05/17:44:15.086468,7278,1751712255,78655296,base_link,-0.11189413070678711,0.19752606749534607,-0.01133611612021923,-0.01754902558998755,0.08753076333702134,-0.07547429146009153
2025/07/05/17:44:15.205829,7279,1751712255,200661184,base_link,-0.1030903086066246,0.19277983903884888,-0.015697505325078964,-0.01547569209816815,0.0714448620559065,-0.06574373741616421
2025/07/05/17:44:15.304238,7280,1751712255,299667328,base_link,-0.09780997037887573,0.187162384390831,-0.019117774441838264,-0.004415910733769566,0.02513391674438886,-0.057920188291136196
2025/07/05/17:44:15.384986,7281,1751712255,378673216,base_link,-0.0963606983423233,0.1830805093050003,-0.02147129364311695,0.00803192640082588,-0.02306228044532814,-0.05537551747491013
2025/07/05/17:44:15.543801,7282,1751712255,539683200,base_link,-0.09418228268623352,0.17540401220321655,-0.02183462306857109,0.017257056557423964,-0.047965906469088486,-0.060811367584767066
2025/07/05/17:44:15.628499,7283,1751712255,622688320,base_link,-0.09257909655570984,0.17189696431159973,-0.020075829699635506,0.013616706167499588,-0.0373557430597836,-0.06393607092059174
2025/07/05/17:44:15.722245,7284,1751712255,719696768,base_link,-0.09754476696252823,0.20303380489349365,-0.024734172970056534,0.0058341051707109974,-0.016013239183378405,-0.06643460904057794
2025/07/05/17:44:15.825749,7285,1751712255,822704960,base_link,-0.12510709464550018,0.2328130304813385,-0.02422644942998886,0.009390409375107508,0.034908676089360845,-0.06930029881531354
2025/07/05/17:44:15.942584,7286,1751712255,938712640,base_link,-0.1271439492702484,0.2524498999118805,-0.022064710035920143,-0.0042082098096368195,0.08860580156761688,-0.09851252749367163
2025/07/05/17:44:16.026285,7287,1751712256,22718272,base_link,-0.12849673628807068,0.2615521252155304,-0.015332934446632862,-0.017514457047113394,0.03866219718672726,-0.10624472283448934
2025/07/05/17:44:16.123812,7288,1751712256,119725440,base_link,-0.12692101299762726,0.26305460929870605,-0.01980699971318245,-0.020350625795787395,-0.021492581627958647,-0.10896982205889617
2025/07/05/17:44:16.225437,7289,1751712256,222732864,base_link,-0.1240747720003128,0.2783817946910858,-0.024817757308483124,-0.012200742438216762,-0.0655727465487003,-0.10917639392901493
2025/07/05/17:44:16.322682,7290,1751712256,319740544,base_link,-0.11986229568719864,0.2752394676208496,-0.02325066551566124,0.000817570739439322,-0.06256585695650563,-0.10950229584416407
2025/07/05/17:44:16.462963,7291,1751712256,458753600,base_link,-0.10752358287572861,0.26338139176368713,-0.027331609278917313,0.00840129559113787,-0.03469026561353428,-0.10776044822655431
2025/07/05/17:44:16.584307,7292,1751712256,578759744,base_link,-0.09871029853820801,0.25288885831832886,-0.022716693580150604,-0.0014359354308911736,0.002603903721149034,-0.08834892351413082
2025/07/05/17:44:16.663511,7293,1751712256,659767680,base_link,-0.0968494862318039,0.2824273705482483,-0.026522265747189522,-0.005838112743973229,0.01841842190960523,-0.08251298923397447
2025/07/05/17:44:16.742894,7294,1751712256,738767680,base_link,-0.1159353256225586,0.3196467459201813,-0.024724191054701805,0.009070531451614156,0.038168145444353034,-0.07757879055958204
2025/07/05/17:44:16.827886,7295,1751712256,822775872,base_link,-0.12481067329645157,0.34493201971054077,-0.023013856261968613,0.02477284145059738,0.08273028226951586,-0.09598803394149025
2025/07/05/17:44:16.942858,7296,1751712256,938782528,base_link,-0.12762953341007233,0.40550991892814636,-0.023731904104351997,0.015499701547140034,0.0808521217758806,-0.11371495584201466
2025/07/05/17:44:17.062852,7297,1751712257,59794048,base_link,-0.13378095626831055,0.45766139030456543,-0.017802251502871513,0.005601806138493432,0.017259154332204808,-0.14754408797010968
2025/07/05/17:44:17.163638,7298,1751712257,159801728,base_link,-0.13533683121204376,0.48524031043052673,-0.028617799282073975,-0.004806501197170722,-0.0417048752436366,-0.16583578005238275
2025/07/05/17:44:17.226162,7299,1751712257,222801728,base_link,-0.1211046501994133,0.506405770778656,-0.0241264495998621,-0.009641064771454821,-0.07957158192905432,-0.16886199437106428
2025/07/05/17:44:17.323420,7300,1751712257,319808896,base_link,-0.13968981802463531,0.5290606021881104,-0.024901749566197395,-0.013818886755623887,-0.08894387905867353,-0.16981047890273732
2025/07/05/17:44:17.523525,7301,1751712257,519819904,base_link,-0.12886802852153778,0.5649272799491882,-0.02466753125190735,-0.021132780479826564,-0.03432364621403973,-0.18562837499717263
2025/07/05/17:44:17.625849,7302,1751712257,622826816,base_link,-0.11398310959339142,0.5758597254753113,-0.0188745204359293,-0.005461365390410387,0.021309141983090925,-0.19188660322157816
2025/07/05/17:44:17.723804,7303,1751712257,719833728,base_link,-0.11229151487350464,0.5741525888442993,-0.017925815656781197,0.0033289756346087714,0.019850489646408644,-0.1833311737527598
2025/07/05/17:44:17.805640,7304,1751712257,800841920,base_link,-0.10597159713506699,0.5566297769546509,-0.01796380802989006,0.0020583486225464664,0.02221083839595895,-0.17478354846171462
2025/07/05/17:44:17.904258,7305,1751712257,900847808,base_link,-0.09081513434648514,0.5485039353370667,-0.01427778322249651,-0.003982577659553704,0.014108216846951873,-0.1533719196842606
2025/07/05/17:44:18.027328,7306,1751712258,22852928,base_link,-0.07675855606794357,0.5324945449829102,-0.01590152457356453,-0.010146044287942045,0.008864832611732845,-0.12447851346595651
2025/07/05/17:44:18.103852,7307,1751712258,99858048,base_link,-0.07655647397041321,0.5165587663650513,-0.015393504872918129,-0.011228915637623234,0.007241323584767251,-0.11106057857949132
2025/07/05/17:44:18.204485,7308,1751712258,200863936,base_link,-0.07682055979967117,0.4982483685016632,-0.016536889597773552,-0.008393486990876425,0.002682595627962284,-0.10486673114177449
2025/07/05/17:44:18.284094,7309,1751712258,279870592,base_link,-0.0807473212480545,0.4875691831111908,-0.015226385556161404,-0.0036860144753507293,-0.0041677104582697865,-0.10475424301233688
2025/07/05/17:44:18.444184,7310,1751712258,438876224,base_link,-0.08734869211912155,0.46733611822128296,-0.013127511367201805,0.001108771792597385,-0.01297915449338414,-0.10775045069954091
2025/07/05/17:44:18.584241,7311,1751712258,578889792,base_link,-0.08917627483606339,0.45030340552330017,-0.012552725151181221,0.004276629415761045,-0.008106763350773438,-0.11647778270562469
2025/07/05/17:44:18.642117,7312,1751712258,639889792,base_link,-0.08617746829986572,0.4438548982143402,-0.012853615917265415,0.006083698315213105,-0.0029186727234122908,-0.11543211667636173
2025/07/05/17:44:18.742955,7313,1751712258,738897984,base_link,-0.0763980969786644,0.43308162689208984,-0.011583962477743626,0.01035977469792751,-0.0012772594652516005,-0.1101472892060042
2025/07/05/17:44:18.825408,7314,1751712258,822904384,base_link,-0.06650247424840927,0.4237203896045685,-0.011907774955034256,0.012888058376646205,0.00031076752835652866,-0.09991162311321547
2025/07/05/17:44:18.923915,7315,1751712258,919910272,base_link,-0.0584818497300148,0.4105881154537201,-0.011338910087943077,0.012486515961777463,0.0018065673446484437,-0.08383612615168703
2025/07/05/17:44:19.025415,7316,1751712259,21916672,base_link,-0.05055148899555206,0.3990490734577179,-0.009858842007815838,0.00523886923762663,0.019726261786280286,-0.06379165131980535
2025/07/05/17:44:19.103430,7317,1751712259,100922048,base_link,-0.039446938782930374,0.42281651496887207,-0.014100947417318821,-0.0032811160887312248,0.027641125656146612,-0.05382327245634366
2025/07/05/17:44:19.205345,7318,1751712259,200930752,base_link,-0.0450514554977417,0.4537923336029053,-0.012485350482165813,0.008125220355033429,0.02807890889801989,-0.04879552134074543
2025/07/05/17:44:19.303933,7319,1751712259,300937920,base_link,-0.05322936177253723,0.4380107522010803,0.004824190400540829,0.011361611315956806,0.04508483996498672,-0.08751940589838203
2025/07/05/17:44:19.462565,7320,1751712259,459950464,base_link,-0.04200464487075806,0.4277603328227997,0.002559743821620941,-0.02057690229632133,0.0034163901241718083,-0.11676872175952038
2025/07/05/17:44:19.606294,7321,1751712259,600957888,base_link,-0.04017000272870064,0.4207363426685333,-0.004130784422159195,-0.03581747011697305,-0.09050376379805153,-0.1172707179683732
2025/07/05/17:44:19.683915,7322,1751712259,678963520,base_link,-0.03843033313751221,0.41352930665016174,-0.007895219139754772,-0.01527879571685187,-0.057557103037497254,-0.11353037723857833
2025/07/05/17:44:19.804118,7323,1751712259,800968640,base_link,-0.028077540919184685,0.40202072262763977,-0.012211206369102001,0.01932430163456011,0.012328823864667627,-0.10182454305806024
2025/07/05/17:44:19.882762,7324,1751712259,878974272,base_link,-0.020461412146687508,0.39002788066864014,-0.011365615762770176,0.044323404621252394,0.0683539771969974,-0.08282993229097238
2025/07/05/17:44:20.004959,7325,1751712260,982976,base_link,-0.00926378183066845,0.36943766474723816,-0.008136950433254242,0.04277152722873338,0.08943558095575041,-0.06707057594371502
2025/07/05/17:44:20.123886,7326,1751712260,119991936,base_link,-0.0003995365113951266,0.3565478026866913,-0.003479183651506901,0.01200219536330211,0.05114359981201051,-0.06007840382792204
2025/07/05/17:44:20.226001,7327,1751712260,223000384,base_link,-0.0001874305889941752,0.34882989525794983,0.0007811737596057355,-0.027622228469991322,-0.017856927156049408,-0.06055000244683034
2025/07/05/17:44:20.304239,7328,1751712260,301009088,base_link,-0.0009643909870646894,0.3470873534679413,-0.0009823027066886425,-0.05171345381362826,-0.07353645210574133,-0.0695179657721562
2025/07/05/17:44:20.483570,7329,1751712260,479022656,base_link,-0.006817411165684462,0.35842981934547424,-0.00705212727189064,-0.04353617194070758,-0.09457194120584736,-0.07383681887545464
2025/07/05/17:44:20.604369,7330,1751712260,601028800,base_link,-7.520694634877145e-05,0.3524664640426636,-0.005720520857721567,0.03603114319522867,0.031677410636385434,-0.08484079598035986
2025/07/05/17:44:20.704782,7331,1751712260,701037248,base_link,0.009224090725183487,0.35236185789108276,-0.007847601547837257,0.05531587589299185,0.09296253307349625,-0.07791560681547315
2025/07/05/17:44:20.805037,7332,1751712260,801043136,base_link,0.0192531980574131,0.3387013375759125,-0.0028945417143404484,0.04266018892371774,0.0968519290196218,-0.06425287805242283
2025/07/05/17:44:20.943044,7333,1751712260,939051072,base_link,0.03374040871858597,0.32770153880119324,-0.003336704336106777,0.009344117312683961,0.046025780939100244,-0.053673082577233355
2025/07/05/17:44:21.025652,7334,1751712261,23057216,base_link,0.02644447050988674,0.33231326937675476,-0.0007330197258852422,-0.03129278315917111,-0.03746167602751073,-0.05741126945774895
2025/07/05/17:44:21.104202,7335,1751712261,101062592,base_link,0.022871648892760277,0.3311322033405304,0.0013442989438772202,-0.047153881265189046,-0.0771903123337715,-0.07101620212567294
2025/07/05/17:44:21.205756,7336,1751712261,201068736,base_link,0.016806408762931824,0.3360181748867035,0.00737091526389122,-0.05011150335067038,-0.09660145089295391,-0.08613833568929549
2025/07/05/17:44:21.303987,7337,1751712261,301074880,base_link,0.013452271930873394,0.3350173532962799,0.012651186436414719,-0.025881802897146693,-0.0587271616438238,-0.09910905498565052
2025/07/05/17:44:21.442498,7338,1751712261,440081280,base_link,0.011545955203473568,0.33338019251823425,0.0058995019644498825,0.015355302635627342,0.020202088527337247,-0.10537650632443937
2025/07/05/17:44:21.582576,7339,1751712261,579097664,base_link,0.026385335251688957,0.3256712555885315,-0.0007572576869279146,0.05684631426011427,0.10061157895010672,-0.08976267723460982
2025/07/05/17:44:21.684284,7340,1751712261,680103808,base_link,0.043059781193733215,0.31073275208473206,0.0018917894922196865,0.03534162955828477,0.0584065554320074,-0.07234300656494724
2025/07/05/17:44:21.763490,7341,1751712261,759109952,base_link,0.04637511819601059,0.3093610107898712,0.0014315381413325667,0.006273061466740667,0.0036748916847065384,-0.06322854823212828
2025/07/05/17:44:21.863276,7342,1751712261,859116352,base_link,0.051643069833517075,0.3022790849208832,0.010944120585918427,-0.026138472296547012,-0.04874586956992739,-0.06420703681856729
2025/07/05/17:44:21.984771,7343,1751712261,979121472,base_link,0.050374969840049744,0.3040338456630707,0.010683330707252026,-0.04602194341212646,-0.06903832401940312,-0.0761518082146132
2025/07/05/17:44:22.084405,7344,1751712262,79128128,base_link,0.05571364611387253,0.30547404289245605,0.01217902172356844,-0.046002304058045326,-0.05696157036845814,-0.08691009644214817
2025/07/05/17:44:22.183943,7345,1751712262,179134272,base_link,0.051089096814394,0.3119053244590759,0.005253607872873545,-0.021721268151733118,-0.02140898967650677,-0.09569659181518264
2025/07/05/17:44:22.282504,7346,1751712262,279140672,base_link,0.053261786699295044,0.31017401814460754,-0.0073359208181500435,0.017548085170871863,0.02870520635416826,-0.10131609189296494
2025/07/05/17:44:22.405391,7347,1751712262,401146560,base_link,0.06816746294498444,0.29653191566467285,-0.0056573557667434216,0.052811981816469206,0.06526101639439605,-0.09509171925430385
2025/07/05/17:44:22.562608,7348,1751712262,559159616,base_link,0.08883151412010193,0.2808535099029541,0.000915586540941149,0.04623418211300502,0.053532504171807736,-0.0665118474560702
2025/07/05/17:44:22.644205,7349,1751712262,640159616,base_link,0.08455146104097366,0.27860844135284424,0.007152376230806112,0.002498405054555229,0.007450620921340788,-0.05914069359729789
2025/07/05/17:44:22.742932,7350,1751712262,739166016,base_link,0.09164388477802277,0.26986944675445557,0.010401371866464615,-0.030921342109509847,-0.025633568148410488,-0.07006467628564086
2025/07/05/17:44:22.825443,7351,1751712262,823172416,base_link,0.09247458726167679,0.2720966339111328,0.010444005951285362,-0.06191475469697636,-0.06555202139651324,-0.08216050751482146
2025/07/05/17:44:22.923967,7352,1751712262,920177536,base_link,0.09041255712509155,0.2656812071800232,0.009275602176785469,-0.07541462462440858,-0.0907232970813587,-0.09233220378145056
2025/07/05/17:44:23.025968,7353,1751712263,23184448,base_link,0.08996860682964325,0.26386144757270813,0.002715042792260647,-0.037680451182405025,-0.057681554104671115,-0.10096415535640145
2025/07/05/17:44:23.104291,7354,1751712263,101191872,base_link,0.08854382485151291,0.26805242896080017,-0.004302839282900095,0.017492383027221566,0.009369839229625582,-0.10013267600323196
2025/07/05/17:44:23.204795,7355,1751712263,201197760,base_link,0.1038544625043869,0.2708617150783539,-0.006308849900960922,0.079632501589139,0.09308237398306275,-0.09104404388914272
2025/07/05/17:44:23.323649,7356,1751712263,320203904,base_link,0.11560123413801193,0.25768283009529114,-0.004277932923287153,0.09854226413123303,0.11803004071477635,-0.08019260541995865
2025/07/05/17:44:23.483023,7357,1751712263,479214144,base_link,0.12220833450555801,0.24227850139141083,0.002988967578858137,0.04569180195578606,0.05919354921432662,-0.072169798546602
2025/07/05/17:44:23.583453,7358,1751712263,580220032,base_link,0.12291941791772842,0.2402014583349228,0.007096322253346443,-0.08087071687286784,-0.08507528675090976,-0.08279157220973597
2025/07/05/17:44:23.683404,7359,1751712263,680225152,base_link,0.12097371369600296,0.24441534280776978,0.010151411406695843,-0.10228237194387492,-0.11454352747994681,-0.09994512755386036
2025/07/05/17:44:23.784803,7360,1751712263,779230528,base_link,0.11748003959655762,0.24710142612457275,0.008375164121389389,-0.05467706198359571,-0.06549615566491289,-0.10304974004451586
2025/07/05/17:44:23.862724,7361,1751712263,859236160,base_link,0.11095470190048218,0.25564298033714294,0.005979725159704685,0.014094168922301373,0.011222878378235435,-0.10248884874647614
2025/07/05/17:44:23.962785,7362,1751712263,959243072,base_link,0.11799212545156479,0.24687452614307404,0.004618166480213404,0.08062090035095734,0.08651068184015093,-0.09684581674338252
2025/07/05/17:44:24.042316,7363,1751712264,40243072,base_link,0.12198232859373093,0.244185671210289,0.000517899461556226,0.10829826098606801,0.12297110844401697,-0.07944238900357348
2025/07/05/17:44:24.143028,7364,1751712264,139249216,base_link,0.13448551297187805,0.22797200083732605,-0.0003911095845978707,0.0693449690767564,0.08350354749438825,-0.0693526016091006
2025/07/05/17:44:24.226570,7365,1751712264,223255872,base_link,0.1340828537940979,0.22336646914482117,0.0015550536336377263,-0.015179730811584895,-0.0043924504680985296,-0.06842325036115134
2025/07/05/17:44:24.323966,7366,1751712264,320263040,base_link,0.1359945386648178,0.2180732786655426,0.006583741866052151,-0.0771228507495899,-0.06841986948203539,-0.07891640287437204
2025/07/05/17:44:24.504044,7367,1751712264,501276864,base_link,0.13063591718673706,0.2153279334306717,0.01093494612723589,-0.11536686272060413,-0.12063842561377247,-0.08914298999159839
2025/07/05/17:44:24.625789,7368,1751712264,623285312,base_link,0.14043289422988892,0.20324799418449402,0.007223364897072315,-0.0021577346098966546,-0.03156034230246233,-0.07581590518422755
2025/07/05/17:44:24.722785,7369,1751712264,720290432,base_link,0.13962209224700928,0.19552598893642426,0.0027517136186361313,0.06145428060208362,0.04142213165930846,-0.043657515737200794
2025/07/05/17:44:24.804865,7370,1751712264,801296832,base_link,0.15456977486610413,0.17821842432022095,-0.001209549605846405,0.11462143446843831,0.128328364901714,-0.02083661984520646
2025/07/05/17:44:24.923198,7371,1751712264,920303232,base_link,0.1605650782585144,0.1663348376750946,0.0031548812985420227,0.07698093494005143,0.11034701914096953,0.01314833852193592
2025/07/05/17:44:25.026087,7372,1751712265,23310144,base_link,0.1630714386701584,0.1596134901046753,0.01151293981820345,-0.03142249048537606,-0.003330407842268741,0.007138393248484249
2025/07/05/17:44:25.123715,7373,1751712265,120316800,base_link,0.16108635067939758,0.15922242403030396,0.018787413835525513,-0.08703106926281232,-0.0836020352255504,-0.0029157276021071106
2025/07/05/17:44:25.225788,7374,1751712265,223324736,base_link,0.15563654899597168,0.16097216308116913,0.019841497763991356,-0.1038689954629166,-0.13592238493570954,-0.009800506584108432
2025/07/05/17:44:25.304317,7375,1751712265,301329600,base_link,0.1518799066543579,0.15902753174304962,0.01432424783706665,-0.05881037622372979,-0.10196470550030969,-0.008501140991424815
2025/07/05/17:44:25.462956,7376,1751712265,459341888,base_link,0.15200605988502502,0.1481696367263794,0.0034453703556209803,0.03900158345821988,0.011232086737398908,0.007941778799854093
2025/07/05/17:44:25.583951,7377,1751712265,579347264,base_link,0.1580667495727539,0.1362951397895813,0.002846767893061042,0.11039236700664529,0.15201077237179567,0.0335580776730677
2025/07/05/17:44:25.684373,7378,1751712265,679353408,base_link,0.15819664299488068,0.12931722402572632,0.010484971106052399,0.03838703071574608,0.08413611249053247,0.03132912260155876
2025/07/05/17:44:25.804178,7379,1751712265,800358016,base_link,0.1536867618560791,0.12686215341091156,0.021211862564086914,-0.05916507938366312,-0.0434347217335257,0.013102263292041345
2025/07/05/17:44:25.883940,7380,1751712265,879363648,base_link,0.14792035520076752,0.129303440451622,0.021733682602643967,-0.11875918237423082,-0.14799849768026607,-0.002647572760389169
2025/07/05/17:44:25.983494,7381,1751712265,979368768,base_link,0.14155930280685425,0.13063782453536987,0.014928482472896576,-0.10188403564859147,-0.1538774882931984,-0.0076514870423524395
2025/07/05/17:44:26.083877,7382,1751712266,80374144,base_link,0.14036232233047485,0.12888149917125702,0.007344991900026798,0.01299866067781776,-0.021607957872652288,0.00312332642754627
2025/07/05/17:44:26.184299,7383,1751712266,180379008,base_link,0.14182889461517334,0.12342995405197144,0.004539094865322113,0.10399481015527749,0.1166272822509092,0.02278030398098138
2025/07/05/17:44:26.304076,7384,1751712266,300384896,base_link,0.1453319638967514,0.11599625647068024,0.01085397507995367,0.11317539595880206,0.1644858268479036,0.03173894508659426
2025/07/05/17:44:26.426734,7385,1751712266,423389504,base_link,0.14224214851856232,0.11559170484542847,0.02091364935040474,0.03381526893313007,0.08173802390163161,0.027289032779286453
2025/07/05/17:44:26.543045,7386,1751712266,539394880,base_link,0.13780252635478973,0.12259067595005035,0.02375224605202675,-0.09823414604496707,-0.1118917224909677,0.00203578729213056
2025/07/05/17:44:26.604742,7387,1751712266,601399744,base_link,0.13355320692062378,0.12552285194396973,0.01951199769973755,-0.10847973602321168,-0.16030719517743597,-0.00569584424897563
2025/07/05/17:44:26.704442,7388,1751712266,701405120,base_link,0.13145782053470612,0.1259760558605194,0.009806948713958263,-0.045841626260689786,-0.09789188239301892,-0.00413360480955011
2025/07/05/17:44:26.805344,7389,1751712266,801413312,base_link,0.13107852637767792,0.12040318548679352,0.004100334364920855,0.058265328218787875,0.043234060083938354,0.010479333824602652
2025/07/05/17:44:26.942331,7390,1751712266,939421504,base_link,0.13638564944267273,0.11479631811380386,0.007803773041814566,0.11026877478861218,0.14606833345877343,0.02174464229029438
2025/07/05/17:44:27.025642,7391,1751712267,23427392,base_link,0.13345423340797424,0.11522656679153442,0.01541720237582922,0.0520755466191311,0.10640386329654805,0.020087116040363423
2025/07/05/17:44:27.122947,7392,1751712267,120433024,base_link,0.1293734461069107,0.1168457642197609,0.02448156289756298,-0.024965280467672425,0.003429365595594803,0.008332279521537155
2025/07/05/17:44:27.204659,7393,1751712267,201433024,base_link,0.12472940981388092,0.12067057192325592,0.025603611022233963,-0.09946945452677475,-0.1233494253999872,-0.006112837613456594
2025/07/05/17:44:27.303640,7394,1751712267,301439680,base_link,0.11527672410011292,0.1251201629638672,0.01831836812198162,-0.0895516552158783,-0.14553224185305913,-0.009190749333281015
2025/07/05/17:44:27.442503,7395,1751712267,439445824,base_link,0.1147330105304718,0.12137956917285919,0.006958195939660072,0.004942636635495645,-0.033035611191059785,-0.0036235078462214017
2025/07/05/17:44:27.603842,7396,1751712267,601458880,base_link,0.11788103729486465,0.11600711941719055,0.013580585829913616,0.09683842576639189,0.14453121364149168,0.016753012187245515
2025/07/05/17:44:27.684427,7397,1751712267,679464000,base_link,0.11556421220302582,0.11657128483057022,0.022882532328367233,0.03526836181940971,0.08523201812864735,0.01320127950476619
2025/07/05/17:44:27.804019,7398,1751712267,801470656,base_link,0.11195366829633713,0.1176806390285492,0.03111516870558262,-0.049799678237201724,-0.04167623720633418,-0.0015420620552214562
2025/07/05/17:44:27.923954,7399,1751712267,920476544,base_link,0.10389744490385056,0.12223242223262787,0.024854512885212898,-0.0885257226946251,-0.13125753292033646,-0.008692205345903977
2025/07/05/17:44:28.004457,7400,1751712268,1482688,base_link,0.10019207000732422,0.12169697135686874,0.016145911067724228,-0.027949646836461225,-0.07526660803660723,-0.004527543196951582
2025/07/05/17:44:28.122884,7401,1751712268,120488832,base_link,0.10019619017839432,0.11929448693990707,0.008920162916183472,0.051585184208981075,0.05065543519688656,0.00549859573506554
2025/07/05/17:44:28.204739,7402,1751712268,201488832,base_link,0.09980805218219757,0.11683613061904907,0.013349504210054874,0.07482195609074466,0.11935620040411082,0.013539744460368687
2025/07/05/17:44:28.304203,7403,1751712268,300493440,base_link,0.09808605164289474,0.11552143841981888,0.023120615631341934,0.03019127002956578,0.07692820872109943,0.008901430861595113
2025/07/05/17:44:28.462857,7404,1751712268,460507008,base_link,0.09025160223245621,0.11844165623188019,0.032740868628025055,-0.039722859920458146,-0.03418938423750318,-0.0027739829663122077
2025/07/05/17:44:28.605813,7405,1751712268,601507008,base_link,0.0844106674194336,0.11896511912345886,0.02127603441476822,-0.03310484885673327,-0.07690262407240028,-0.003064429372112756
2025/07/05/17:44:28.705058,7406,1751712268,701507008,base_link,0.08373186737298965,0.11428943276405334,0.013783494010567665,0.04332168802524612,0.03757962949542765,0.008179027646313461
2025/07/05/17:44:28.804378,7407,1751712268,801507008,base_link,0.0854932963848114,0.10910262167453766,0.014646145515143871,0.07392184472331687,0.10965093697595074,0.017317110146249492
2025/07/05/17:44:28.922844,7408,1751712268,920512384,base_link,0.08343840390443802,0.10659798979759216,0.02431664802134037,0.03478669744786067,0.07516195312937671,0.012196482813188232
2025/07/05/17:44:29.003976,7409,1751712269,1519040,base_link,0.07876209914684296,0.10716716945171356,0.029201576486229897,-0.03632766443401981,-0.031814150150800254,-0.000619743589543322
2025/07/05/17:44:29.102767,7410,1751712269,100524160,base_link,0.07538328319787979,0.10871365666389465,0.02917386032640934,-0.07243276746616323,-0.10152928733626554,-0.006353657788336738
2025/07/05/17:44:29.184324,7411,1751712269,180524160,base_link,0.07273578643798828,0.10905830562114716,0.024256842210888863,-0.05109906400224579,-0.09429343212582164,-0.002697925419769291
2025/07/05/17:44:29.284046,7412,1751712269,279529024,base_link,0.07499781250953674,0.10372225195169449,0.017547592520713806,0.022458331994529537,0.010398146491328811,0.006862587785861543
2025/07/05/17:44:29.425566,7413,1751712269,423533632,base_link,0.07902143895626068,0.0966126024723053,0.017862245440483093,0.07035325538414816,0.10214992847587663,0.01809120097441739
2025/07/05/17:44:29.562923,7414,1751712269,560545664,base_link,0.08017417043447495,0.09350921958684921,0.029155557975172997,-0.001674798483802768,0.021801499518332094,0.0066792037591422194
2025/07/05/17:44:29.662796,7415,1751712269,660552320,base_link,0.07609131932258606,0.09414517134428024,0.03265891969203949,-0.06401950941658552,-0.08939658867741726,-0.00398119939729275
2025/07/05/17:44:29.742903,7416,1751712269,739552320,base_link,0.07387832552194595,0.09408065676689148,0.02802703157067299,-0.07235477861043534,-0.12118521271527617,-0.004481485542625816
2025/07/05/17:44:29.825707,7417,1751712269,823557184,base_link,0.0738144963979721,0.09288546442985535,0.020991403609514236,-0.02982796634239222,-0.07255611794138501,0.0011027489484241367
2025/07/05/17:44:29.942813,7418,1751712269,939557184,base_link,0.07625506073236465,0.0896003246307373,0.013945493847131729,0.033070155705575685,0.02479552088648713,0.011303032450702803
2025/07/05/17:44:30.025896,7419,1751712270,23563072,base_link,0.0772886574268341,0.08773577213287354,0.015924915671348572,0.07279308296864213,0.11838667329590491,0.023307048734668212
2025/07/05/17:44:30.103852,7420,1751712270,101568192,base_link,0.07743357867002487,0.08562081307172775,0.02173963375389576,0.04509991398854324,0.09452541266850968,0.018912458699737983
2025/07/05/17:44:30.205565,7421,1751712270,201568192,base_link,0.07607389241456985,0.08605772256851196,0.027489976957440376,-0.02311511520878011,-0.01068793111629863,0.0067096962796957815
2025/07/05/17:44:30.323012,7422,1751712270,320568192,base_link,0.07207686454057693,0.08428551256656647,0.02373459003865719,-0.06721144418055171,-0.10377363609958723,-0.000896946613451105
2025/07/05/17:44:30.445642,7423,1751712270,442573312,base_link,0.07125568389892578,0.08136412501335144,0.014810987748205662,-0.04342290487588991,-0.09395175710748711,0.003443515364951775
2025/07/05/17:44:30.583688,7424,1751712270,579587392,base_link,0.07698322832584381,0.07086091488599777,0.012800807133316994,0.04001032113496124,0.0454591695768944,0.016328764935539683
2025/07/05/17:44:30.663183,7425,1751712270,660594304,base_link,0.07637969404459,0.06851275265216827,0.017616307362914085,0.046174309150240025,0.0918408395007099,0.020965807820706804
2025/07/05/17:44:30.762521,7426,1751712270,760600704,base_link,0.07684450596570969,0.06829819828271866,0.025308938696980476,0.003956133813268434,0.03474931238881371,0.010809020864337816
2025/07/05/17:44:30.861989,7427,1751712270,859606848,base_link,0.07278215885162354,0.07064412534236908,0.026606054976582527,-0.040223751162105054,-0.05703841608408431,0.0027517310017720967
2025/07/05/17:44:30.984187,7428,1751712270,979613504,base_link,0.06902213394641876,0.07302337139844894,0.017393099144101143,-0.03207048908382336,-0.07709817213883541,0.00340943772207205
2025/07/05/17:44:31.102554,7429,1751712271,100613504,base_link,0.07131685316562653,0.07150323688983917,0.01176441553980112,0.016482437809140167,-0.001734646854392018,0.009358538748999102
2025/07/05/17:44:31.204087,7430,1751712271,201618112,base_link,0.0712549015879631,0.07117519527673721,0.014277586713433266,0.04129738132446847,0.06667001958015185,0.01746274057332233
2025/07/05/17:44:31.282722,7431,1751712271,280622976,base_link,0.07044339925050735,0.07112175971269608,0.019899092614650726,0.021356787293716963,0.062340784927057837,0.01405438342408631
2025/07/05/17:44:31.403971,7432,1751712271,401628352,base_link,0.06590106338262558,0.073754221200943,0.026993930339813232,-0.02028621395329913,-0.00667109124827419,0.004100612017748753
2025/07/05/17:44:31.563186,7433,1751712271,559639872,base_link,0.0623173750936985,0.07670755684375763,0.018856562674045563,-0.039529089138986284,-0.07061050230449668,-0.0032797652704310114
2025/07/05/17:44:31.625475,7434,1751712271,623639872,base_link,0.06300800293684006,0.07489180564880371,0.014133631251752377,0.012916308175073296,-0.006789342750222139,0.002835686598499614
2025/07/05/17:44:31.723140,7435,1751712271,720639872,base_link,0.06451991200447083,0.06992511451244354,0.013262475840747356,0.03901996636737172,0.049463512354238764,0.009099722375248158
2025/07/05/17:44:31.825747,7436,1751712271,823639872,base_link,0.06242818385362625,0.06848638504743576,0.019657839089632034,0.02992669392679036,0.06342653565762615,0.0122586203219571
2025/07/05/17:44:31.922793,7437,1751712271,920639872,base_link,0.058774929493665695,0.06852666288614273,0.02724536694586277,-0.00033142909004854376,0.025545186498057763,0.006482190813281167
2025/07/05/17:44:32.022728,7438,1751712272,20646528,base_link,0.052930813282728195,0.06836007535457611,0.028237098827958107,-0.041056049018325366,-0.05746454912604884,-0.002428407486039211
2025/07/05/17:44:32.102230,7439,1751712272,101651648,base_link,0.051320161670446396,0.06603168696165085,0.02183171920478344,-0.0348641683183694,-0.06952424270822072,-0.004068402862356385
2025/07/05/17:44:32.203484,7440,1751712272,201655488,base_link,0.053157612681388855,0.06030392274260521,0.014769360423088074,0.008077295404764108,-0.013152522301131793,-0.0010193611358104144
2025/07/05/17:44:32.303297,7441,1751712272,301661120,base_link,0.05448669195175171,0.056933965533971786,0.013479881919920444,0.040240585004574406,0.05649984651912136,0.005140057106857932
2025/07/05/17:44:32.482094,7442,1751712272,479673664,base_link,0.0485152043402195,0.055237557739019394,0.026231782510876656,0.02568812509066663,0.06302780330723923,0.005215845884944798
2025/07/05/17:44:32.604273,7443,1751712272,601679296,base_link,0.044553615152835846,0.055894773453474045,0.02715546451508999,-0.03888539460219259,-0.058829924369084234,-0.007006204843904806
2025/07/05/17:44:32.722916,7444,1751712272,720679296,base_link,0.042806241661310196,0.05236239731311798,0.016838932409882545,-0.017681702211727265,-0.053355179172505415,-0.005965613422643473
2025/07/05/17:44:32.825243,7445,1751712272,823683136,base_link,0.04515374079346657,0.0462903268635273,0.012799153104424477,0.029491612040100153,0.02702926123612318,-0.0005829208664585323
2025/07/05/17:44:32.903204,7446,1751712272,901683136,base_link,0.04581347107887268,0.042537227272987366,0.01535197626799345,0.031063976797013743,0.054692884607143916,0.0018829899420120463
2025/07/05/17:44:33.025748,7447,1751712273,23687488,base_link,0.04436470568180084,0.040266018360853195,0.02098093368113041,-0.0055881550780564,0.020271579471147508,-0.0019953970011176063
2025/07/05/17:44:33.102574,7448,1751712273,100692096,base_link,0.042053837329149246,0.0387556366622448,0.022126244381070137,-0.027985592997916812,-0.025380189242099793,-0.005092587039439862
2025/07/05/17:44:33.203958,7449,1751712273,201692096,base_link,0.04070569574832916,0.03559708967804909,0.018026066944003105,-0.022489892691813174,-0.04732081098312197,-0.004593622428031154
2025/07/05/17:44:33.302637,7450,1751712273,300696960,base_link,0.04062698781490326,0.030842255800962448,0.012260646559298038,0.005855151263672283,-0.018838960125800018,-0.0016770594967457464
2025/07/05/17:44:33.383301,7451,1751712273,380701824,base_link,0.041203513741493225,0.026405761018395424,0.01082852203398943,0.03425066317648048,0.03469393491607902,0.0008972508770895794
2025/07/05/17:44:33.541994,7452,1751712273,540706944,base_link,0.03713292255997658,0.01982327736914158,0.01624256931245327,-0.00130194540274489,0.020730810329710782,-0.002451983809021497
2025/07/05/17:44:33.625319,7453,1751712273,623712320,base_link,0.034241046756505966,0.01892997696995735,0.01760474219918251,-0.03564044625176315,-0.0343907406044838,-0.005480101195548058
2025/07/05/17:44:33.741818,7454,1751712273,739712320,base_link,0.031696632504463196,0.01601514220237732,0.01349638868123293,-0.039138195642679334,-0.05596315145603026,-0.00529526890402662
2025/07/05/17:44:33.825734,7455,1751712273,823716928,base_link,0.03137419745326042,0.012712902389466763,0.007623279467225075,-0.004544656976242723,-0.022541149099499058,-0.002267236605874147
2025/07/05/17:44:33.922862,7456,1751712273,920716928,base_link,0.03536072000861168,0.004631104879081249,0.0026311506517231464,0.03032265695500004,0.029641977250386087,-0.00022711466663780534
2025/07/05/17:44:34.025799,7457,1751712274,23722816,base_link,0.03591126948595047,-0.0018536869902163744,0.004704880528151989,0.03707253293724894,0.05717804955743319,0.004173295059502242
2025/07/05/17:44:34.103288,7458,1751712274,101726912,base_link,0.03483118116855621,-0.0061971996910870075,0.006920051295310259,0.01145888258296166,0.027758996044650763,0.002134301817837456
2025/07/05/17:44:34.203581,7459,1751712274,201726912,base_link,0.029778214171528816,-0.009148252196609974,0.008926703594624996,-0.02747239885779642,-0.03410791403820214,-0.0002254926567551085
2025/07/05/17:44:34.281894,7460,1751712274,279731776,base_link,0.02768664062023163,-0.01171666570007801,0.005986220669001341,-0.03691452516424642,-0.0582249621708267,-0.0009029885751231925
2025/07/05/17:44:34.403725,7461,1751712274,401738176,base_link,0.025171488523483276,-0.01671030931174755,-0.0009265895350836217,-0.010883707234107759,-0.02722253562779982,0.0012381592332990272
2025/07/05/17:44:34.562905,7462,1751712274,560751232,base_link,0.028566058725118637,-0.028435789048671722,-0.0004956077318638563,0.03156678699672976,0.05009563636995354,0.006157139404075569
2025/07/05/17:44:34.663003,7463,1751712274,660757376,base_link,0.02668430469930172,-0.03158598393201828,0.0037783493753522635,0.0011642774756364114,0.017177444829591253,0.0054537836942480655
2025/07/05/17:44:34.781657,7464,1751712274,779763520,base_link,0.02262643538415432,-0.03351231664419174,0.005364300683140755,-0.028853381513953825,-0.035204746436714424,0.001388328980507881
2025/07/05/17:44:34.881729,7465,1751712274,879768896,base_link,0.021268216893076897,-0.03707760572433472,0.0010163395199924707,-0.015928560485158574,-0.03595675251347519,0.0016861242660398037
2025/07/05/17:44:34.981730,7466,1751712274,979774528,base_link,0.02252138964831829,-0.04267152398824692,-0.002948836889117956,0.015985363518476056,0.005382812150890448,0.0050972882770896335
2025/07/05/17:44:35.061928,7467,1751712275,59779136,base_link,0.025878382846713066,-0.048472631722688675,-0.0012811286142095923,0.035059939575392454,0.044253276216661384,0.009830786149973467
2025/07/05/17:44:35.123190,7468,1751712275,121779136,base_link,0.025648342445492744,-0.050728876143693924,0.002366405911743641,0.018689303870835033,0.03324006272398267,0.010331563451633519
2025/07/05/17:44:35.224821,7469,1751712275,223784768,base_link,0.02292131446301937,-0.05354704335331917,0.006594478152692318,-0.010375420028498514,-0.0016357403928799995,0.006246202249700707
2025/07/05/17:44:35.322567,7470,1751712275,320784768,base_link,0.02159123867750168,-0.054905954748392105,0.00565784377977252,-0.03090610914045554,-0.035092260107864114,0.0008201784301035096
2025/07/05/17:44:35.481943,7471,1751712275,479792960,base_link,0.02382531575858593,-0.060314420610666275,0.0005317418836057186,-0.020772899896809006,-0.03293592196229648,0.0004434618825450024
2025/07/05/17:44:35.582042,7472,1751712275,579797312,base_link,0.02740499936044216,-0.06513752043247223,0.001559438998810947,0.027429531199064276,0.035971381671788705,0.008681837318984687
2025/07/05/17:44:35.681567,7473,1751712275,679802432,base_link,0.026157956570386887,-0.06806426495313644,0.005619353614747524,0.008660119564371804,0.020422169751756692,0.008234616417921784
2025/07/05/17:44:35.781695,7474,1751712275,779807040,base_link,0.024826178327202797,-0.06895263493061066,0.007144229486584663,-0.019683980138123586,-0.020509654932814352,0.0012672287407047831
2025/07/05/17:44:35.902498,7475,1751712275,900810624,base_link,0.026066014543175697,-0.0698862075805664,0.002724328078329563,-0.020539566893442048,-0.03603129815266277,-0.0011850844162843962
2025/07/05/17:44:35.982800,7476,1751712275,980810624,base_link,0.02800903655588627,-0.07325354218482971,0.00104667735286057,0.00913050846597126,-0.001928854593681739,0.005733218202132277
2025/07/05/17:44:36.081796,7477,1751712276,79815488,base_link,0.03067568503320217,-0.07826367020606995,0.003490493632853031,0.02876800694133741,0.03676494810748048,0.014684183621549454
2025/07/05/17:44:36.181955,7478,1751712276,179819840,base_link,0.02948739565908909,-0.0809638723731041,0.00881099235266447,0.009966173589037411,0.028293346629467933,0.015727627280059032
2025/07/05/17:44:36.281734,7479,1751712276,280824704,base_link,0.02697204239666462,-0.0812586322426796,0.011391795240342617,-0.02337492074153475,-0.015405999350926465,0.006075431142460367
2025/07/05/17:44:36.382001,7480,1751712276,380829312,base_link,0.025774812325835228,-0.081351138651371,0.008655373007059097,-0.03049045270050169,-0.04213725288279625,-0.0015898298482241611
2025/07/05/17:44:36.562701,7481,1751712276,560840064,base_link,0.027907803654670715,-0.08526168763637543,0.002975651528686285,0.016305409167088128,0.0073205812596213145,0.007951356260722013
2025/07/05/17:44:36.662814,7482,1751712276,660845696,base_link,0.029567070305347443,-0.08832297474145889,0.006292382720857859,0.020329907832987663,0.02845228932638184,0.014141636966243357
2025/07/05/17:44:36.741628,7483,1751712276,739845696,base_link,0.029362808912992477,-0.08913300186395645,0.007990804500877857,0.0026400037849259334,0.013817708792016117,0.010316588256820167
2025/07/05/17:44:36.825248,7484,1751712276,823850048,base_link,0.029658792540431023,-0.09057646244764328,0.007882685400545597,-0.013369720728332573,-0.00860985115544058,0.0017726004442083932
2025/07/05/17:44:36.961961,7485,1751712276,959854400,base_link,0.03421025350689888,-0.09338399767875671,0.002754822839051485,-0.0038382210797854046,-0.008856231801111829,0.001428888130540332
2025/07/05/17:44:37.061852,7486,1751712277,59858752,base_link,0.037791214883327484,-0.0960235521197319,0.0034410397056490183,0.01506834252571328,0.013574612523015733,0.010352911660785138
2025/07/05/17:44:37.161776,7487,1751712277,160862592,base_link,0.03866324946284294,-0.09733670949935913,0.007510888855904341,0.006976757279271008,0.009800299789877082,0.013652364626121752
2025/07/05/17:44:37.242031,7488,1751712277,240862592,base_link,0.036428239196538925,-0.09629760682582855,0.010029404424130917,-0.017218978955599925,-0.017764110989182524,0.008254153606730501
2025/07/05/17:44:37.341552,7489,1751712277,339867712,base_link,0.03473034128546715,-0.09503312408924103,0.008664864115417004,-0.02624481999983487,-0.032572765984776306,0.0019483117993746267
2025/07/05/17:44:37.522763,7490,1751712277,520875904,base_link,0.035523977130651474,-0.09488495439291,0.0025334134697914124,-0.010992005767171702,-0.017355267399919997,0.0005563752222479588
2025/07/05/17:44:37.603667,7491,1751712277,601879744,base_link,0.035847440361976624,-0.09601335227489471,0.0017743731150403619,0.02377415832329405,0.035175061885699646,0.009798033056151378
2025/07/05/17:44:37.682047,7492,1751712277,679884096,base_link,0.03478506579995155,-0.09586654603481293,0.003797844285145402,0.017208952419104397,0.029240377958325812,0.012026595861513542
2025/07/05/17:44:37.804037,7493,1751712277,801888448,base_link,0.03335607051849365,-0.09508021920919418,0.005204490851610899,-0.0035887898197783158,-0.0027085060603664187,0.00914251664082104
2025/07/05/17:44:37.881956,7494,1751712277,879893312,base_link,0.033632926642894745,-0.09533768892288208,0.004047156311571598,-0.011848799331801186,-0.024184507336532126,0.00544698685414959
2025/07/05/17:44:38.003438,7495,1751712278,1898432,base_link,0.03512784466147423,-0.09792102873325348,0.0024545916821807623,0.0045037823195039385,-0.00498506293702122,0.007798452683540774
2025/07/05/17:44:38.103197,7496,1751712278,101898432,base_link,0.03552664443850517,-0.09901192039251328,0.0055838702246546745,0.011068659280451741,0.014531039960910446,0.011864759616329714
2025/07/05/17:44:38.203752,7497,1751712278,201902528,base_link,0.03391131013631821,-0.09888706356287003,0.009810558520257473,-0.003342363190666776,0.0051017275648347835,0.013233601887457678
2025/07/05/17:44:38.322821,7498,1751712278,320906624,base_link,0.031116247177124023,-0.0955229178071022,0.009771961718797684,-0.020445958270557167,-0.018737061949372177,0.00839628922181862
2025/07/05/17:44:38.481938,7499,1751712278,480906624,base_link,0.0314343124628067,-0.09516144543886185,0.0037609979044646025,-0.01668532075198295,-0.021143956977728324,0.0038811953333036434
2025/07/05/17:44:38.603487,7500,1751712278,601910464,base_link,0.03305727243423462,-0.0965220034122467,0.006114300340414047,0.02600251743459165,0.03622923330023609,0.011675631970351092
2025/07/05/17:44:38.702990,7501,1751712278,701910464,base_link,0.03235190361738205,-0.09529411792755127,0.009500764310359955,0.015391490483068393,0.020688375781071,0.014880890743263729
2025/07/05/17:44:38.803716,7502,1751712278,801914304,base_link,0.030787872150540352,-0.09403512626886368,0.010483436286449432,-0.008085038343155741,-0.01790256024477956,0.012755858945846622
2025/07/05/17:44:38.881694,7503,1751712278,880918912,base_link,0.030626194551587105,-0.09257575124502182,0.009196290746331215,-0.01637294390035002,-0.03284083021091839,0.009164439719274237
2025/07/05/17:44:39.002844,7504,1751712279,1923520,base_link,0.03231757879257202,-0.09223706275224686,0.00963484589010477,-0.006454309833117583,-0.013916787630303787,0.008725677416065211
2025/07/05/17:44:39.081708,7505,1751712279,79928640,base_link,0.03234740346670151,-0.09024105966091156,0.012321213260293007,0.004508785681252295,0.013226070708497727,0.011983316855101653
2025/07/05/17:44:39.204024,7506,1751712279,201933504,base_link,0.028093650937080383,-0.08672076463699341,0.015503543429076672,-0.0037813103726586795,0.010034191619531242,0.01274290772925503
2025/07/05/17:44:39.302995,7507,1751712279,300937856,base_link,0.024424990639090538,-0.08462198823690414,0.013057232834398746,-0.016270834731084406,-0.013677602807868762,0.009239940657920474
2025/07/05/17:44:39.441848,7508,1751712279,440942208,base_link,0.025714196264743805,-0.08373932540416718,0.006993773393332958,-0.001206922420237554,-0.010004787894333567,0.005408973144544951
2025/07/05/17:44:39.581736,7509,1751712279,580950400,base_link,0.02780238725244999,-0.08563721925020218,0.007431928534060717,0.0336275992475106,0.0383126428523845,0.01476037002977257
2025/07/05/17:44:39.681793,7510,1751712279,679954496,base_link,0.026574386283755302,-0.08558977395296097,0.011174716055393219,0.008023450308207522,0.015185700632568248,0.015468300594068715
2025/07/05/17:44:39.761763,7511,1751712279,759954496,base_link,0.025557223707437515,-0.08378192037343979,0.011161966249346733,-0.02098040870002531,-0.021363066994151636,0.01152499740767406
2025/07/05/17:44:39.861693,7512,1751712279,859954496,base_link,0.02565165050327778,-0.08100668340921402,0.008368871174752712,-0.033083541348356324,-0.04264740688455464,0.00650370489871604
2025/07/05/17:44:39.961987,7513,1751712279,959954496,base_link,0.02616582252085209,-0.07876399904489517,0.005691909231245518,-0.01696935360327687,-0.023864410351676052,0.006873032735477394
2025/07/05/17:44:40.061470,7514,1751712280,60959104,base_link,0.026620320975780487,-0.07693224400281906,0.0055342609994113445,0.011948648417489945,0.018376404572376596,0.012308716740620484
2025/07/05/17:44:40.162025,7515,1751712280,160963200,base_link,0.025195954367518425,-0.07443729043006897,0.006451144814491272,0.009826466324253103,0.02088347845838883,0.01136493917153548
2025/07/05/17:44:40.261890,7516,1751712280,259968064,base_link,0.025270620360970497,-0.07023441046476364,0.005646251142024994,-0.0009979636287901707,7.96958494537252e-05,0.006540228393463988
2025/07/05/17:44:40.341503,7517,1751712280,339968064,base_link,0.025470152497291565,-0.06809397041797638,0.0014141754945740104,0.0011724477049264393,-0.007998400988152314,0.006458125185625631
2025/07/05/17:44:40.522821,7518,1751712280,520972672,base_link,0.027056029066443443,-0.06445559859275818,0.0002849188167601824,0.015828276027748202,0.005466023689574299,0.010936902154170742
2025/07/05/17:44:40.604014,7519,1751712280,601976256,base_link,0.026063470169901848,-0.062464140355587006,0.0037698971573263407,0.003705566392821877,0.011013076890163702,0.013220368435442654
2025/07/05/17:44:40.702843,7520,1751712280,701976256,base_link,0.025473689660429955,-0.058618899434804916,0.005584102123975754,-0.02134154154889393,-0.016109492704302942,0.008630932643899324
2025/07/05/17:44:40.803688,7521,1751712280,801979840,base_link,0.02369626797735691,-0.055657144635915756,0.0036277028266340494,-0.025886371720713473,-0.029993099354107402,0.005809755149513199
2025/07/05/17:44:40.922913,7522,1751712280,920983424,base_link,0.025137383490800858,-0.05230102688074112,0.0019433879060670733,-0.0033473775757888406,-0.00782313071538931,0.006711145998588925
2025/07/05/17:44:41.003819,7523,1751712281,1987520,base_link,0.02527867630124092,-0.05001929774880409,0.0028968642000108957,0.019846955933371192,0.025860759240012212,0.009954712694221657
2025/07/05/17:44:41.122840,7524,1751712281,120987520,base_link,0.02567332610487938,-0.046848755329847336,0.005224923603236675,0.0158987954676575,0.023254762027989064,0.008939762723249528
2025/07/05/17:44:41.204083,7525,1751712281,201987520,base_link,0.025378724560141563,-0.04387691617012024,0.0061855800449848175,0.0005327014192941778,-0.0016055319375075465,0.0068372393671110076
2025/07/05/17:44:41.302482,7526,1751712281,300991360,base_link,0.0269887987524271,-0.04312987998127937,0.004752998240292072,-0.003709309853186757,-0.014789913785087757,0.006447509533966571
2025/07/05/17:44:41.425909,7527,1751712281,423994944,base_link,0.0284726582467556,-0.041655972599983215,0.004269507713615894,0.0017190434523824466,-0.006147827657044119,0.009522414181992142
2025/07/05/17:44:41.561800,7528,1751712281,560999808,base_link,0.0275808684527874,-0.038671620190143585,0.006501757074147463,-0.006797258949616202,0.004331960749132164,0.009883987634316927
2025/07/05/17:44:41.663140,7529,1751712281,661005440,base_link,0.026443375274538994,-0.03635154291987419,0.006634541787207127,-0.015465339279820313,-0.009382442191078129,0.005210363383525939
2025/07/05/17:44:41.741868,7530,1751712281,740005440,base_link,0.02696944959461689,-0.03564850613474846,0.004949123598635197,-0.011245651144753512,-0.012772591228516162,0.0035524719839729315
2025/07/05/17:44:41.825807,7531,1751712281,824010048,base_link,0.028324149549007416,-0.03464861959218979,0.00461047887802124,0.002299776169392507,-0.003090708540877178,0.004874926910778649
2025/07/05/17:44:41.902894,7532,1751712281,902013632,base_link,0.028910838067531586,-0.03552061319351196,0.003808316309005022,0.014001311231040004,0.009907008287697429,0.009118612130408852
2025/07/05/17:44:42.025666,7533,1751712282,24013632,base_link,0.028914613649249077,-0.03428376466035843,0.004682810977101326,0.01037406945460316,0.011355919672320794,0.00952931817117833
2025/07/05/17:44:42.102736,7534,1751712282,101013632,base_link,0.029288142919540405,-0.03374980017542839,0.005595166701823473,0.0017413331362908016,0.002817321948568252,0.0067254808145971
2025/07/05/17:44:42.202896,7535,1751712282,201017984,base_link,0.03102247603237629,-0.03334306925535202,0.00504695950075984,-0.0034681012751265703,-0.003937249914028172,0.004818873029823274
2025/07/05/17:44:42.302703,7536,1751712282,302021568,base_link,0.03134686499834061,-0.03458622843027115,0.0039071738719940186,-0.001097863697886052,-7.831352530288333e-05,0.007324343902000434
2025/07/05/17:44:42.444910,7537,1751712282,443026176,base_link,0.030780769884586334,-0.033539824187755585,0.004333391319960356,-0.002254730968495617,0.0009198335716248344,0.010230083234042241
2025/07/05/17:44:42.561921,7538,1751712282,561030528,base_link,0.029546087607741356,-0.032784540206193924,0.00555856479331851,-0.009032880764878137,-0.007588598005554887,0.006734101596165075
2025/07/05/17:44:42.661404,7539,1751712282,660030528,base_link,0.029229845851659775,-0.03194817528128624,0.004398345947265625,-0.004835098818531129,-0.007391592556510527,0.003303462422805388
2025/07/05/17:44:42.743295,7540,1751712282,740030528,base_link,0.02920602820813656,-0.032901566475629807,0.004177280701696873,0.003488990253873504,-0.0009058087563173266,0.005479915732511323
2025/07/05/17:44:42.824750,7541,1751712282,824030528,base_link,0.029133807867765427,-0.0325266532599926,0.004382586106657982,0.01024810199406466,0.0060721927188482055,0.009584673217678957
2025/07/05/17:44:42.903546,7542,1751712282,902030528,base_link,0.02922014892101288,-0.03364427760243416,0.0054950411431491375,0.011497091897959302,0.008514164014979283,0.011212606475804424
2025/07/05/17:44:43.003548,7543,1751712283,2030528,base_link,0.02968333475291729,-0.034330882132053375,0.006529749371111393,0.005288607302070413,0.00836316107498861,0.009314535558218618
2025/07/05/17:44:43.102396,7544,1751712283,102034112,base_link,0.03338150680065155,-0.036005668342113495,0.007032177876681089,-0.0034876909630908934,0.0035994409750223773,0.007180190651468441
2025/07/05/17:44:43.203790,7545,1751712283,202034112,base_link,0.03577573969960213,-0.03649189695715904,0.006910507567226887,-0.00795898434685465,-0.003524582037476379,0.00774113026065468
2025/07/05/17:44:43.303348,7546,1751712283,301034112,base_link,0.036244843155145645,-0.03535265102982521,0.007099408656358719,-0.008580976284719998,-0.010770658634229496,0.01013068964954973
2025/07/05/17:44:43.462803,7547,1751712283,461039488,base_link,0.03474397584795952,-0.03516358882188797,0.005927300080657005,-0.003766134946758602,-0.010666540632304579,0.009374611737899965
2025/07/05/17:44:43.603752,7548,1751712283,602039488,base_link,0.03544159606099129,-0.034279461950063705,0.006100016180425882,0.007122277903217096,0.009009507912153828,0.008023153452877907
2025/07/05/17:44:43.722630,7549,1751712283,721044608,base_link,0.03529977798461914,-0.03445589542388916,0.005444705486297607,0.0052467598418138575,0.009268517910946104,0.010544156569170016
2025/07/05/17:44:43.803615,7550,1751712283,802044608,base_link,0.03432372584939003,-0.03367697075009346,0.005226281937211752,4.384893762895178e-05,0.002159684274790418,0.010988403078208683
2025/07/05/17:44:43.922903,7551,1751712283,921044608,base_link,0.035211753100156784,-0.03746519610285759,0.003854371840134263,-0.003211770450993668,-0.004122490854476493,0.008367577677705204
2025/07/05/17:44:44.025038,7552,1751712284,24048192,base_link,0.03663735091686249,-0.039224278181791306,0.003979598172008991,-0.0034600793382049437,-0.005457447740098288,0.009025076630528293
2025/07/05/17:44:44.102291,7553,1751712284,102051264,base_link,0.03606928139925003,-0.03987877815961838,0.0035831055138260126,-0.0019413675725346148,-0.004812529365393456,0.010110113438152097
2025/07/05/17:44:44.203847,7554,1751712284,202051264,base_link,0.03382508456707001,-0.03953462094068527,0.003629880491644144,-0.00031776640610722254,-0.003601047140812034,0.010418779248684503
2025/07/05/17:44:44.322860,7555,1751712284,321054592,base_link,0.03223038092255592,-0.038576431572437286,0.0031842002645134926,0.0010779750163226296,-8.518998073185299e-05,0.00905025608292406
2025/07/05/17:44:44.522837,7556,1751712284,521057920,base_link,0.03254906088113785,-0.037432294338941574,0.0016751394141465425,0.0019355125144902329,0.006279998427662342,0.007845170004920831
2025/07/05/17:44:44.624814,7557,1751712284,624057920,base_link,0.030604355037212372,-0.036112312227487564,0.0004773368127644062,-0.0007117237758694819,0.004487312910558763,0.008595160626868038
2025/07/05/17:44:44.722886,7558,1751712284,721057920,base_link,0.02974536083638668,-0.03386223316192627,0.0007537008496001363,-0.0005140073417907927,0.0018043368943565967,0.007212406081535514
2025/07/05/17:44:44.803906,7559,1751712284,802057920,base_link,0.030085230246186256,-0.03295006603002548,0.0006646487745456398,-0.0003730437910485799,-0.0014905287539698745,0.005887352325857544
2025/07/05/17:44:44.902624,7560,1751712284,901062016,base_link,0.03131764754652977,-0.031279515475034714,0.002000924665480852,-0.001250514582844968,-0.00644171666597315,0.005633317127935507
2025/07/05/17:44:44.981822,7561,1751712284,981065344,base_link,0.031240977346897125,-0.03004487417638302,0.002630026312544942,-0.00347785460309197,-0.011285467689392613,0.007149004259878836
2025/07/05/17:44:45.081796,7562,1751712285,80069184,base_link,0.03170011565089226,-0.027571463957428932,0.0012149836402386427,-0.003131312985794883,-0.006246992613947343,0.00631699951751971
2025/07/05/17:44:45.202602,7563,1751712285,202073024,base_link,0.03332502767443657,-0.025716586038470268,-0.0013358921278268099,0.0030231309860907054,0.005131724866832707,0.004656506570994407
2025/07/05/17:44:45.302601,7564,1751712285,301077632,base_link,0.03229698911309242,-0.02317151427268982,-0.0016464174259454012,0.0060571926146593515,0.011375991639390197,0.006199619309732541
2025/07/05/17:44:45.381877,7565,1751712285,380081472,base_link,0.030934041365981102,-0.02090180292725563,-0.0022816320415586233,0.0031632345106279705,0.007406913139561601,0.007622856255336572
2025/07/05/17:44:45.561852,7566,1751712285,560086848,base_link,0.028744876384735107,-0.017230883240699768,0.0007000495679676533,-0.004412295544386374,-0.004636392626319253,0.005085937021908385
2025/07/05/17:44:45.641423,7567,1751712285,640086848,base_link,0.02857019752264023,-0.016631605103611946,0.0004464324447326362,-0.0025371876891239088,-0.006277107549440803,0.0028013681257704963
2025/07/05/17:44:45.742000,7568,1751712285,740086848,base_link,0.028125248849391937,-0.015873152762651443,0.0013014645082876086,-0.0008342124381044561,-0.005492375969204459,0.003632622355106088
2025/07/05/17:44:45.824724,7569,1751712285,823086848,base_link,0.027673443779349327,-0.014498782344162464,0.0016452836571261287,0.000589649459823471,-0.002717596219235559,0.004024319774109406
2025/07/05/17:44:45.922685,7570,1751712285,921086848,base_link,0.026643024757504463,-0.013005333952605724,0.0025725269224494696,0.002017443742284185,0.0019381635291771922,0.003799394462119649
2025/07/05/17:44:46.025774,7571,1751712286,24086848,base_link,0.02711470238864422,-0.011087728664278984,0.0031393379904329777,0.005638762158596153,0.009922757883937094,0.0017289325147618532
2025/07/05/17:44:46.122745,7572,1751712286,121090432,base_link,0.027493536472320557,-0.009376409463584423,0.005015003029257059,0.004968202363459512,0.010531084726723976,0.0025457880468019696
2025/07/05/17:44:46.203852,7573,1751712286,202090432,base_link,0.027645153924822807,-0.007219650782644749,0.006920651067048311,-0.0012821174600030753,0.0017295782412666116,0.003413775794627038
2025/07/05/17:44:46.302694,7574,1751712286,302090432,base_link,0.025229517370462418,-0.00362358964048326,0.009149597957730293,-0.007440176442986516,-0.00946346120736639,0.002405087468573738
2025/07/05/17:44:46.461741,7575,1751712286,461098112,base_link,0.02257547527551651,0.0015874903183430433,0.01093436311930418,-0.007862529187843473,-0.013906586841178134,-0.00028111917404940664
2025/07/05/17:44:46.603900,7576,1751712286,602098112,base_link,0.022261274978518486,0.005688733421266079,0.011375818401575089,0.004178426910876209,0.003483442699018158,8.169650530465459e-05
2025/07/05/17:44:46.702300,7577,1751712286,702098112,base_link,0.021174106746912003,0.008712011389434338,0.011732549406588078,0.005911754574860723,0.011207091582986804,0.001421860564060633
2025/07/05/17:44:46.803744,7578,1751712286,803098112,base_link,0.020354129374027252,0.010556180961430073,0.012381330132484436,0.005754201411596374,0.011784736968310202,0.0003562260558168124
