time,.header.seq,.header.stamp.secs,.header.stamp.nsecs,.header.frame_id,.airspeed,.groundspeed,.heading,.throttle,.altitude,.climb
2025/07/05/17:44:13.563090,7263,1751712253,562439009,,0.17900000512599945,0.15022486448287964,341,0.0,24.26999855041504,0.0031369077041745186
2025/07/05/17:44:13.664412,7264,1751712253,663706272,,0.16900001466274261,0.15478239953517914,341,0.0,24.260000228881836,-0.0013540539657697082
2025/07/05/17:44:13.763214,7265,1751712253,762379352,,0.16900001466274261,0.16206294298171997,341,0.0,24.260000228881836,-0.0005755441961809993
2025/07/05/17:44:13.863267,7266,1751712253,862097756,,0.19300000369548798,0.1653287261724472,342,0.0,24.260000228881836,0.0003092859114985913
2025/07/05/17:44:13.982354,7267,1751712253,981934363,,0.19300000369548798,0.17305079102516174,342,0.0,24.260000228881836,0.001978594111278653
2025/07/05/17:44:14.062771,7268,1751712254,62179687,,0.11800000816583633,0.17099282145500183,342,0.0,24.260000228881836,0.00734555721282959
2025/07/05/17:44:14.162432,7269,1751712254,162036539,,0.11800000816583633,0.20770221948623657,343,0.0,24.260000228881836,0.005166537128388882
2025/07/05/17:44:14.282619,7270,1751712254,282069645,,0.1990000158548355,0.2775741517543793,343,0.0,24.25,0.0002203968761023134
2025/07/05/17:44:14.364788,7271,1751712254,363940302,,0.1990000158548355,0.29274165630340576,344,0.0,24.25,0.0008514318615198135
2025/07/05/17:44:14.582444,7272,1751712254,581835914,,0.21300001442432404,0.2547163963317871,346,0.0,24.229999542236328,-0.0026722217444330454
2025/07/05/17:44:14.642921,7273,1751712254,642314763,,0.2880000174045563,0.25073546171188354,346,0.0,24.229999542236328,-0.005180518142879009
2025/07/05/17:44:14.742411,7274,1751712254,741999668,,0.2880000174045563,0.24908135831356049,347,0.0,24.219999313354492,-0.00653972988948226
2025/07/05/17:44:14.842613,7275,1751712254,842014117,,0.17900000512599945,0.24277542531490326,348,0.0,24.219999313354492,-0.007524826563894749
2025/07/05/17:44:14.942794,7276,1751712254,942053028,,0.17900000512599945,0.23680725693702698,348,0.0,24.209999084472656,-0.007590248249471188
2025/07/05/17:44:15.042743,7277,1751712255,41999756,,0.20100000500679016,0.2302241176366806,348,0.0,24.209999084472656,-0.010128688998520374
2025/07/05/17:44:15.142656,7278,1751712255,142123042,,0.20100000500679016,0.22243693470954895,349,0.0,24.209999084472656,-0.013673249632120132
2025/07/05/17:44:15.243782,7279,1751712255,243572748,,0.21700000762939453,0.21526657044887543,349,0.0,24.19999885559082,-0.017553215846419334
2025/07/05/17:44:15.344239,7280,1751712255,343378338,,0.21700000762939453,0.20892958343029022,349,0.0,24.19999885559082,-0.020524635910987854
2025/07/05/17:44:15.504103,7281,1751712255,503656968,,0.2410000115633011,0.20141112804412842,350,0.0,24.189998626708984,-0.021843908354640007
2025/07/05/17:44:15.606044,7282,1751712255,604896854,,0.2150000035762787,0.19639070332050323,350,0.0,24.189998626708984,-0.0204105693846941
2025/07/05/17:44:15.682933,7283,1751712255,682506531,,0.2150000035762787,0.20363596081733704,351,0.0,24.189998626708984,-0.025641504675149918
2025/07/05/17:44:15.782556,7284,1751712255,781967080,,0.2150000035762787,0.25166866183280945,351,0.0,24.189998626708984,-0.02546173334121704
2025/07/05/17:44:15.903846,7285,1751712255,903062412,,0.1850000023841858,0.28576338291168213,351,0.0,24.18000030517578,-0.01967690885066986
2025/07/05/17:44:16.004181,7286,1751712256,3672603,,0.26900002360343933,0.2866359055042267,352,0.0,24.18000030517578,-0.01724858209490776
2025/07/05/17:44:16.083757,7287,1751712256,83149355,,0.26900002360343933,0.2894531190395355,353,0.0,24.170000076293945,-0.014062663540244102
2025/07/05/17:44:16.205099,7288,1751712256,203562922,,0.23500001430511475,0.302329421043396,353,0.0,24.170000076293945,-0.021488090977072716
2025/07/05/17:44:16.262544,7289,1751712256,261999947,,0.23500001430511475,0.29996833205223083,354,0.0,24.170000076293945,-0.023637913167476654
2025/07/05/17:44:16.404376,7290,1751712256,403339148,,0.23500001430511475,0.29453665018081665,355,0.0,24.170000076293945,-0.02721383236348629
2025/07/05/17:44:16.544938,7291,1751712256,541898869,,0.28600001335144043,0.2759339511394501,355,0.0,24.170000076293945,-0.024214735254645348
2025/07/05/17:44:16.626368,7292,1751712256,625625847,,0.3800000250339508,0.2684808671474457,356,0.0,24.170000076293945,-0.03122001886367798
2025/07/05/17:44:16.705178,7293,1751712256,704509454,,0.3800000250339508,0.3211343288421631,356,0.0,24.170000076293945,-0.026314955204725266
2025/07/05/17:44:16.805513,7294,1751712256,804296983,,0.28200000524520874,0.36041224002838135,356,0.0,24.170000076293945,-0.02466513030230999
2025/07/05/17:44:16.883278,7295,1751712256,882661126,,0.28200000524520874,0.3892655074596405,357,0.0,24.170000076293945,-0.021294089034199715
2025/07/05/17:44:17.026179,7296,1751712257,25435933,,0.39500001072883606,0.4610711336135864,358,0.0,24.170000076293945,-0.02105209045112133
2025/07/05/17:44:17.124060,7297,1751712257,123358043,,0.39500001072883606,0.4931773543357849,359,0.0,24.15999984741211,-0.019600803032517433
2025/07/05/17:44:17.203634,7298,1751712257,203505442,,0.656000018119812,0.5156106948852539,0,0.0,24.15999984741211,-0.030522076413035393
2025/07/05/17:44:17.284113,7299,1751712257,282363441,,0.656000018119812,0.5375063419342041,0,0.0,24.149999618530273,-0.024141458794474602
2025/07/05/17:44:17.426398,7300,1751712257,425802018,,0.562000036239624,0.5614204406738281,2,0.0,24.149999618530273,-0.020637638866901398
2025/07/05/17:44:17.582619,7301,1751712257,581989713,,0.562000036239624,0.5790060758590698,4,0.0,24.149999618530273,-0.025527965277433395
2025/07/05/17:44:17.663754,7302,1751712257,663119789,,0.6440000534057617,0.5822354555130005,4,0.0,24.15999984741211,-0.024014560505747795
2025/07/05/17:44:17.763361,7303,1751712257,762065187,,0.6440000534057617,0.5757207274436951,5,0.0,24.15999984741211,-0.013207671232521534
2025/07/05/17:44:17.882557,7304,1751712257,881956830,,0.7670000195503235,0.5588852167129517,6,0.0,24.15999984741211,-0.015020203776657581
2025/07/05/17:44:18.003924,7305,1751712258,3384310,,0.4360000193119049,0.5426811575889587,7,0.0,24.15999984741211,-0.01603110507130623
2025/07/05/17:44:18.062794,7306,1751712258,62118556,,0.4360000193119049,0.5297191143035889,8,0.0,24.15999984741211,-0.015841247513890266
2025/07/05/17:44:18.183193,7307,1751712258,182508481,,0.4360000193119049,0.5078614950180054,8,0.0,24.170000076293945,-0.01634279638528824
2025/07/05/17:44:18.242678,7308,1751712258,241902655,,0.6350000500679016,0.4994905889034271,9,0.0,24.170000076293945,-0.016120808199048042
2025/07/05/17:44:18.342554,7309,1751712258,341989899,,0.6350000500679016,0.48686137795448303,9,0.0,24.170000076293945,-0.014457285404205322
2025/07/05/17:44:18.503932,7310,1751712258,503269171,,0.5139999985694885,0.46887755393981934,10,0.0,24.18000030517578,-0.012560560368001461
2025/07/05/17:44:18.628653,7311,1751712258,626199412,,0.4690000116825104,0.4546795189380646,11,0.0,24.18000030517578,-0.012396164238452911
2025/07/05/17:44:18.705021,7312,1751712258,703630778,,0.4690000116825104,0.44507572054862976,11,0.0,24.189998626708984,-0.012501775287091732
2025/07/05/17:44:18.784534,7313,1751712258,782412441,,0.4690000116825104,0.4340078830718994,12,0.0,24.189998626708984,-0.011857469566166401
2025/07/05/17:44:18.862725,7314,1751712258,861911332,,0.4320000112056732,0.42349815368652344,12,0.0,24.189998626708984,-0.011731822974979877
2025/07/05/17:44:18.982658,7315,1751712258,981985821,,0.4320000112056732,0.40670081973075867,13,0.0,24.189998626708984,-0.010712494142353535
2025/07/05/17:44:19.082310,7316,1751712259,81534971,,0.5040000081062317,0.4083211421966553,13,0.0,24.189998626708984,-0.009709412232041359
2025/07/05/17:44:19.163386,7317,1751712259,162467347,,0.5040000081062317,0.4533901512622833,13,0.0,24.189998626708984,-0.015911847352981567
2025/07/05/17:44:19.263787,7318,1751712259,263484055,,0.3840000033378601,0.4474667012691498,13,0.0,24.189998626708984,-0.0010380883468315005
2025/07/05/17:44:19.405417,7319,1751712259,403469284,,0.4780000150203705,0.4386342167854309,14,0.0,24.189998626708984,-0.001035547349601984
2025/07/05/17:44:19.562774,7320,1751712259,561940329,,0.4780000150203705,0.42608556151390076,16,0.0,24.19999885559082,-0.0026563499122858047
2025/07/05/17:44:19.643361,7321,1751712259,642822414,,0.4280000329017639,0.4191933274269104,16,0.0,24.19999885559082,-0.00570096867159009
2025/07/05/17:44:19.742258,7322,1751712259,741991082,,0.4280000329017639,0.4096210300922394,17,0.0,24.19999885559082,-0.01049378514289856
2025/07/05/17:44:19.843453,7323,1751712259,842124913,,0.281000018119812,0.39682134985923767,17,0.0,24.189998626708984,-0.01275054831057787
2025/07/05/17:44:19.983229,7324,1751712259,982293462,,0.281000018119812,0.37280702590942383,17,0.0,24.189998626708984,-0.008390678092837334
2025/07/05/17:44:20.083032,7325,1751712260,82201641,,0.4970000088214874,0.3604496419429779,18,0.0,24.189998626708984,-0.004445865284651518
2025/07/05/17:44:20.182768,7326,1751712260,181951881,,0.4970000088214874,0.35142582654953003,18,0.0,24.18000030517578,-0.0005717849126085639
2025/07/05/17:44:20.263082,7327,1751712260,262484665,,0.2970000207424164,0.3485163450241089,18,0.0,24.189998626708984,-0.0006864287424832582
2025/07/05/17:44:20.363889,7328,1751712260,362383431,,0.2970000207424164,0.3506932258605957,19,0.0,24.189998626708984,0.0014019578229635954
2025/07/05/17:44:20.563064,7329,1751712260,562503513,,0.40700000524520874,0.35435041785240173,20,0.0,24.189998626708984,-0.006137257907539606
2025/07/05/17:44:20.663526,7330,1751712260,662552941,,0.37400001287460327,0.3533126413822174,20,0.0,24.189998626708984,-0.005730895325541496
2025/07/05/17:44:20.763114,7331,1751712260,762607502,,0.37400001287460327,0.3394638001918793,20,0.0,24.189998626708984,-0.0015890294453129172
2025/07/05/17:44:20.882843,7332,1751712260,881966061,,0.30300000309944153,0.33657437562942505,21,0.0,24.189998626708984,-0.007189576514065266
2025/07/05/17:44:20.982345,7333,1751712260,981874432,,0.30300000309944153,0.33088570833206177,21,0.0,24.18000030517578,0.0008828443242236972
2025/07/05/17:44:21.062899,7334,1751712261,62452247,,0.40800002217292786,0.33245307207107544,21,0.0,24.189998626708984,-0.0027269572019577026
2025/07/05/17:44:21.183103,7335,1751712261,182348484,,0.40800002217292786,0.3290195167064667,22,0.0,24.189998626708984,0.006496676709502935
2025/07/05/17:44:21.263083,7336,1751712261,262135816,,0.2990000247955322,0.3296523690223694,22,0.0,24.189998626708984,0.013762054033577442
2025/07/05/17:44:21.362724,7337,1751712261,362273342,,0.2990000247955322,0.3300021290779114,23,0.0,24.19999885559082,0.010931342840194702
2025/07/05/17:44:21.542725,7338,1751712261,541952051,,0.37800002098083496,0.3242848515510559,24,0.0,24.19999885559082,0.005300283897668123
2025/07/05/17:44:21.643399,7339,1751712261,642763869,,0.28700000047683716,0.3139527142047882,24,0.0,24.19999885559082,0.00047050078865140676
2025/07/05/17:44:21.723227,7340,1751712261,722795513,,0.28700000047683716,0.31105998158454895,24,0.0,24.19999885559082,-0.0012487551430240273
2025/07/05/17:44:21.826471,7341,1751712261,825859560,,0.3630000054836273,0.3043864071369171,25,0.0,24.19999885559082,0.006342296022921801
2025/07/05/17:44:21.943353,7342,1751712261,942336841,,0.3630000054836273,0.308208703994751,25,0.0,24.189998626708984,0.012161508202552795
2025/07/05/17:44:22.044533,7343,1751712262,42197347,,0.2200000137090683,0.31051936745643616,26,0.0,24.189998626708984,0.016973085701465607
2025/07/05/17:44:22.141974,7344,1751712262,141743602,,0.2200000137090683,0.31303101778030396,26,0.0,24.189998626708984,0.0074510956183075905
2025/07/05/17:44:22.243451,7345,1751712262,241803367,,0.32500001788139343,0.31501245498657227,27,0.0,24.189998626708984,-0.0025127227418124676
2025/07/05/17:44:22.341995,7346,1751712262,341690242,,0.32500001788139343,0.31096136569976807,27,0.0,24.189998626708984,-0.010278194211423397
2025/07/05/17:44:22.523861,7347,1751712262,523190361,,0.3150000274181366,0.2958054542541504,28,0.0,24.189998626708984,-0.0038119307719171047
2025/07/05/17:44:22.626108,7348,1751712262,625449626,,0.27900001406669617,0.2934945523738861,28,0.0,24.189998626708984,-0.0024811963085085154
2025/07/05/17:44:22.704629,7349,1751712262,703227933,,0.27900001406669617,0.28730496764183044,28,0.0,24.189998626708984,0.006784182041883469
2025/07/05/17:44:22.805807,7350,1751712262,804122966,,0.14300000667572021,0.28714829683303833,29,0.0,24.18000030517578,0.006459702271968126
2025/07/05/17:44:22.862378,7351,1751712262,861861516,,0.14300000667572021,0.2892926037311554,29,0.0,24.18000030517578,0.007605699356645346
2025/07/05/17:44:22.983361,7352,1751712262,982503304,,0.14300000667572021,0.28110989928245544,30,0.0,24.18000030517578,-2.461252734065056e-06
2025/07/05/17:44:23.063235,7353,1751712263,61930927,,0.29500001668930054,0.28047189116477966,30,0.0,24.18000030517578,0.0006903533940203488
2025/07/05/17:44:23.163046,7354,1751712263,162582143,,0.29500001668930054,0.2867039740085602,31,0.0,24.18000030517578,-0.006174943875521421
2025/07/05/17:44:23.282810,7355,1751712263,282206808,,0.22600001096725464,0.2883399426937103,31,0.0,24.170000076293945,-0.011325109750032425
2025/07/05/17:44:23.362485,7356,1751712263,361910888,,0.22600001096725464,0.27521100640296936,32,0.0,24.170000076293945,-0.0018946208292618394
2025/07/05/17:44:23.543430,7357,1751712263,542300442,,0.3720000088214874,0.2660840153694153,32,0.0,24.170000076293945,0.004945858381688595
2025/07/05/17:44:23.642381,7358,1751712263,641864784,,0.3710000216960907,0.26933443546295166,33,0.0,24.170000076293945,0.007187194656580687
2025/07/05/17:44:23.744616,7359,1751712263,744314657,,0.3710000216960907,0.27340665459632874,34,0.0,24.18000030517578,0.0069542014971375465
2025/07/05/17:44:23.825655,7360,1751712263,825284963,,0.3060000240802765,0.27506834268569946,34,0.0,24.18000030517578,0.009078037925064564
2025/07/05/17:44:23.903870,7361,1751712263,903532825,,0.3060000240802765,0.27948522567749023,34,0.0,24.18000030517578,0.00025602144887670875
2025/07/05/17:44:24.026301,7362,1751712264,25216721,,0.3290000259876251,0.2725600600242615,35,0.0,24.189998626708984,-0.006315498612821102
2025/07/05/17:44:24.103044,7363,1751712264,102624994,,0.3290000259876251,0.26754996180534363,35,0.0,24.189998626708984,-0.002855689497664571
2025/07/05/17:44:24.204420,7364,1751712264,203642714,,0.34700000286102295,0.26394814252853394,35,0.0,24.189998626708984,-0.0024875577073544264
2025/07/05/17:44:24.284374,7365,1751712264,283026418,,0.34700000286102295,0.2587733566761017,36,0.0,24.189998626708984,0.003932766616344452
2025/07/05/17:44:24.382534,7366,1751712264,382214073,,0.34700000286102295,0.2548454999923706,36,0.0,24.189998626708984,0.010042614303529263
2025/07/05/17:44:24.582658,7367,1751712264,581781043,,0.22800001502037048,0.24860744178295135,37,0.0,24.19999885559082,0.008711237460374832
2025/07/05/17:44:24.662891,7368,1751712264,662231239,,0.23000000417232513,0.244510218501091,38,0.0,24.19999885559082,0.005307035055011511
2025/07/05/17:44:24.782654,7369,1751712264,782139140,,0.23000000417232513,0.236689031124115,37,0.0,24.19999885559082,-0.000344572908943519
2025/07/05/17:44:24.863468,7370,1751712264,862302152,,0.3060000240802765,0.23418304324150085,37,0.0,24.209999084472656,-0.0009540446917526424
2025/07/05/17:44:25.004051,7371,1751712265,3410833,,0.281000018119812,0.22828377783298492,37,0.0,24.209999084472656,0.009635819122195244
2025/07/05/17:44:25.084098,7372,1751712265,83407479,,0.281000018119812,0.2273356020450592,37,0.0,24.209999084472656,0.016638344153761864
2025/07/05/17:44:25.181947,7373,1751712265,181649700,,0.281000018119812,0.22505876421928406,37,0.0,24.209999084472656,0.020148074254393578
2025/07/05/17:44:25.262500,7374,1751712265,261800785,,0.164000004529953,0.22160835564136505,37,0.0,24.209999084472656,0.017060255631804466
2025/07/05/17:44:25.363054,7375,1751712265,362709733,,0.164000004529953,0.21683716773986816,37,0.0,24.209999084472656,0.009841496124863625
2025/07/05/17:44:25.543374,7376,1751712265,542640245,,0.27300000190734863,0.21003951132297516,37,0.0,24.209999084472656,0.001712683355435729
2025/07/05/17:44:25.643804,7377,1751712265,642040152,,0.1510000079870224,0.20636612176895142,37,0.0,24.209999084472656,0.006717126350849867
2025/07/05/17:44:25.742657,7378,1751712265,742378000,,0.1510000079870224,0.20227135717868805,37,0.0,24.209999084472656,0.01689811609685421
2025/07/05/17:44:25.841842,7379,1751712265,841592776,,0.242000013589859,0.19734185934066772,37,0.0,24.219999313354492,0.022281872108578682
2025/07/05/17:44:25.923174,7380,1751712265,922542577,,0.242000013589859,0.19499969482421875,37,0.0,24.219999313354492,0.019901707768440247
2025/07/05/17:44:26.042207,7381,1751712266,41740397,,0.24700000882148743,0.19149978458881378,37,0.0,24.229999542236328,0.010147013701498508
2025/07/05/17:44:26.145611,7382,1751712266,141531912,,0.24700000882148743,0.1891215443611145,36,0.0,24.229999542236328,0.004782229661941528
2025/07/05/17:44:26.242080,7383,1751712266,241671082,,0.2370000183582306,0.18670377135276794,36,0.0,24.239999771118164,0.00679560424759984
2025/07/05/17:44:26.341686,7384,1751712266,341555879,,0.2370000183582306,0.18483266234397888,36,0.0,24.239999771118164,0.014268905855715275
2025/07/05/17:44:26.482295,7385,1751712266,481823283,,0.3020000159740448,0.18465715646743774,36,0.0,24.25,0.02359503135085106
2025/07/05/17:44:26.582008,7386,1751712266,581602604,,0.3020000159740448,0.1840808242559433,36,0.0,24.25,0.021321533247828484
2025/07/05/17:44:26.662616,7387,1751712266,662184300,,0.1340000033378601,0.1823394000530243,36,0.0,24.25,0.013797496445477009
2025/07/05/17:44:26.763377,7388,1751712266,762369757,,0.1340000033378601,0.1798323541879654,36,0.0,24.25,0.0055101667530834675
2025/07/05/17:44:26.882951,7389,1751712266,882393809,,0.2750000059604645,0.1786225289106369,36,0.0,24.25,0.004442810080945492
2025/07/05/17:44:26.982340,7390,1751712266,981825157,,0.2750000059604645,0.1771884262561798,35,0.0,24.25,0.0115206902846694
2025/07/05/17:44:27.063159,7391,1751712267,62373170,,0.1730000078678131,0.17563974857330322,35,0.0,24.25,0.01938587799668312
2025/07/05/17:44:27.163080,7392,1751712267,162443910,,0.1730000078678131,0.17346510291099548,36,0.0,24.260000228881836,0.0259205624461174
2025/07/05/17:44:27.263266,7393,1751712267,262443791,,0.15200001001358032,0.1714717596769333,36,0.0,24.260000228881836,0.021876076236367226
2025/07/05/17:44:27.362777,7394,1751712267,362355663,,0.15200001001358032,0.16860421001911163,36,0.0,24.260000228881836,0.012246648781001568
2025/07/05/17:44:27.542304,7395,1751712267,541568147,,0.25,0.1663476526737213,35,0.0,24.26999855041504,0.008733932860195637
2025/07/05/17:44:27.641597,7396,1751712267,641375073,,0.20100000500679016,0.16531912982463837,35,0.0,24.279998779296875,0.01816820167005062
2025/07/05/17:44:27.742441,7397,1751712267,742098530,,0.20100000500679016,0.16360965371131897,35,0.0,24.279998779296875,0.02821047604084015
2025/07/05/17:44:27.842421,7398,1751712267,842184466,,0.17500001192092896,0.16203486919403076,35,0.0,24.28999900817871,0.03080100566148758
2025/07/05/17:44:27.963058,7399,1751712267,962633874,,0.17500001192092896,0.15910692512989044,35,0.0,24.28999900817871,0.020385054871439934
2025/07/05/17:44:28.083019,7400,1751712268,82308045,,0.23600001633167267,0.15723901987075806,35,0.0,24.28999900817871,0.010003773495554924
2025/07/05/17:44:28.162364,7401,1751712268,161607444,,0.23600001633167267,0.1543896198272705,35,0.0,24.28999900817871,0.010383832268416882
2025/07/05/17:44:28.262673,7402,1751712268,261818659,,0.1730000078678131,0.15296396613121033,35,0.0,24.28999900817871,0.018742166459560394
2025/07/05/17:44:28.404151,7403,1751712268,403450090,,0.14100000262260437,0.15050499141216278,35,0.0,24.299999237060547,0.03182300925254822
2025/07/05/17:44:28.562275,7404,1751712268,561589068,,0.14100000262260437,0.14622822403907776,35,0.0,24.299999237060547,0.025463957339525223
2025/07/05/17:44:28.683023,7405,1751712268,682139184,,0.13100001215934753,0.14245232939720154,35,0.0,24.299999237060547,0.014689167030155659
2025/07/05/17:44:28.762392,7406,1751712268,761588264,,0.13100001215934753,0.13957840204238892,35,0.0,24.299999237060547,0.013731379993259907
2025/07/05/17:44:28.862200,7407,1751712268,861536013,,0.1380000114440918,0.13685891032218933,35,0.0,24.309999465942383,0.019123537465929985
2025/07/05/17:44:28.963156,7408,1751712268,962325841,,0.1380000114440918,0.1343573033809662,35,0.0,24.309999465942383,0.027605470269918442
2025/07/05/17:44:29.042744,7409,1751712269,42106649,,0.1730000078678131,0.13282690942287445,35,0.0,24.309999465942383,0.03046422451734543
2025/07/05/17:44:29.142501,7410,1751712269,142153924,,0.1730000078678131,0.13138924539089203,35,0.0,24.31999969482422,0.02738463133573532
2025/07/05/17:44:29.242434,7411,1751712269,242074069,,0.12700000405311584,0.1292271912097931,35,0.0,24.31999969482422,0.019289085641503334
2025/07/05/17:44:29.341863,7412,1751712269,341640906,,0.12700000405311584,0.12634673714637756,35,0.0,24.31999969482422,0.015452750958502293
2025/07/05/17:44:29.523083,7413,1751712269,522377263,,0.16300000250339508,0.12393984198570251,34,0.0,24.329999923706055,0.026759689673781395
2025/07/05/17:44:29.625785,7414,1751712269,625228335,,0.13199999928474426,0.1214565560221672,34,0.0,24.329999923706055,0.0324418768286705
2025/07/05/17:44:29.705779,7415,1751712269,703490166,,0.13199999928474426,0.12008131295442581,35,0.0,24.329999923706055,0.030598904937505722
2025/07/05/17:44:29.783564,7416,1751712269,783232402,,0.13199999928474426,0.1185707151889801,35,0.0,24.329999923706055,0.024447325617074966
2025/07/05/17:44:29.882490,7417,1751712269,881799414,,0.21300001442432404,0.118451789021492,34,0.0,24.329999923706055,0.01577581837773323
2025/07/05/17:44:29.983068,7418,1751712269,982393790,,0.21300001442432404,0.11764705181121826,34,0.0,24.329999923706055,0.014854680746793747
2025/07/05/17:44:30.062737,7419,1751712270,62373460,,0.11700000613927841,0.11669325828552246,34,0.0,24.329999923706055,0.01827150210738182
2025/07/05/17:44:30.163130,7420,1751712270,162641005,,0.11700000613927841,0.11533740162849426,34,0.0,24.329999923706055,0.02636430598795414
2025/07/05/17:44:30.262191,7421,1751712270,261479169,,0.11500000208616257,0.11256517469882965,34,0.0,24.329999923706055,0.026428459212183952
2025/07/05/17:44:30.363041,7422,1751712270,362223758,,0.11500000208616257,0.11033681035041809,34,0.0,24.329999923706055,0.02065219171345234
2025/07/05/17:44:30.504030,7423,1751712270,503598232,,0.11600000411272049,0.1070236787199974,34,0.0,24.329999923706055,0.012825657613575459
2025/07/05/17:44:30.623373,7424,1751712270,622511777,,0.14100000262260437,0.10346806794404984,34,0.0,24.329999923706055,0.014898840337991714
2025/07/05/17:44:30.722769,7425,1751712270,722080728,,0.14100000262260437,0.10292503982782364,33,0.0,24.329999923706055,0.02279803901910782
2025/07/05/17:44:30.823246,7426,1751712270,822462023,,0.2070000171661377,0.10102605074644089,33,0.0,24.34000015258789,0.027651695534586906
2025/07/05/17:44:30.942283,7427,1751712270,941399405,,0.2070000171661377,0.10149101912975311,34,0.0,24.34000015258789,0.02111492119729519
2025/07/05/17:44:31.043656,7428,1751712271,41946624,,0.14000000059604645,0.1005692183971405,33,0.0,24.34000015258789,0.013438443653285503
2025/07/05/17:44:31.142409,7429,1751712271,142245571,,0.14000000059604645,0.10111159831285477,33,0.0,24.34000015258789,0.012238473631441593
2025/07/05/17:44:31.242219,7430,1751712271,241367250,,0.1380000114440918,0.10032884031534195,33,0.0,24.34000015258789,0.01710212044417858
2025/07/05/17:44:31.342416,7431,1751712271,341575321,,0.1380000114440918,0.09949755668640137,33,0.0,24.34000015258789,0.024704981595277786
2025/07/05/17:44:31.523051,7432,1751712271,522210398,,0.1380000114440918,0.09930888563394547,33,0.0,24.34000015258789,0.022054851055145264
2025/07/05/17:44:31.604127,7433,1751712271,603386611,,0.08700000494718552,0.09873096644878387,33,0.0,24.34000015258789,0.015174755826592445
2025/07/05/17:44:31.683356,7434,1751712271,682746283,,0.08700000494718552,0.09582674503326416,33,0.0,24.34000015258789,0.012607959099113941
2025/07/05/17:44:31.784366,7435,1751712271,783843029,,0.08700000494718552,0.09421995282173157,33,0.0,24.350000381469727,0.01663452759385109
2025/07/05/17:44:31.862089,7436,1751712271,861389855,,0.10500000417232513,0.0916450247168541,33,0.0,24.350000381469727,0.023216404020786285
2025/07/05/17:44:31.981911,7437,1751712271,981423905,,0.10500000417232513,0.08779077231884003,33,0.0,24.350000381469727,0.028929101303219795
2025/07/05/17:44:32.063030,7438,1751712272,62636577,,0.10300000756978989,0.08433152735233307,33,0.0,24.350000381469727,0.02547379583120346
2025/07/05/17:44:32.161795,7439,1751712272,161242375,,0.10300000756978989,0.08179973810911179,33,0.0,24.350000381469727,0.017328454181551933
2025/07/05/17:44:32.281945,7440,1751712272,281206387,,0.14900000393390656,0.07949915528297424,33,0.0,24.350000381469727,0.013184661976993084
2025/07/05/17:44:32.363065,7441,1751712272,362440076,,0.14900000393390656,0.07631291449069977,33,0.0,24.350000381469727,0.016788695007562637
2025/07/05/17:44:32.581702,7442,1751712272,581162488,,0.08700000494718552,0.07140877842903137,33,0.0,24.35999870300293,0.02787933684885502
2025/07/05/17:44:32.663044,7443,1751712272,662322059,,0.07700000703334808,0.0699722021818161,33,0.0,24.35999870300293,0.02202913723886013
2025/07/05/17:44:32.783099,7444,1751712272,782559927,,0.07700000703334808,0.06578139215707779,33,0.0,24.350000381469727,0.013173256069421768
2025/07/05/17:44:32.881791,7445,1751712272,881236131,,0.0990000069141388,0.06317839026451111,33,0.0,24.350000381469727,0.01434507966041565
2025/07/05/17:44:33.003699,7446,1751712273,2928402,,0.06700000166893005,0.06057639792561531,33,0.0,24.350000381469727,0.020609945058822632
2025/07/05/17:44:33.062364,7447,1751712273,61604635,,0.06700000166893005,0.059235844761133194,33,0.0,24.350000381469727,0.022280903533101082
2025/07/05/17:44:33.162183,7448,1751712273,161455569,,0.06700000166893005,0.054654307663440704,33,0.0,24.350000381469727,0.019850846379995346
2025/07/05/17:44:33.242014,7449,1751712273,241474892,,0.06599999964237213,0.05303708463907242,33,0.0,24.350000381469727,0.015418254770338535
2025/07/05/17:44:33.343106,7450,1751712273,342417077,,0.06599999964237213,0.049645863473415375,33,0.0,24.350000381469727,0.010836921632289886
2025/07/05/17:44:33.503560,7451,1751712273,502814806,,0.08300000429153442,0.043556567281484604,33,0.0,24.34000015258789,0.0144602470099926
2025/07/05/17:44:33.604013,7452,1751712273,603133337,,0.05900000408291817,0.03987056016921997,33,0.0,24.34000015258789,0.017853494733572006
2025/07/05/17:44:33.702993,7453,1751712273,702126214,,0.05900000408291817,0.03709609434008598,33,0.0,24.34000015258789,0.01579962484538555
2025/07/05/17:44:33.782243,7454,1751712273,781408598,,0.05900000408291817,0.034810420125722885,33,0.0,24.34000015258789,0.010184486396610737
2025/07/05/17:44:33.862424,7455,1751712273,861689021,,0.06700000166893005,0.03411676362156868,33,0.0,24.329999923706055,0.004777228459715843
2025/07/05/17:44:33.982331,7456,1751712273,981433466,,0.06700000166893005,0.03638482093811035,33,0.0,24.329999923706055,0.0032433553133159876
2025/07/05/17:44:34.062262,7457,1751712274,62026788,,0.03200000151991844,0.03565991669893265,33,0.0,24.31999969482422,0.006148071959614754
2025/07/05/17:44:34.162282,7458,1751712274,161360865,,0.03200000151991844,0.03311341255903244,33,0.0,24.31999969482422,0.0086041996255517
2025/07/05/17:44:34.242208,7459,1751712274,241285241,,0.032999999821186066,0.030422836542129517,33,0.0,24.31999969482422,0.0074413251131772995
2025/07/05/17:44:34.342170,7460,1751712274,341544995,,0.032999999821186066,0.029176119714975357,33,0.0,24.309999465942383,0.0025803595781326294
2025/07/05/17:44:34.522856,7461,1751712274,522033350,,0.07100000232458115,0.03883348032832146,32,0.0,24.309999465942383,-0.0017829033313319087
2025/07/05/17:44:34.625899,7462,1751712274,624891359,,0.02500000037252903,0.04103153944015503,32,0.0,24.309999465942383,0.0018176704179495573
2025/07/05/17:44:34.723366,7463,1751712274,722695673,,0.02500000037252903,0.04101024940609932,32,0.0,24.309999465942383,0.005259678699076176
2025/07/05/17:44:34.842095,7464,1751712274,841448346,,0.012000000104308128,0.04150989279150963,32,0.0,24.309999465942383,0.002785945776849985
2025/07/05/17:44:34.922942,7465,1751712274,922148254,,0.012000000104308128,0.044406816363334656,32,0.0,24.309999465942383,-0.000557879451662302
2025/07/05/17:44:35.025609,7466,1751712275,24701853,,0.04700000211596489,0.05187603086233139,32,0.0,24.299999237060547,-0.002767907688394189
2025/07/05/17:44:35.103766,7467,1751712275,103050667,,0.04700000211596489,0.05634338781237602,32,0.0,24.299999237060547,0.0011367585975676775
2025/07/05/17:44:35.182113,7468,1751712275,181590967,,0.04700000211596489,0.05808090418577194,32,0.0,24.299999237060547,0.005677440203726292
2025/07/05/17:44:35.282045,7469,1751712275,281286308,,0.055000003427267075,0.05837429687380791,32,0.0,24.299999237060547,0.006403143052011728
2025/07/05/17:44:35.362095,7470,1751712275,361578006,,0.055000003427267075,0.059774529188871384,32,0.0,24.299999237060547,0.0038216819521039724
2025/07/05/17:44:35.541933,7471,1751712275,541466894,,0.039000000804662704,0.06875764578580856,32,0.0,24.299999237060547,0.0010826770449057221
2025/07/05/17:44:35.642201,7472,1751712275,641268841,,0.05000000074505806,0.07281869649887085,32,0.0,24.309999465942383,0.0033258504699915648
2025/07/05/17:44:35.742218,7473,1751712275,741315579,,0.05000000074505806,0.07292532175779343,32,0.0,24.309999465942383,0.00713147921487689
2025/07/05/17:44:35.842016,7474,1751712275,841232270,,0.036000002175569534,0.07341589033603668,32,0.0,24.309999465942383,0.005499762017279863
2025/07/05/17:44:35.941967,7475,1751712275,941306243,,0.036000002175569534,0.07641462236642838,32,0.0,24.309999465942383,0.0014274294953793287
2025/07/05/17:44:36.041911,7476,1751712276,41234045,,0.046000003814697266,0.08178982138633728,32,0.0,24.299999237060547,0.0015162857016548514
2025/07/05/17:44:36.142045,7477,1751712276,141371627,,0.046000003814697266,0.086189866065979,32,0.0,24.299999237060547,0.00709644565358758
2025/07/05/17:44:36.242291,7478,1751712276,241431528,,0.005000000353902578,0.08615526556968689,32,0.0,24.299999237060547,0.010785927064716816
2025/07/05/17:44:36.341758,7479,1751712276,341277407,,0.005000000353902578,0.08492699265480042,32,0.0,24.309999465942383,0.010551354847848415
2025/07/05/17:44:36.522451,7480,1751712276,522068472,,0.021000001579523087,0.08813782781362534,32,0.0,24.309999465942383,0.0031447375658899546
2025/07/05/17:44:36.625701,7481,1751712276,624785633,,0.05900000408291817,0.0925368070602417,31,0.0,24.299999237060547,0.004885559435933828
2025/07/05/17:44:36.702710,7482,1751712276,701989722,,0.05900000408291817,0.09318961203098297,31,0.0,24.299999237060547,0.0076515101827681065
2025/07/05/17:44:36.803758,7483,1751712276,803192156,,0.06000000238418579,0.09472208470106125,31,0.0,24.299999237060547,0.008663969114422798
2025/07/05/17:44:36.902948,7484,1751712276,902349360,,0.06000000238418579,0.09714675694704056,31,0.0,24.299999237060547,0.005430619698017836
2025/07/05/17:44:37.025573,7485,1751712277,24901312,,0.012000000104308128,0.10209707915782928,31,0.0,24.299999237060547,0.0024098041467368603
2025/07/05/17:44:37.123143,7486,1751712277,122308205,,0.012000000104308128,0.1046377494931221,31,0.0,24.299999237060547,0.005518807098269463
2025/07/05/17:44:37.225782,7487,1751712277,224772645,,0.003000000026077032,0.10355829447507858,31,0.0,24.299999237060547,0.009391429834067822
2025/07/05/17:44:37.302771,7488,1751712277,302284985,,0.003000000026077032,0.10172920674085617,31,0.0,24.299999237060547,0.010102774016559124
2025/07/05/17:44:37.403915,7489,1751712277,403167692,,0.046000003814697266,0.10068890452384949,31,0.0,24.28999900817871,0.0064227888360619545
2025/07/05/17:44:37.561957,7490,1751712277,561464021,,0.046000003814697266,0.10220762342214584,31,0.0,24.28999900817871,0.0018557171570137143
2025/07/05/17:44:37.642055,7491,1751712277,641509377,,0.032999999821186066,0.10193517804145813,31,0.0,24.28999900817871,0.0028465446084737778
2025/07/05/17:44:37.742290,7492,1751712277,741472635,,0.032999999821186066,0.10172905772924423,31,0.0,24.28999900817871,0.004138906951993704
2025/07/05/17:44:37.842079,7493,1751712277,841191971,,0.046000003814697266,0.1004948541522026,31,0.0,24.28999900817871,0.005275778006762266
2025/07/05/17:44:37.981794,7494,1751712277,981099959,,0.046000003814697266,0.10351087898015976,31,0.0,24.28999900817871,0.002867832314223051
2025/07/05/17:44:38.062073,7495,1751712278,61458283,,0.039000000804662704,0.10498413443565369,31,0.0,24.28999900817871,0.003952363505959511
2025/07/05/17:44:38.161992,7496,1751712278,161480111,,0.039000000804662704,0.10495930165052414,30,0.0,24.28999900817871,0.00788758136332035
2025/07/05/17:44:38.281983,7497,1751712278,281303791,,0.04200000315904617,0.10158868879079819,30,0.0,24.28999900817871,0.010815310291945934
2025/07/05/17:44:38.362076,7498,1751712278,361187938,,0.04200000315904617,0.09993444383144379,30,0.0,24.28999900817871,0.008470680564641953
2025/07/05/17:44:38.581162,7499,1751712278,580856005,,0.06599999964237213,0.10209647566080093,30,0.0,24.28999900817871,0.005329487379640341
2025/07/05/17:44:38.662045,7500,1751712278,661424620,,0.01100000087171793,0.10178140550851822,30,0.0,24.28999900817871,0.008285035379230976
2025/07/05/17:44:38.762164,7501,1751712278,761576105,,0.01100000087171793,0.09936746954917908,30,0.0,24.28999900817871,0.010167205706238747
2025/07/05/17:44:38.841946,7502,1751712278,841229538,,0.030000001192092896,0.09853354096412659,30,0.0,24.28999900817871,0.009782684035599232
2025/07/05/17:44:38.942288,7503,1751712278,941356406,,0.030000001192092896,0.09747673571109772,30,0.0,24.28999900817871,0.00822974182665348
2025/07/05/17:44:39.041889,7504,1751712279,41093973,,0.049000002443790436,0.09720615297555923,30,0.0,24.28999900817871,0.010771494358778
2025/07/05/17:44:39.142004,7505,1751712279,141528833,,0.049000002443790436,0.09391951560974121,30,0.0,24.28999900817871,0.014365158043801785
2025/07/05/17:44:39.242249,7506,1751712279,241341955,,0.11000000685453415,0.08987212926149368,30,0.0,24.28999900817871,0.015184289775788784
2025/07/05/17:44:39.362169,7507,1751712279,361353400,,0.11000000685453415,0.08737023174762726,30,0.0,24.299999237060547,0.010446897707879543
2025/07/05/17:44:39.541831,7508,1751712279,541076684,,0.055000003427267075,0.08960408717393875,29,0.0,24.299999237060547,0.0062560937367379665
2025/07/05/17:44:39.641640,7509,1751712279,641133557,,0.058000002056360245,0.09013586491346359,29,0.0,24.28999900817871,0.009672713465988636
2025/07/05/17:44:39.722429,7510,1751712279,722039486,,0.058000002056360245,0.08829838782548904,29,0.0,24.28999900817871,0.01151187065988779
2025/07/05/17:44:39.825391,7511,1751712279,824743244,,0.017000000923871994,0.08680498600006104,29,0.0,24.279998779296875,0.009980722330510616
2025/07/05/17:44:39.902826,7512,1751712279,902341628,,0.017000000923871994,0.08347155153751373,29,0.0,24.279998779296875,0.006977723445743322
2025/07/05/17:44:40.025464,7513,1751712280,24507135,,0.08800000697374344,0.08228705078363419,29,0.0,24.279998779296875,0.005269459914416075
2025/07/05/17:44:40.122686,7514,1751712280,122024256,,0.08800000697374344,0.07946452498435974,29,0.0,24.279998779296875,0.006304650567471981
2025/07/05/17:44:40.225811,7515,1751712280,224933947,,0.026000000536441803,0.0762556940317154,29,0.0,24.26999855041504,0.007254978641867638
2025/07/05/17:44:40.303486,7516,1751712280,302185254,,0.026000000536441803,0.07338130474090576,29,0.0,24.260000228881836,0.004306684248149395
2025/07/05/17:44:40.403537,7517,1751712280,402902856,,0.026000000536441803,0.0718938559293747,29,0.0,24.260000228881836,-0.000843436864670366
2025/07/05/17:44:40.581733,7518,1751712280,581015874,,0.027000000700354576,0.06817490607500076,29,0.0,24.25,0.0028795774560421705
2025/07/05/17:44:40.682303,7519,1751712280,681506314,,0.05400000140070915,0.06452064961194992,29,0.0,24.25,0.005959130357950926
2025/07/05/17:44:40.762322,7520,1751712280,761368093,,0.05400000140070915,0.06195269897580147,29,0.0,24.25,0.004724376369267702
2025/07/05/17:44:40.861883,7521,1751712280,861470686,,0.046000003814697266,0.058833204209804535,29,0.0,24.25,0.0017257594736292958
2025/07/05/17:44:40.981904,7522,1751712280,981326650,,0.046000003814697266,0.0568406917154789,29,0.0,24.25,0.002784055657684803
2025/07/05/17:44:41.062048,7523,1751712281,61225310,,0.03700000047683716,0.05490526556968689,28,0.0,24.25,0.004178639966994524
2025/07/05/17:44:41.161845,7524,1751712281,161133362,,0.03700000047683716,0.051991868764162064,28,0.0,24.260000228881836,0.005640741437673569
2025/07/05/17:44:41.241932,7525,1751712281,241285856,,0.07400000095367432,0.050779394805431366,28,0.0,24.260000228881836,0.00567147321999073
2025/07/05/17:44:41.341742,7526,1751712281,341241175,,0.07400000095367432,0.050191327929496765,28,0.0,24.260000228881836,0.004047929774969816
2025/07/05/17:44:41.523247,7527,1751712281,522453903,,0.021000001579523087,0.04856543987989426,28,0.0,24.25,0.005338727496564388
2025/07/05/17:44:41.625352,7528,1751712281,624595857,,0.07400000095367432,0.04528127610683441,28,0.0,24.25,0.006897880230098963
2025/07/05/17:44:41.703457,7529,1751712281,702361291,,0.07400000095367432,0.04490305483341217,28,0.0,24.25,0.00559187913313508
2025/07/05/17:44:41.781895,7530,1751712281,781142006,,0.07400000095367432,0.04454745724797249,28,0.0,24.25,0.004995308816432953
2025/07/05/17:44:41.881454,7531,1751712281,880906852,,0.04500000178813934,0.045514680445194244,28,0.0,24.25,0.004435170907527208
2025/07/05/17:44:41.982273,7532,1751712281,981526927,,0.04500000178813934,0.04491838067770004,28,0.0,24.25,0.004617510829120874
2025/07/05/17:44:42.061903,7533,1751712282,61139652,,0.01100000087171793,0.0447145439684391,28,0.0,24.25,0.0053276424296200275
2025/07/05/17:44:42.161901,7534,1751712282,161313356,,0.01100000087171793,0.0451706126332283,28,0.0,24.239999771118164,0.005186405032873154
2025/07/05/17:44:42.262183,7535,1751712282,261633319,,0.05300000309944153,0.04626884683966637,28,0.0,24.239999771118164,0.0037684785202145576
2025/07/05/17:44:42.362483,7536,1751712282,361820728,,0.05300000309944153,0.046231891959905624,28,0.0,24.239999771118164,0.0039041368290781975
2025/07/05/17:44:42.503195,7537,1751712282,502679628,,0.05000000074505806,0.044639356434345245,28,0.0,24.239999771118164,0.005928242113441229
2025/07/05/17:44:42.624689,7538,1751712282,624412729,,0.026000000536441803,0.04350992664694786,28,0.0,24.229999542236328,0.0050549739971756935
2025/07/05/17:44:42.702739,7539,1751712282,702188662,,0.026000000536441803,0.04372432082891464,28,0.0,24.229999542236328,0.004247643984854221
2025/07/05/17:44:42.781608,7540,1751712282,781047091,,0.026000000536441803,0.04364174231886864,28,0.0,24.229999542236328,0.0037603953387588263
2025/07/05/17:44:42.861876,7541,1751712282,861141945,,0.058000002056360245,0.04438849538564682,27,0.0,24.239999771118164,0.004570215940475464
2025/07/05/17:44:42.961783,7542,1751712282,961205364,,0.058000002056360245,0.04501190409064293,27,0.0,24.239999771118164,0.006231281440705061
2025/07/05/17:44:43.081693,7543,1751712283,80919116,,0.06800000369548798,0.04861211031675339,27,0.0,24.239999771118164,0.0069929324090480804
2025/07/05/17:44:43.161952,7544,1751712283,161002605,,0.06800000369548798,0.050727058202028275,27,0.0,24.239999771118164,0.006918094586580992
2025/07/05/17:44:43.262109,7545,1751712283,261383871,,0.03100000135600567,0.05110947787761688,27,0.0,24.239999771118164,0.007227233145385981
2025/07/05/17:44:43.362140,7546,1751712283,361429122,,0.03100000135600567,0.050135791301727295,27,0.0,24.239999771118164,0.006403372157365084
2025/07/05/17:44:43.561870,7547,1751712283,561055004,,0.046000003814697266,0.04974352940917015,27,0.0,24.239999771118164,0.005589130334556103
2025/07/05/17:44:43.663182,7548,1751712283,662494581,,0.05900000408291817,0.0496220737695694,27,0.0,24.229999542236328,0.005874412599951029
2025/07/05/17:44:43.761754,7549,1751712283,761012226,,0.05900000408291817,0.04879701882600784,27,0.0,24.229999542236328,0.005163236055523157
2025/07/05/17:44:43.861862,7550,1751712283,860959404,,0.12600000202655792,0.04975280538201332,27,0.0,24.229999542236328,0.004414916504174471
2025/07/05/17:44:43.981927,7551,1751712283,981007549,,0.12600000202655792,0.052934445440769196,27,0.0,24.219999313354492,0.004181661643087864
2025/07/05/17:44:44.062054,7552,1751712284,61500215,,0.02800000086426735,0.05397644266486168,27,0.0,24.219999313354492,0.0036733325105160475
2025/07/05/17:44:44.161630,7553,1751712284,160874792,,0.02800000086426735,0.05273290351033211,27,0.0,24.219999313354492,0.003652893705293536
2025/07/05/17:44:44.281949,7554,1751712284,281317744,,0.02200000174343586,0.050704821944236755,27,0.0,24.219999313354492,0.003486671717837453
2025/07/05/17:44:44.425950,7555,1751712284,425175859,,0.02500000037252903,0.05050075426697731,27,0.0,24.219999313354492,0.00243828515522182
2025/07/05/17:44:44.581767,7556,1751712284,581384190,,0.02500000037252903,0.04824089631438255,26,0.0,24.209999084472656,0.0008727889508008957
2025/07/05/17:44:44.662213,7557,1751712284,661517326,,0.030000001192092896,0.046452973037958145,26,0.0,24.209999084472656,0.0004195919318590313
2025/07/05/17:44:44.761700,7558,1751712284,761175838,,0.030000001192092896,0.04452456161379814,26,0.0,24.209999084472656,0.0013048445107415318
2025/07/05/17:44:44.841635,7559,1751712284,840846562,,0.05300000309944153,0.04491350054740906,26,0.0,24.209999084472656,0.0013809010852128267
2025/07/05/17:44:44.941879,7560,1751712284,941082574,,0.05300000309944153,0.04427820444107056,26,0.0,24.209999084472656,0.002261091023683548
2025/07/05/17:44:45.041877,7561,1751712285,40966995,,0.04000000283122063,0.04241091385483742,26,0.0,24.209999084472656,0.001961591187864542
2025/07/05/17:44:45.141657,7562,1751712285,141099973,,0.04000000283122063,0.04167991876602173,26,0.0,24.209999084472656,-0.00023791273997630924
2025/07/05/17:44:45.241899,7563,1751712285,240903706,,0.07100000232458115,0.04111533984541893,26,0.0,24.19999885559082,-0.001459117978811264
2025/07/05/17:44:45.341723,7564,1751712285,340989088,,0.07100000232458115,0.03833908960223198,26,0.0,24.19999885559082,-0.002358480356633663
2025/07/05/17:44:45.503446,7565,1751712285,502509475,,0.05400000140070915,0.034563496708869934,26,0.0,24.19999885559082,-0.00014351482968777418
2025/07/05/17:44:45.625574,7566,1751712285,624520639,,0.0560000017285347,0.032844964414834976,26,0.0,24.19999885559082,0.0009547750232741237
2025/07/05/17:44:45.702783,7567,1751712285,702015520,,0.0560000017285347,0.0328064002096653,26,0.0,24.19999885559082,0.0004588090814650059
2025/07/05/17:44:45.782191,7568,1751712285,781625757,,0.0560000017285347,0.031920310109853745,26,0.0,24.19999885559082,0.001269913511350751
2025/07/05/17:44:45.861834,7569,1751712285,861151609,,0.024000000208616257,0.03058219514787197,26,0.0,24.19999885559082,0.002254702616482973
2025/07/05/17:44:46.003101,7570,1751712286,2276017,,0.02500000037252903,0.02897314727306366,26,0.0,24.19999885559082,0.002629663096740842
2025/07/05/17:44:46.081671,7571,1751712286,80975985,,0.02500000037252903,0.02935129962861538,26,0.0,24.209999084472656,0.004166771657764912
2025/07/05/17:44:46.161862,7572,1751712286,161153974,,0.02500000037252903,0.028671180829405785,26,0.0,24.209999084472656,0.005771445110440254
2025/07/05/17:44:46.261745,7573,1751712286,261056433,,0.03700000047683716,0.026635246351361275,26,0.0,24.209999084472656,0.009242748841643333
2025/07/05/17:44:46.362111,7574,1751712286,361482836,,0.03700000047683716,0.024313850328326225,26,0.0,24.219999313354492,0.009488046169281006
2025/07/05/17:44:46.561545,7575,1751712286,561035765,,0.03200000151991844,0.022588733583688736,26,0.0,24.219999313354492,0.010704859159886837
2025/07/05/17:44:46.682314,7576,1751712286,681632898,,0.02500000037252903,0.023261161521077156,26,0.0,24.219999313354492,0.011826008558273315
2025/07/05/17:44:46.762153,7577,1751712286,761351339,,0.02500000037252903,0.022677160799503326,26,0.0,24.229999542236328,0.012155577540397644
2025/07/05/17:44:46.881112,7578,1751712286,880618379,,0.032999999821186066,0.023134997114539146,26,0.0,24.229999542236328,0.013498052954673767
2025/07/05/17:44:47.002695,7579,1751712287,2220377,,0.026000000536441803,0.024747103452682495,26,0.0,24.239999771118164,0.016865456476807594
2025/07/05/17:44:47.082142,7580,1751712287,81551174,,0.026000000536441803,0.025131631642580032,26,0.0,24.239999771118164,0.018066467717289925
2025/07/05/17:44:47.203206,7581,1751712287,202516811,,0.036000002175569534,0.027062958106398582,26,0.0,24.239999771118164,0.017724335193634033
2025/07/05/17:44:47.281438,7582,1751712287,280885861,,0.036000002175569534,0.028255904093384743,26,0.0,24.239999771118164,0.01755906641483307
2025/07/05/17:44:47.361488,7583,1751712287,360903219,,0.036000002175569534,0.02997719869017601,26,0.0,24.239999771118164,0.017320390790700912
2025/07/05/17:44:47.541533,7584,1751712287,540807262,,0.015000000596046448,0.033486414700746536,26,0.0,24.239999771118164,0.014891961589455605
2025/07/05/17:44:47.641720,7585,1751712287,640787134,,0.029000001028180122,0.035370826721191406,26,0.0,24.239999771118164,0.01401787344366312
2025/07/05/17:44:47.742235,7586,1751712287,741400772,,0.029000001028180122,0.03635953366756439,26,0.0,24.239999771118164,0.016208568587899208
2025/07/05/17:44:47.841858,7587,1751712287,840868922,,0.013000000268220901,0.03834947943687439,26,0.0,24.239999771118164,0.017306366935372353
2025/07/05/17:44:47.941881,7588,1751712287,941174609,,0.013000000268220901,0.0400921106338501,26,0.0,24.239999771118164,0.016723543405532837
2025/07/05/17:44:48.061677,7589,1751712288,60744608,,0.015000000596046448,0.04314354807138443,26,0.0,24.239999771118164,0.014731541275978088
2025/07/05/17:44:48.181549,7590,1751712288,180711081,,0.015000000596046448,0.04626753553748131,26,0.0,24.239999771118164,0.012451410293579102
2025/07/05/17:44:48.262160,7591,1751712288,261297031,,0.017000000923871994,0.04764479771256447,26,0.0,24.229999542236328,0.01116975862532854
2025/07/05/17:44:48.361842,7592,1751712288,361488108,,0.017000000923871994,0.04869411140680313,26,0.0,24.229999542236328,0.009830325841903687
2025/07/05/17:44:48.542198,7593,1751712288,541596073,,0.08000000566244125,0.04974638670682907,26,0.0,24.229999542236328,0.01117620337754488
2025/07/05/17:44:48.641278,7594,1751712288,640677519,,0.04000000283122063,0.05035454407334328,26,0.0,24.229999542236328,0.011588728055357933
2025/07/05/17:44:48.741870,7595,1751712288,741112290,,0.04000000283122063,0.052547894418239594,26,0.0,24.229999542236328,0.010166405700147152
2025/07/05/17:44:48.841822,7596,1751712288,841024568,,0.03200000151991844,0.05348480865359306,26,0.0,24.229999542236328,0.008680409751832485
2025/07/05/17:44:48.941710,7597,1751712288,941085638,,0.03200000151991844,0.055208828300237656,26,0.0,24.229999542236328,0.008623943664133549
2025/07/05/17:44:49.025141,7598,1751712289,24396695,,0.01900000125169754,0.055064547806978226,26,0.0,24.229999542236328,0.008025200106203556
2025/07/05/17:44:49.122777,7599,1751712289,121663799,,0.01900000125169754,0.056419044733047485,26,0.0,24.229999542236328,0.007136528380215168
2025/07/05/17:44:49.203346,7600,1751712289,202739219,,0.013000000268220901,0.056546252220869064,26,0.0,24.229999542236328,0.005520155653357506
2025/07/05/17:44:49.282196,7601,1751712289,281585491,,0.013000000268220901,0.05597923696041107,26,0.0,24.229999542236328,0.005862363148480654
2025/07/05/17:44:49.403562,7602,1751712289,402959182,,0.010000000707805157,0.05550645664334297,26,0.0,24.229999542236328,0.006697768345475197
2025/07/05/17:44:49.561383,7603,1751712289,560884588,,0.010000000707805157,0.05646542087197304,26,0.0,24.229999542236328,0.007092097774147987
2025/07/05/17:44:49.661845,7604,1751712289,661470934,,0.04100000113248825,0.05465684086084366,26,0.0,24.229999542236328,0.006973132956773043
2025/07/05/17:44:49.761818,7605,1751712289,760879460,,0.04100000113248825,0.05300581455230713,26,0.0,24.239999771118164,0.00967218354344368
2025/07/05/17:44:49.861456,7606,1751712289,860686330,,0.03100000135600567,0.05211004987359047,26,0.0,24.239999771118164,0.010584650561213493
2025/07/05/17:44:50.002498,7607,1751712290,2096268,,0.02800000086426735,0.05315288528800011,26,0.0,24.25,0.012149142101407051
2025/07/05/17:44:50.062046,7608,1751712290,61557003,,0.02800000086426735,0.05311098322272301,26,0.0,24.25,0.011700843460857868
2025/07/05/17:44:50.161471,7609,1751712290,160867351,,0.02800000086426735,0.05347215384244919,26,0.0,24.25,0.011592274531722069
2025/07/05/17:44:50.261490,7610,1751712290,260911964,,0.020000001415610313,0.05352245271205902,26,0.0,24.260000228881836,0.011871689930558205
2025/07/05/17:44:50.361629,7611,1751712290,360854205,,0.020000001415610313,0.05329487472772598,26,0.0,24.260000228881836,0.012633362784981728
2025/07/05/17:44:50.541709,7612,1751712290,540940611,,0.04700000211596489,0.05043519288301468,26,0.0,24.26999855041504,0.0159435011446476
2025/07/05/17:44:50.641640,7613,1751712290,640976572,,0.07200000435113907,0.04791367053985596,26,0.0,24.279998779296875,0.016731131821870804
2025/07/05/17:44:50.742275,7614,1751712290,741434225,,0.07200000435113907,0.04607903212308884,26,0.0,24.279998779296875,0.016652673482894897
2025/07/05/17:44:50.841794,7615,1751712290,840998470,,0.05900000408291817,0.04238693788647652,26,0.0,24.28999900817871,0.01729588396847248
2025/07/05/17:44:50.942386,7616,1751712290,941352302,,0.05900000408291817,0.04012047499418259,26,0.0,24.28999900817871,0.019666925072669983
2025/07/05/17:44:51.062122,7617,1751712291,61367655,,0.08700000494718552,0.03631589561700821,27,0.0,24.299999237060547,0.021035537123680115
2025/07/05/17:44:51.162354,7618,1751712291,161616133,,0.08700000494718552,0.03233529254794121,27,0.0,24.299999237060547,0.021191541105508804
2025/07/05/17:44:51.241350,7619,1751712291,240740786,,0.07000000029802322,0.029953422024846077,27,0.0,24.309999465942383,0.02167104184627533
2025/07/05/17:44:51.341400,7620,1751712291,340571760,,0.07000000029802322,0.028086073696613312,27,0.0,24.309999465942383,0.022555828094482422
2025/07/05/17:44:51.502883,7621,1751712291,502198041,,0.04800000041723251,0.02541171945631504,27,0.0,24.309999465942383,0.020690474659204483
2025/07/05/17:44:51.603798,7622,1751712291,602870514,,0.04100000113248825,0.02372238226234913,27,0.0,24.309999465942383,0.020153647288680077
2025/07/05/17:44:51.682482,7623,1751712291,681637074,,0.04100000113248825,0.021182341501116753,27,0.0,24.31999969482422,0.019602954387664795
2025/07/05/17:44:51.781182,7624,1751712291,780764701,,0.04100000113248825,0.018466975539922714,27,0.0,24.31999969482422,0.020848985761404037
2025/07/05/17:44:51.862195,7625,1751712291,861595546,,0.0020000000949949026,0.017009377479553223,27,0.0,24.31999969482422,0.023074889555573463
2025/07/05/17:44:52.003112,7626,1751712292,2604693,,0.06100000441074371,0.013802694156765938,27,0.0,24.31999969482422,0.022843703627586365
2025/07/05/17:44:52.082193,7627,1751712292,81640260,,0.06100000441074371,0.011908180080354214,27,0.0,24.329999923706055,0.023507066071033478
2025/07/05/17:44:52.182299,7628,1751712292,181451987,,0.06100000441074371,0.011691411025822163,27,0.0,24.329999923706055,0.023437827825546265
2025/07/05/17:44:52.261802,7629,1751712292,260795452,,0.03100000135600567,0.010588008910417557,27,0.0,24.329999923706055,0.022781608626246452
2025/07/05/17:44:52.362022,7630,1751712292,361456715,,0.03100000135600567,0.011484606191515923,27,0.0,24.329999923706055,0.021748170256614685
2025/07/05/17:44:52.522505,7631,1751712292,521728218,,0.017000000923871994,0.010880074463784695,27,0.0,24.329999923706055,0.021696535870432854
2025/07/05/17:44:52.603293,7632,1751712292,602688600,,0.014000000432133675,0.01100479532033205,27,0.0,24.329999923706055,0.022420600056648254
2025/07/05/17:44:52.702190,7633,1751712292,701523515,,0.014000000432133675,0.012550979852676392,28,0.0,24.329999923706055,0.022360991686582565
2025/07/05/17:44:52.782187,7634,1751712292,781607299,,0.014000000432133675,0.012041589245200157,28,0.0,24.329999923706055,0.022535521537065506
2025/07/05/17:44:52.881433,7635,1751712292,880799124,,0.08700000494718552,0.012689239345490932,28,0.0,24.329999923706055,0.02043822593986988
2025/07/05/17:44:53.002607,7636,1751712293,2038842,,0.04700000211596489,0.01409770455211401,28,0.0,24.329999923706055,0.019922304898500443
2025/07/05/17:44:53.061568,7637,1751712293,60861410,,0.04700000211596489,0.014909738674759865,28,0.0,24.329999923706055,0.02030557207763195
2025/07/05/17:44:53.161841,7638,1751712293,160716536,,0.04700000211596489,0.015835992991924286,28,0.0,24.329999923706055,0.019107844680547714
2025/07/05/17:44:53.281472,7639,1751712293,280595341,,0.01100000087171793,0.016491349786520004,28,0.0,24.329999923706055,0.020515017211437225
2025/07/05/17:44:53.361432,7640,1751712293,361202908,,0.01100000087171793,0.017706910148262978,28,0.0,24.329999923706055,0.021697279065847397
2025/07/05/17:44:53.581867,7641,1751712293,581091414,,0.11000000685453415,0.03555487096309662,28,0.0,24.329999923706055,0.01954502798616886
2025/07/05/17:44:53.661412,7642,1751712293,660918521,,0.02500000037252903,0.0307700764387846,28,0.0,24.329999923706055,0.017529338598251343
2025/07/05/17:44:53.761492,7643,1751712293,760878371,,0.02500000037252903,0.21502681076526642,28,0.0,24.329999923706055,0.0034004587214440107
2025/07/05/17:44:53.881270,7644,1751712293,880558347,,0.06100000441074371,0.25921449065208435,26,0.0,24.31999969482422,0.005730330944061279
2025/07/05/17:44:54.002496,7645,1751712294,2076458,,0.26100000739097595,0.19248226284980774,24,0.0,24.31999969482422,0.026478372514247894
2025/07/05/17:44:54.061449,7646,1751712294,60642355,,0.26100000739097595,0.18030348420143127,24,0.0,24.31999969482422,0.031489890068769455
2025/07/05/17:44:54.162143,7647,1751712294,161308928,,0.26100000739097595,0.1721341609954834,23,0.0,24.31999969482422,0.029424801468849182
2025/07/05/17:44:54.261268,7648,1751712294,260498037,,0.06100000441074371,0.16977980732917786,23,0.0,24.31999969482422,0.021331291645765305
2025/07/05/17:44:54.342003,7649,1751712294,341508742,,0.06100000441074371,0.16287727653980255,23,0.0,24.31999969482422,0.0152433468028903
2025/07/05/17:44:54.503297,7650,1751712294,502947448,,0.11500000208616257,0.13606156408786774,22,0.0,24.309999465942383,0.012120837345719337
2025/07/05/17:44:54.625232,7651,1751712294,624538060,,0.11300000548362732,0.11573302745819092,22,0.0,24.309999465942383,0.013262240216135979
2025/07/05/17:44:54.702301,7652,1751712294,701627991,,0.11300000548362732,0.10299704968929291,22,0.0,24.309999465942383,0.011750144883990288
2025/07/05/17:44:54.803520,7653,1751712294,802715518,,0.09600000083446503,0.09008631110191345,22,0.0,24.299999237060547,0.009800276719033718
2025/07/05/17:44:54.902487,7654,1751712294,902048410,,0.09600000083446503,0.0810467079281807,23,0.0,24.299999237060547,0.0075869010761380196
2025/07/05/17:44:55.003467,7655,1751712295,2607779,,0.18800000846385956,0.07163625210523605,23,0.0,24.28999900817871,0.005058908835053444
2025/07/05/17:44:55.101824,7656,1751712295,101301239,,0.18800000846385956,0.06619009375572205,23,0.0,24.28999900817871,0.004946833476424217
2025/07/05/17:44:55.182286,7657,1751712295,181359608,,0.18800000846385956,0.060857076197862625,23,0.0,24.279998779296875,0.005777228157967329
2025/07/05/17:44:55.261484,7658,1751712295,260642575,,0.06000000238418579,0.058962173759937286,24,0.0,24.279998779296875,0.00581187941133976
2025/07/05/17:44:55.402990,7659,1751712295,401918269,,0.0860000029206276,0.05458959564566612,24,0.0,24.26999855041504,0.0003401518624741584
2025/07/05/17:44:55.561363,7660,1751712295,560451152,,0.0860000029206276,0.052535925060510635,25,0.0,24.26999855041504,-0.0013067768886685371
2025/07/05/17:44:55.682036,7661,1751712295,681348722,,0.21900001168251038,0.05393366888165474,25,0.0,24.260000228881836,-0.0028735091909766197
2025/07/05/17:44:55.781971,7662,1751712295,781519316,,0.21900001168251038,0.05616186186671257,25,0.0,24.260000228881836,-0.003894214052706957
2025/07/05/17:44:55.861430,7663,1751712295,860847974,,0.1080000028014183,0.05705529451370239,25,0.0,24.260000228881836,-0.002989319385960698
2025/07/05/17:44:56.002611,7664,1751712296,1872031,,0.030000001192092896,0.05732298642396927,26,0.0,24.260000228881836,-0.00552772032096982
2025/07/05/17:44:56.061547,7665,1751712296,60432548,,0.030000001192092896,0.05728301405906677,26,0.0,24.260000228881836,-0.00909174419939518
2025/07/05/17:44:56.161001,7666,1751712296,160497848,,0.030000001192092896,0.056487180292606354,26,0.0,24.25,-0.011243550106883049
2025/07/05/17:44:56.281163,7667,1751712296,280297605,,0.1080000028014183,0.054506734013557434,26,0.0,24.25,-0.00804952997714281
2025/07/05/17:44:56.361307,7668,1751712296,360779086,,0.1080000028014183,0.053636204451322556,26,0.0,24.25,-0.005690994206815958
2025/07/05/17:44:56.582039,7669,1751712296,581423680,,0.06800000369548798,0.04844304546713829,26,0.0,24.25,-0.004364729858934879
2025/07/05/17:44:56.661260,7670,1751712296,660901345,,0.06300000101327896,0.04609111696481705,26,0.0,24.25,-0.006843379233032465
2025/07/05/17:44:56.762152,7671,1751712296,761659466,,0.06300000101327896,0.04521353170275688,26,0.0,24.25,-0.011458334513008595
2025/07/05/17:44:56.861441,7672,1751712296,860640681,,0.018000001087784767,0.042236436158418655,26,0.0,24.25,-0.012983224354684353
2025/07/05/17:44:56.982238,7673,1751712296,981638053,,0.018000001087784767,0.03692087531089783,26,0.0,24.239999771118164,-0.005907522048801184
2025/07/05/17:44:57.061344,7674,1751712297,60531906,,0.023000001907348633,0.035307660698890686,26,0.0,24.239999771118164,-0.003350711427628994
2025/07/05/17:44:57.182078,7675,1751712297,180980354,,0.023000001907348633,0.030887125059962273,27,0.0,24.239999771118164,-0.002021434484049678
2025/07/05/17:44:57.261285,7676,1751712297,260571806,,0.04400000348687172,0.025683000683784485,27,0.0,24.239999771118164,-0.002923878375440836
2025/07/05/17:44:57.361454,7677,1751712297,360456699,,0.04400000348687172,0.022056452929973602,27,0.0,24.239999771118164,-0.008229417726397514
2025/07/05/17:44:57.503141,7678,1751712297,502363249,,0.05300000309944153,0.019093135371804237,27,0.0,24.229999542236328,-0.012631073594093323
2025/07/05/17:44:57.641727,7679,1751712297,641372632,,0.07300000637769699,0.01395812164992094,27,0.0,24.239999771118164,-0.0031752155628055334
2025/07/05/17:44:57.741947,7680,1751712297,741316078,,0.07300000637769699,0.01490016933530569,27,0.0,24.239999771118164,0.00203221058472991
2025/07/05/17:44:57.843911,7681,1751712297,843421255,,0.03700000047683716,0.013805976137518883,27,0.0,24.25,0.003950003534555435
2025/07/05/17:44:57.941073,7682,1751712297,940438580,,0.03700000047683716,0.010928230360150337,27,0.0,24.25,0.0020962972193956375
2025/07/05/17:44:58.041518,7683,1751712298,40511469,,0.02500000037252903,0.008822919800877571,27,0.0,24.25,-0.0025441301986575127
2025/07/05/17:44:58.142806,7684,1751712298,142332717,,0.02500000037252903,0.005759227555245161,27,0.0,24.25,-0.01019128505140543
2025/07/05/17:44:58.240904,7685,1751712298,240446661,,0.010000000707805157,0.04888008534908295,27,0.0,24.25,-0.011099476367235184
2025/07/05/17:44:58.341211,7686,1751712298,340635392,,0.010000000707805157,0.07966837286949158,27,0.0,24.25,-0.0004955920740030706
2025/07/05/17:44:58.522358,7687,1751712298,521661770,,0.14100000262260437,0.09710222482681274,27,0.0,24.260000228881836,0.006943390239030123
2025/07/05/17:44:58.624810,7688,1751712298,624175824,,0.15400001406669617,0.11663803458213806,28,0.0,24.260000228881836,0.006184615194797516
2025/07/05/17:44:58.721993,7689,1751712298,721481414,,0.15400001406669617,0.16429270803928375,28,0.0,24.260000228881836,0.0007884453516453505
2025/07/05/17:44:58.841853,7690,1751712298,840683864,,0.17100000381469727,0.18979987502098083,28,0.0,24.260000228881836,-0.004487256053835154
