time,.header.seq,.header.stamp.secs,.header.stamp.nsecs,.header.frame_id,.child_frame_id,.pose.pose.position.x,.pose.pose.position.y,.pose.pose.position.z,.pose.pose.orientation.x,.pose.pose.orientation.y,.pose.pose.orientation.z,.pose.pose.orientation.w,.pose.covariance,.twist.twist.linear.x,.twist.twist.linear.y,.twist.twist.linear.z,.twist.twist.angular.x,.twist.twist.angular.y,.twist.twist.angular.z,.twist.covariance
2025/07/05/17:44:13.305145,7261,1751712253,278540352,map,base_link,-1.0711442641305786,4.191477582365143,-3.696,0.04739217200733256,-0.04955308406723787,-0.8080883945083868,-0.5850569378724694,"(1.6205289999999997, 0.0, 0.0, 0.0, 0.0, 0.0, 0.0, 1.6205289999999997, 0.0, 0.0, 0.0, 0.0, 0.0, 0.0, 3.048516, 0.0, 0.0, 0.0, 0.0, 0.0, 0.0, 99999.0, 0.0, 0.0, 0.0, 0.0, 0.0, 0.0, 99999.0, 0.0, 0.0, 0.0, 0.0, 0.0, 0.0, 99999.0)",-0.05,0.13,0.0,0.0,0.0,0.0,"(-1.0, 0.0, 0.0, 0.0, 0.0, 0.0, 0.0, 0.0, 0.0, 0.0, 0.0, 0.0, 0.0, 0.0, 0.0, 0.0, 0.0, 0.0, 0.0, 0.0, 0.0, 0.0, 0.0, 0.0, 0.0, 0.0, 0.0, 0.0, 0.0, 0.0, 0.0, 0.0, 0.0, 0.0, 0.0, 0.0)"
2025/07/05/17:44:13.404065,7262,1751712253,399548544,map,base_link,-1.082186989662684,4.2025368896975674,-3.695,0.047501254327954275,-0.05054697968649939,-0.8094963250485459,-0.5830131502931496,"(1.6205289999999997, 0.0, 0.0, 0.0, 0.0, 0.0, 0.0, 1.6205289999999997, 0.0, 0.0, 0.0, 0.0, 0.0, 0.0, 3.048516, 0.0, 0.0, 0.0, 0.0, 0.0, 0.0, 99999.0, 0.0, 0.0, 0.0, 0.0, 0.0, 0.0, 99999.0, 0.0, 0.0, 0.0, 0.0, 0.0, 0.0, 99999.0)",-0.06,0.13,0.0,0.0,0.0,0.0,"(-1.0, 0.0, 0.0, 0.0, 0.0, 0.0, 0.0, 0.0, 0.0, 0.0, 0.0, 0.0, 0.0, 0.0, 0.0, 0.0, 0.0, 0.0, 0.0, 0.0, 0.0, 0.0, 0.0, 0.0, 0.0, 0.0, 0.0, 0.0, 0.0, 0.0, 0.0, 0.0, 0.0, 0.0, 0.0, 0.0)"
2025/07/05/17:44:13.563027,7263,1751712253,558564160,map,base_link,-1.1042724397267034,4.235714812169332,-3.698,0.04707315177501695,-0.05248613534063549,-0.8088288728707265,-0.5838023453101578,"(1.6307289999999999, 0.0, 0.0, 0.0, 0.0, 0.0, 0.0, 1.6307289999999999, 0.0, 0.0, 0.0, 0.0, 0.0, 0.0, 3.0590010000000003, 0.0, 0.0, 0.0, 0.0, 0.0, 0.0, 99999.0, 0.0, 0.0, 0.0, 0.0, 0.0, 0.0, 99999.0, 0.0, 0.0, 0.0, 0.0, 0.0, 0.0, 99999.0)",-0.08,0.12,0.0,0.0,0.0,0.0,"(-1.0, 0.0, 0.0, 0.0, 0.0, 0.0, 0.0, 0.0, 0.0, 0.0, 0.0, 0.0, 0.0, 0.0, 0.0, 0.0, 0.0, 0.0, 0.0, 0.0, 0.0, 0.0, 0.0, 0.0, 0.0, 0.0, 0.0, 0.0, 0.0, 0.0, 0.0, 0.0, 0.0, 0.0, 0.0, 0.0)"
2025/07/05/17:44:13.663775,7264,1751712253,659573888,map,base_link,-1.115315161856552,4.246774112898331,-3.7,0.04755659493633993,-0.05138077065008003,-0.8078938602629534,-0.5851545925948869,"(1.6307289999999999, 0.0, 0.0, 0.0, 0.0, 0.0, 0.0, 1.6307289999999999, 0.0, 0.0, 0.0, 0.0, 0.0, 0.0, 3.0590010000000003, 0.0, 0.0, 0.0, 0.0, 0.0, 0.0, 99999.0, 0.0, 0.0, 0.0, 0.0, 0.0, 0.0, 99999.0, 0.0, 0.0, 0.0, 0.0, 0.0, 0.0, 99999.0)",-0.08,0.12,0.0,0.0,0.0,0.0,"(-1.0, 0.0, 0.0, 0.0, 0.0, 0.0, 0.0, 0.0, 0.0, 0.0, 0.0, 0.0, 0.0, 0.0, 0.0, 0.0, 0.0, 0.0, 0.0, 0.0, 0.0, 0.0, 0.0, 0.0, 0.0, 0.0, 0.0, 0.0, 0.0, 0.0, 0.0, 0.0, 0.0, 0.0, 0.0, 0.0)"
2025/07/05/17:44:13.763110,7265,1751712253,758580032,map,base_link,-1.1263578877494982,4.257833420224185,-3.701,0.04838305258871069,-0.04879793114439782,-0.8067777626273898,-0.5868453662321683,"(1.640961, 0.0, 0.0, 0.0, 0.0, 0.0, 0.0, 1.640961, 0.0, 0.0, 0.0, 0.0, 0.0, 0.0, 3.0660009999999995, 0.0, 0.0, 0.0, 0.0, 0.0, 0.0, 99999.0, 0.0, 0.0, 0.0, 0.0, 0.0, 0.0, 99999.0, 0.0, 0.0, 0.0, 0.0, 0.0, 0.0, 99999.0)",-0.09,0.13,0.0,0.0,0.0,0.0,"(-1.0, 0.0, 0.0, 0.0, 0.0, 0.0, 0.0, 0.0, 0.0, 0.0, 0.0, 0.0, 0.0, 0.0, 0.0, 0.0, 0.0, 0.0, 0.0, 0.0, 0.0, 0.0, 0.0, 0.0, 0.0, 0.0, 0.0, 0.0, 0.0, 0.0, 0.0, 0.0, 0.0, 0.0, 0.0, 0.0)"
2025/07/05/17:44:13.862961,7266,1751712253,858580032,map,base_link,-1.148443335379398,4.279952034956639,-3.701,0.04889889029382628,-0.04706069765370475,-0.8053219929666002,-0.5889402999529597,"(1.653796, 0.0, 0.0, 0.0, 0.0, 0.0, 0.0, 1.653796, 0.0, 0.0, 0.0, 0.0, 0.0, 0.0, 3.0660009999999995, 0.0, 0.0, 0.0, 0.0, 0.0, 0.0, 99999.0, 0.0, 0.0, 0.0, 0.0, 0.0, 0.0, 99999.0, 0.0, 0.0, 0.0, 0.0, 0.0, 0.0, 99999.0)",-0.09,0.13,0.0,0.0,0.0,0.0,"(-1.0, 0.0, 0.0, 0.0, 0.0, 0.0, 0.0, 0.0, 0.0, 0.0, 0.0, 0.0, 0.0, 0.0, 0.0, 0.0, 0.0, 0.0, 0.0, 0.0, 0.0, 0.0, 0.0, 0.0, 0.0, 0.0, 0.0, 0.0, 0.0, 0.0, 0.0, 0.0, 0.0, 0.0, 0.0, 0.0)"
2025/07/05/17:44:13.982162,7267,1751712253,978586944,map,base_link,-1.1594860608430553,4.291011342189903,-3.702,0.04871701531655393,-0.047154322090830404,-0.8031965781016521,-0.5918432049560068,"(1.653796, 0.0, 0.0, 0.0, 0.0, 0.0, 0.0, 1.653796, 0.0, 0.0, 0.0, 0.0, 0.0, 0.0, 3.0660009999999995, 0.0, 0.0, 0.0, 0.0, 0.0, 0.0, 99999.0, 0.0, 0.0, 0.0, 0.0, 0.0, 0.0, 99999.0, 0.0, 0.0, 0.0, 0.0, 0.0, 0.0, 99999.0)",-0.1,0.13,0.0,0.0,0.0,0.0,"(-1.0, 0.0, 0.0, 0.0, 0.0, 0.0, 0.0, 0.0, 0.0, 0.0, 0.0, 0.0, 0.0, 0.0, 0.0, 0.0, 0.0, 0.0, 0.0, 0.0, 0.0, 0.0, 0.0, 0.0, 0.0, 0.0, 0.0, 0.0, 0.0, 0.0, 0.0, 0.0, 0.0, 0.0, 0.0, 0.0)"
2025/07/05/17:44:14.062631,7268,1751712254,58592576,map,base_link,-1.1705287850188464,4.3020706496072965,-3.704,0.04862029396377315,-0.04805952174773448,-0.8016801711957305,-0.593830996577174,"(1.6641000000000001, 0.0, 0.0, 0.0, 0.0, 0.0, 0.0, 1.6641000000000001, 0.0, 0.0, 0.0, 0.0, 0.0, 0.0, 3.0800249999999996, 0.0, 0.0, 0.0, 0.0, 0.0, 0.0, 99999.0, 0.0, 0.0, 0.0, 0.0, 0.0, 0.0, 99999.0, 0.0, 0.0, 0.0, 0.0, 0.0, 0.0, 99999.0)",-0.1,0.13,0.0,0.0,0.0,0.0,"(-1.0, 0.0, 0.0, 0.0, 0.0, 0.0, 0.0, 0.0, 0.0, 0.0, 0.0, 0.0, 0.0, 0.0, 0.0, 0.0, 0.0, 0.0, 0.0, 0.0, 0.0, 0.0, 0.0, 0.0, 0.0, 0.0, 0.0, 0.0, 0.0, 0.0, 0.0, 0.0, 0.0, 0.0, 0.0, 0.0)"
2025/07/05/17:44:14.162341,7269,1751712254,158597184,map,base_link,-1.192614234297454,4.3241892642645245,-3.706,0.047768274680306796,-0.049386722614431756,-0.7997448623783032,-0.5963952537227143,"(1.6641000000000001, 0.0, 0.0, 0.0, 0.0, 0.0, 0.0, 1.6641000000000001, 0.0, 0.0, 0.0, 0.0, 0.0, 0.0, 3.0800249999999996, 0.0, 0.0, 0.0, 0.0, 0.0, 0.0, 99999.0, 0.0, 0.0, 0.0, 0.0, 0.0, 0.0, 99999.0, 0.0, 0.0, 0.0, 0.0, 0.0, 0.0, 99999.0)",-0.12,0.16,0.0,0.0,0.0,0.0,"(-1.0, 0.0, 0.0, 0.0, 0.0, 0.0, 0.0, 0.0, 0.0, 0.0, 0.0, 0.0, 0.0, 0.0, 0.0, 0.0, 0.0, 0.0, 0.0, 0.0, 0.0, 0.0, 0.0, 0.0, 0.0, 0.0, 0.0, 0.0, 0.0, 0.0, 0.0, 0.0, 0.0, 0.0, 0.0, 0.0)"
2025/07/05/17:44:14.262589,7270,1751712254,259604864,map,base_link,-1.2036569561349089,4.335248564752832,-3.711,0.04490496530300175,-0.051943982973188946,-0.7972327015101378,-0.5997544383886333,"(1.6641000000000001, 0.0, 0.0, 0.0, 0.0, 0.0, 0.0, 1.6641000000000001, 0.0, 0.0, 0.0, 0.0, 0.0, 0.0, 3.0800249999999996, 0.0, 0.0, 0.0, 0.0, 0.0, 0.0, 99999.0, 0.0, 0.0, 0.0, 0.0, 0.0, 0.0, 99999.0, 0.0, 0.0, 0.0, 0.0, 0.0, 0.0, 99999.0)",-0.16,0.2,0.0,0.0,0.0,0.0,"(-1.0, 0.0, 0.0, 0.0, 0.0, 0.0, 0.0, 0.0, 0.0, 0.0, 0.0, 0.0, 0.0, 0.0, 0.0, 0.0, 0.0, 0.0, 0.0, 0.0, 0.0, 0.0, 0.0, 0.0, 0.0, 0.0, 0.0, 0.0, 0.0, 0.0, 0.0, 0.0, 0.0, 0.0, 0.0, 0.0)"
2025/07/05/17:44:14.363026,7271,1751712254,358609728,map,base_link,-1.2257424057743576,4.357367179288014,-3.715,0.04152139362061101,-0.05529649350029712,-0.7930791226764617,-0.6051807803070975,"(1.671849, 0.0, 0.0, 0.0, 0.0, 0.0, 0.0, 1.671849, 0.0, 0.0, 0.0, 0.0, 0.0, 0.0, 3.1011209999999996, 0.0, 0.0, 0.0, 0.0, 0.0, 0.0, 99999.0, 0.0, 0.0, 0.0, 0.0, 0.0, 0.0, 99999.0, 0.0, 0.0, 0.0, 0.0, 0.0, 0.0, 99999.0)",-0.18,0.22,0.0,0.0,0.0,0.0,"(-1.0, 0.0, 0.0, 0.0, 0.0, 0.0, 0.0, 0.0, 0.0, 0.0, 0.0, 0.0, 0.0, 0.0, 0.0, 0.0, 0.0, 0.0, 0.0, 0.0, 0.0, 0.0, 0.0, 0.0, 0.0, 0.0, 0.0, 0.0, 0.0, 0.0, 0.0, 0.0, 0.0, 0.0, 0.0, 0.0)"
2025/07/05/17:44:14.563003,7272,1751712254,558623808,map,base_link,-1.2588705794567179,4.412663709522325,-3.729,0.045947706902170565,-0.051067741108255675,-0.7844363033621145,-0.6163932024415203,"(1.679616, 0.0, 0.0, 0.0, 0.0, 0.0, 0.0, 1.679616, 0.0, 0.0, 0.0, 0.0, 0.0, 0.0, 3.122289, 0.0, 0.0, 0.0, 0.0, 0.0, 0.0, 99999.0, 0.0, 0.0, 0.0, 0.0, 0.0, 0.0, 99999.0, 0.0, 0.0, 0.0, 0.0, 0.0, 0.0, 99999.0)",-0.14,0.21,0.0,0.0,0.0,0.0,"(-1.0, 0.0, 0.0, 0.0, 0.0, 0.0, 0.0, 0.0, 0.0, 0.0, 0.0, 0.0, 0.0, 0.0, 0.0, 0.0, 0.0, 0.0, 0.0, 0.0, 0.0, 0.0, 0.0, 0.0, 0.0, 0.0, 0.0, 0.0, 0.0, 0.0, 0.0, 0.0, 0.0, 0.0, 0.0, 0.0)"
2025/07/05/17:44:14.642848,7273,1751712254,638623808,map,base_link,-1.2699133015865662,4.423723009904899,-3.735,0.049426849704298455,-0.04762128104097591,-0.7813220241025767,-0.6203427236395844,"(1.679616, 0.0, 0.0, 0.0, 0.0, 0.0, 0.0, 1.679616, 0.0, 0.0, 0.0, 0.0, 0.0, 0.0, 3.122289, 0.0, 0.0, 0.0, 0.0, 0.0, 0.0, 99999.0, 0.0, 0.0, 0.0, 0.0, 0.0, 0.0, 99999.0, 0.0, 0.0, 0.0, 0.0, 0.0, 0.0, 99999.0)",-0.13,0.2,0.0,0.0,0.0,0.0,"(-1.0, 0.0, 0.0, 0.0, 0.0, 0.0, 0.0, 0.0, 0.0, 0.0, 0.0, 0.0, 0.0, 0.0, 0.0, 0.0, 0.0, 0.0, 0.0, 0.0, 0.0, 0.0, 0.0, 0.0, 0.0, 0.0, 0.0, 0.0, 0.0, 0.0, 0.0, 0.0, 0.0, 0.0, 0.0, 0.0)"
2025/07/05/17:44:14.742358,7274,1751712254,738629696,map,base_link,-1.2809560242778817,4.445841617729529,-3.741,0.05181437600643625,-0.04534463981079964,-0.777636184292914,-0.6249328755617275,"(1.6822089999999998, 0.0, 0.0, 0.0, 0.0, 0.0, 0.0, 1.6822089999999998, 0.0, 0.0, 0.0, 0.0, 0.0, 0.0, 3.139984, 0.0, 0.0, 0.0, 0.0, 0.0, 0.0, 99999.0, 0.0, 0.0, 0.0, 0.0, 0.0, 0.0, 99999.0, 0.0, 0.0, 0.0, 0.0, 0.0, 0.0, 99999.0)",-0.13,0.2,0.0,0.0,0.0,0.0,"(-1.0, 0.0, 0.0, 0.0, 0.0, 0.0, 0.0, 0.0, 0.0, 0.0, 0.0, 0.0, 0.0, 0.0, 0.0, 0.0, 0.0, 0.0, 0.0, 0.0, 0.0, 0.0, 0.0, 0.0, 0.0, 0.0, 0.0, 0.0, 0.0, 0.0, 0.0, 0.0, 0.0, 0.0, 0.0, 0.0)"
2025/07/05/17:44:14.842252,7275,1751712254,838636352,map,base_link,-1.2919987497368217,4.46796023246036,-3.747,0.051530392092437635,-0.045775301875059425,-0.7745831246694658,-0.6287051959434831,"(1.6822089999999998, 0.0, 0.0, 0.0, 0.0, 0.0, 0.0, 1.6822089999999998, 0.0, 0.0, 0.0, 0.0, 0.0, 0.0, 3.139984, 0.0, 0.0, 0.0, 0.0, 0.0, 0.0, 99999.0, 0.0, 0.0, 0.0, 0.0, 0.0, 0.0, 99999.0, 0.0, 0.0, 0.0, 0.0, 0.0, 0.0, 99999.0)",-0.12,0.2,0.0,0.0,0.0,0.0,"(-1.0, 0.0, 0.0, 0.0, 0.0, 0.0, 0.0, 0.0, 0.0, 0.0, 0.0, 0.0, 0.0, 0.0, 0.0, 0.0, 0.0, 0.0, 0.0, 0.0, 0.0, 0.0, 0.0, 0.0, 0.0, 0.0, 0.0, 0.0, 0.0, 0.0, 0.0, 0.0, 0.0, 0.0, 0.0, 0.0)"
2025/07/05/17:44:14.942542,7276,1751712254,938642496,map,base_link,-1.3140841971063821,4.490078839819192,-3.751,0.0492146754109921,-0.04835872954311017,-0.7721098520470577,-0.6317323209817888,"(1.6589440000000002, 0.0, 0.0, 0.0, 0.0, 0.0, 0.0, 1.6589440000000002, 0.0, 0.0, 0.0, 0.0, 0.0, 0.0, 3.1011209999999996, 0.0, 0.0, 0.0, 0.0, 0.0, 0.0, 99999.0, 0.0, 0.0, 0.0, 0.0, 0.0, 0.0, 99999.0, 0.0, 0.0, 0.0, 0.0, 0.0, 0.0, 99999.0)",-0.12,0.2,0.0,0.0,0.0,0.0,"(-1.0, 0.0, 0.0, 0.0, 0.0, 0.0, 0.0, 0.0, 0.0, 0.0, 0.0, 0.0, 0.0, 0.0, 0.0, 0.0, 0.0, 0.0, 0.0, 0.0, 0.0, 0.0, 0.0, 0.0, 0.0, 0.0, 0.0, 0.0, 0.0, 0.0, 0.0, 0.0, 0.0, 0.0, 0.0, 0.0)"
2025/07/05/17:44:15.042631,7277,1751712255,38649152,map,base_link,-1.325126921414351,4.512197454701526,-3.755,0.04625093110418143,-0.05190505424848324,-0.770012976343632,-0.6342292432377108,"(1.6589440000000002, 0.0, 0.0, 0.0, 0.0, 0.0, 0.0, 1.6589440000000002, 0.0, 0.0, 0.0, 0.0, 0.0, 0.0, 3.1011209999999996, 0.0, 0.0, 0.0, 0.0, 0.0, 0.0, 99999.0, 0.0, 0.0, 0.0, 0.0, 0.0, 0.0, 99999.0, 0.0, 0.0, 0.0, 0.0, 0.0, 0.0, 99999.0)",-0.11,0.19,0.01,0.0,0.0,0.0,"(-1.0, 0.0, 0.0, 0.0, 0.0, 0.0, 0.0, 0.0, 0.0, 0.0, 0.0, 0.0, 0.0, 0.0, 0.0, 0.0, 0.0, 0.0, 0.0, 0.0, 0.0, 0.0, 0.0, 0.0, 0.0, 0.0, 0.0, 0.0, 0.0, 0.0, 0.0, 0.0, 0.0, 0.0, 0.0, 0.0)"
2025/07/05/17:44:15.142516,7278,1751712255,138655296,map,base_link,-1.3361696460831611,4.534316069461814,-3.759,0.04393518926905953,-0.054693593493020595,-0.7681775837831128,-0.6363815755879886,"(1.643524, 0.0, 0.0, 0.0, 0.0, 0.0, 0.0, 1.643524, 0.0, 0.0, 0.0, 0.0, 0.0, 0.0, 3.0976, 0.0, 0.0, 0.0, 0.0, 0.0, 0.0, 99999.0, 0.0, 0.0, 0.0, 0.0, 0.0, 0.0, 99999.0, 0.0, 0.0, 0.0, 0.0, 0.0, 0.0, 99999.0)",-0.1,0.19,0.01,0.0,0.0,0.0,"(-1.0, 0.0, 0.0, 0.0, 0.0, 0.0, 0.0, 0.0, 0.0, 0.0, 0.0, 0.0, 0.0, 0.0, 0.0, 0.0, 0.0, 0.0, 0.0, 0.0, 0.0, 0.0, 0.0, 0.0, 0.0, 0.0, 0.0, 0.0, 0.0, 0.0, 0.0, 0.0, 0.0, 0.0, 0.0, 0.0)"
2025/07/05/17:44:15.243611,7279,1751712255,238661184,map,base_link,-1.3472123691400353,4.545375369320404,-3.762,0.04307713452888998,-0.055552485625528725,-0.7664944548997938,-0.6383921462780328,"(1.643524, 0.0, 0.0, 0.0, 0.0, 0.0, 0.0, 1.643524, 0.0, 0.0, 0.0, 0.0, 0.0, 0.0, 3.0976, 0.0, 0.0, 0.0, 0.0, 0.0, 0.0, 99999.0, 0.0, 0.0, 0.0, 0.0, 0.0, 0.0, 99999.0, 0.0, 0.0, 0.0, 0.0, 0.0, 0.0, 99999.0)",-0.1,0.19,0.01,0.0,0.0,0.0,"(-1.0, 0.0, 0.0, 0.0, 0.0, 0.0, 0.0, 0.0, 0.0, 0.0, 0.0, 0.0, 0.0, 0.0, 0.0, 0.0, 0.0, 0.0, 0.0, 0.0, 0.0, 0.0, 0.0, 0.0, 0.0, 0.0, 0.0, 0.0, 0.0, 0.0, 0.0, 0.0, 0.0, 0.0, 0.0, 0.0)"
2025/07/05/17:44:15.343499,7280,1751712255,338667328,map,base_link,-1.3582550938772933,4.567493984064379,-3.765,0.04360112800863066,-0.05450442669323356,-0.7648086256291076,-0.6404654364370749,"(1.6358409999999999, 0.0, 0.0, 0.0, 0.0, 0.0, 0.0, 1.6358409999999999, 0.0, 0.0, 0.0, 0.0, 0.0, 0.0, 3.0976, 0.0, 0.0, 0.0, 0.0, 0.0, 0.0, 99999.0, 0.0, 0.0, 0.0, 0.0, 0.0, 0.0, 99999.0, 0.0, 0.0, 0.0, 0.0, 0.0, 0.0, 99999.0)",-0.09,0.18,0.02,0.0,0.0,0.0,"(-1.0, 0.0, 0.0, 0.0, 0.0, 0.0, 0.0, 0.0, 0.0, 0.0, 0.0, 0.0, 0.0, 0.0, 0.0, 0.0, 0.0, 0.0, 0.0, 0.0, 0.0, 0.0, 0.0, 0.0, 0.0, 0.0, 0.0, 0.0, 0.0, 0.0, 0.0, 0.0, 0.0, 0.0, 0.0, 0.0)"
2025/07/05/17:44:15.503618,7281,1751712255,499683200,map,base_link,-1.3692978174224686,4.600671898994381,-3.771,0.04534441898593499,-0.051301661862811654,-0.761859750272356,-0.6441131453959663,"(1.6358409999999999, 0.0, 0.0, 0.0, 0.0, 0.0, 0.0, 1.6358409999999999, 0.0, 0.0, 0.0, 0.0, 0.0, 0.0, 3.0976, 0.0, 0.0, 0.0, 0.0, 0.0, 0.0, 99999.0, 0.0, 0.0, 0.0, 0.0, 0.0, 0.0, 99999.0, 0.0, 0.0, 0.0, 0.0, 0.0, 0.0, 99999.0)",-0.09,0.17,0.02,0.0,0.0,0.0,"(-1.0, 0.0, 0.0, 0.0, 0.0, 0.0, 0.0, 0.0, 0.0, 0.0, 0.0, 0.0, 0.0, 0.0, 0.0, 0.0, 0.0, 0.0, 0.0, 0.0, 0.0, 0.0, 0.0, 0.0, 0.0, 0.0, 0.0, 0.0, 0.0, 0.0, 0.0, 0.0, 0.0, 0.0, 0.0, 0.0)"
2025/07/05/17:44:15.605844,7282,1751712255,600688320,map,base_link,-1.3803405420912784,4.622790513754669,-3.773,0.04613079147780195,-0.04980658638378241,-0.7598721040456285,-0.646518089092406,"(1.6358409999999999, 0.0, 0.0, 0.0, 0.0, 0.0, 0.0, 1.6358409999999999, 0.0, 0.0, 0.0, 0.0, 0.0, 0.0, 3.1081689999999997, 0.0, 0.0, 0.0, 0.0, 0.0, 0.0, 99999.0, 0.0, 0.0, 0.0, 0.0, 0.0, 0.0, 99999.0, 0.0, 0.0, 0.0, 0.0, 0.0, 0.0, 99999.0)",-0.09,0.17,0.02,0.0,0.0,0.0,"(-1.0, 0.0, 0.0, 0.0, 0.0, 0.0, 0.0, 0.0, 0.0, 0.0, 0.0, 0.0, 0.0, 0.0, 0.0, 0.0, 0.0, 0.0, 0.0, 0.0, 0.0, 0.0, 0.0, 0.0, 0.0, 0.0, 0.0, 0.0, 0.0, 0.0, 0.0, 0.0, 0.0, 0.0, 0.0, 0.0)"
2025/07/05/17:44:15.682864,7283,1751712255,678696768,map,base_link,-1.3913832672625426,4.633849820862716,-3.774,0.04599655228131813,-0.04953456613817162,-0.7582852246558387,-0.6484089465795327,"(1.6384, 0.0, 0.0, 0.0, 0.0, 0.0, 0.0, 1.6384, 0.0, 0.0, 0.0, 0.0, 0.0, 0.0, 3.118756, 0.0, 0.0, 0.0, 0.0, 0.0, 0.0, 99999.0, 0.0, 0.0, 0.0, 0.0, 0.0, 0.0, 99999.0, 0.0, 0.0, 0.0, 0.0, 0.0, 0.0, 99999.0)",-0.09,0.17,0.02,0.0,0.0,0.0,"(-1.0, 0.0, 0.0, 0.0, 0.0, 0.0, 0.0, 0.0, 0.0, 0.0, 0.0, 0.0, 0.0, 0.0, 0.0, 0.0, 0.0, 0.0, 0.0, 0.0, 0.0, 0.0, 0.0, 0.0, 0.0, 0.0, 0.0, 0.0, 0.0, 0.0, 0.0, 0.0, 0.0, 0.0, 0.0, 0.0)"
2025/07/05/17:44:15.782363,7284,1751712255,778704960,map,base_link,-1.413468715390179,4.655968435094072,-3.779,0.044193681258559825,-0.0504795417129311,-0.7562073561672724,-0.6508833757930627,"(1.6384, 0.0, 0.0, 0.0, 0.0, 0.0, 0.0, 1.6384, 0.0, 0.0, 0.0, 0.0, 0.0, 0.0, 3.118756, 0.0, 0.0, 0.0, 0.0, 0.0, 0.0, 99999.0, 0.0, 0.0, 0.0, 0.0, 0.0, 0.0, 99999.0, 0.0, 0.0, 0.0, 0.0, 0.0, 0.0, 99999.0)",-0.11,0.22,0.02,0.0,0.0,0.0,"(-1.0, 0.0, 0.0, 0.0, 0.0, 0.0, 0.0, 0.0, 0.0, 0.0, 0.0, 0.0, 0.0, 0.0, 0.0, 0.0, 0.0, 0.0, 0.0, 0.0, 0.0, 0.0, 0.0, 0.0, 0.0, 0.0, 0.0, 0.0, 0.0, 0.0, 0.0, 0.0, 0.0, 0.0, 0.0, 0.0)"
2025/07/05/17:44:15.903578,7285,1751712255,899712640,map,base_link,-1.424511439501539,4.6891463499685635,-3.784,0.04029913959232719,-0.05430399207686765,-0.7527085021625084,-0.654871717640109,"(1.633284, 0.0, 0.0, 0.0, 0.0, 0.0, 0.0, 1.633284, 0.0, 0.0, 0.0, 0.0, 0.0, 0.0, 3.1152249999999997, 0.0, 0.0, 0.0, 0.0, 0.0, 0.0, 99999.0, 0.0, 0.0, 0.0, 0.0, 0.0, 0.0, 99999.0, 0.0, 0.0, 0.0, 0.0, 0.0, 0.0, 99999.0)",-0.13,0.25,0.01,0.0,0.0,0.0,"(-1.0, 0.0, 0.0, 0.0, 0.0, 0.0, 0.0, 0.0, 0.0, 0.0, 0.0, 0.0, 0.0, 0.0, 0.0, 0.0, 0.0, 0.0, 0.0, 0.0, 0.0, 0.0, 0.0, 0.0, 0.0, 0.0, 0.0, 0.0, 0.0, 0.0, 0.0, 0.0, 0.0, 0.0, 0.0, 0.0)"
2025/07/05/17:44:16.004077,7286,1751712256,718272,map,base_link,-1.4465968888485938,4.711264964378529,-3.788,0.039393038229074875,-0.055970436031709175,-0.7494157638961221,-0.6585525883735442,"(1.633284, 0.0, 0.0, 0.0, 0.0, 0.0, 0.0, 1.633284, 0.0, 0.0, 0.0, 0.0, 0.0, 0.0, 3.1152249999999997, 0.0, 0.0, 0.0, 0.0, 0.0, 0.0, 99999.0, 0.0, 0.0, 0.0, 0.0, 0.0, 0.0, 99999.0, 0.0, 0.0, 0.0, 0.0, 0.0, 0.0, 99999.0)",-0.12,0.25,0.01,0.0,0.0,0.0,"(-1.0, 0.0, 0.0, 0.0, 0.0, 0.0, 0.0, 0.0, 0.0, 0.0, 0.0, 0.0, 0.0, 0.0, 0.0, 0.0, 0.0, 0.0, 0.0, 0.0, 0.0, 0.0, 0.0, 0.0, 0.0, 0.0, 0.0, 0.0, 0.0, 0.0, 0.0, 0.0, 0.0, 0.0, 0.0, 0.0)"
2025/07/05/17:44:16.083637,7287,1751712256,78725440,map,base_link,-1.457639610681332,4.733383571556078,-3.792,0.04066918226293289,-0.055970852071551204,-0.746507655217563,-0.6617700522341765,"(1.6205289999999997, 0.0, 0.0, 0.0, 0.0, 0.0, 0.0, 1.6205289999999997, 0.0, 0.0, 0.0, 0.0, 0.0, 0.0, 3.0800249999999996, 0.0, 0.0, 0.0, 0.0, 0.0, 0.0, 99999.0, 0.0, 0.0, 0.0, 0.0, 0.0, 0.0, 99999.0, 0.0, 0.0, 0.0, 0.0, 0.0, 0.0, 99999.0)",-0.12,0.26,0.01,0.0,0.0,0.0,"(-1.0, 0.0, 0.0, 0.0, 0.0, 0.0, 0.0, 0.0, 0.0, 0.0, 0.0, 0.0, 0.0, 0.0, 0.0, 0.0, 0.0, 0.0, 0.0, 0.0, 0.0, 0.0, 0.0, 0.0, 0.0, 0.0, 0.0, 0.0, 0.0, 0.0, 0.0, 0.0, 0.0, 0.0, 0.0, 0.0)"
2025/07/05/17:44:16.182570,7288,1751712256,178732864,map,base_link,-1.4686823372679227,4.766561493327029,-3.795,0.04312938901744654,-0.05442575116964298,-0.7428367929584374,-0.6658612411304817,"(1.6205289999999997, 0.0, 0.0, 0.0, 0.0, 0.0, 0.0, 1.6205289999999997, 0.0, 0.0, 0.0, 0.0, 0.0, 0.0, 3.0800249999999996, 0.0, 0.0, 0.0, 0.0, 0.0, 0.0, 99999.0, 0.0, 0.0, 0.0, 0.0, 0.0, 0.0, 99999.0, 0.0, 0.0, 0.0, 0.0, 0.0, 0.0, 99999.0)",-0.12,0.26,0.02,0.0,0.0,0.0,"(-1.0, 0.0, 0.0, 0.0, 0.0, 0.0, 0.0, 0.0, 0.0, 0.0, 0.0, 0.0, 0.0, 0.0, 0.0, 0.0, 0.0, 0.0, 0.0, 0.0, 0.0, 0.0, 0.0, 0.0, 0.0, 0.0, 0.0, 0.0, 0.0, 0.0, 0.0, 0.0, 0.0, 0.0, 0.0, 0.0)"
2025/07/05/17:44:16.262388,7289,1751712256,258740544,map,base_link,-1.479725061215051,4.788680107984985,-3.795,0.04441788020136558,-0.05290250169767563,-0.7399190118907246,-0.6691399204017036,"(1.6078240000000001, 0.0, 0.0, 0.0, 0.0, 0.0, 0.0, 1.6078240000000001, 0.0, 0.0, 0.0, 0.0, 0.0, 0.0, 3.0450250000000003, 0.0, 0.0, 0.0, 0.0, 0.0, 0.0, 99999.0, 0.0, 0.0, 0.0, 0.0, 0.0, 0.0, 99999.0, 0.0, 0.0, 0.0, 0.0, 0.0, 0.0, 99999.0)",-0.12,0.27,0.02,0.0,0.0,0.0,"(-1.0, 0.0, 0.0, 0.0, 0.0, 0.0, 0.0, 0.0, 0.0, 0.0, 0.0, 0.0, 0.0, 0.0, 0.0, 0.0, 0.0, 0.0, 0.0, 0.0, 0.0, 0.0, 0.0, 0.0, 0.0, 0.0, 0.0, 0.0, 0.0, 0.0, 0.0, 0.0, 0.0, 0.0, 0.0, 0.0)"
2025/07/05/17:44:16.362941,7290,1751712256,359746688,map,base_link,-1.490767785952309,4.8107987227289595,-3.795,0.045084092932613506,-0.05160285125955123,-0.7364057995983079,-0.6730609694703034,"(1.6078240000000001, 0.0, 0.0, 0.0, 0.0, 0.0, 0.0, 1.6078240000000001, 0.0, 0.0, 0.0, 0.0, 0.0, 0.0, 3.0450250000000003, 0.0, 0.0, 0.0, 0.0, 0.0, 0.0, 99999.0, 0.0, 0.0, 0.0, 0.0, 0.0, 0.0, 99999.0, 0.0, 0.0, 0.0, 0.0, 0.0, 0.0, 99999.0)",-0.11,0.27,0.02,0.0,0.0,0.0,"(-1.0, 0.0, 0.0, 0.0, 0.0, 0.0, 0.0, 0.0, 0.0, 0.0, 0.0, 0.0, 0.0, 0.0, 0.0, 0.0, 0.0, 0.0, 0.0, 0.0, 0.0, 0.0, 0.0, 0.0, 0.0, 0.0, 0.0, 0.0, 0.0, 0.0, 0.0, 0.0, 0.0, 0.0, 0.0, 0.0)"
2025/07/05/17:44:16.543096,7291,1751712256,538753600,map,base_link,-1.5018105126663606,4.866095259462419,-3.793,0.04475959654167094,-0.05186092590997548,-0.7309429591118669,-0.6789914678447548,"(1.6078240000000001, 0.0, 0.0, 0.0, 0.0, 0.0, 0.0, 1.6078240000000001, 0.0, 0.0, 0.0, 0.0, 0.0, 0.0, 3.0450250000000003, 0.0, 0.0, 0.0, 0.0, 0.0, 0.0, 99999.0, 0.0, 0.0, 0.0, 0.0, 0.0, 0.0, 99999.0, 0.0, 0.0, 0.0, 0.0, 0.0, 0.0, 99999.0)",-0.1,0.25,0.02,0.0,0.0,0.0,"(-1.0, 0.0, 0.0, 0.0, 0.0, 0.0, 0.0, 0.0, 0.0, 0.0, 0.0, 0.0, 0.0, 0.0, 0.0, 0.0, 0.0, 0.0, 0.0, 0.0, 0.0, 0.0, 0.0, 0.0, 0.0, 0.0, 0.0, 0.0, 0.0, 0.0, 0.0, 0.0, 0.0, 0.0, 0.0, 0.0)"
2025/07/05/17:44:16.626176,7292,1751712256,622759744,map,base_link,-1.512853237111225,4.888213873965702,-3.792,0.04415534091927906,-0.052814946180575285,-0.7288199451725947,-0.6812359171732366,"(1.602756, 0.0, 0.0, 0.0, 0.0, 0.0, 0.0, 1.602756, 0.0, 0.0, 0.0, 0.0, 0.0, 0.0, 3.0450250000000003, 0.0, 0.0, 0.0, 0.0, 0.0, 0.0, 99999.0, 0.0, 0.0, 0.0, 0.0, 0.0, 0.0, 99999.0, 0.0, 0.0, 0.0, 0.0, 0.0, 0.0, 99999.0)",-0.1,0.24,0.03,0.0,0.0,0.0,"(-1.0, 0.0, 0.0, 0.0, 0.0, 0.0, 0.0, 0.0, 0.0, 0.0, 0.0, 0.0, 0.0, 0.0, 0.0, 0.0, 0.0, 0.0, 0.0, 0.0, 0.0, 0.0, 0.0, 0.0, 0.0, 0.0, 0.0, 0.0, 0.0, 0.0, 0.0, 0.0, 0.0, 0.0, 0.0, 0.0)"
2025/07/05/17:44:16.704349,7293,1751712256,699767680,map,base_link,-1.5238959630679016,4.91033248877281,-3.791,0.04225422033923621,-0.0535165567933917,-0.7269766909233825,-0.6832682122465465,"(1.6002249999999998, 0.0, 0.0, 0.0, 0.0, 0.0, 0.0, 1.6002249999999998, 0.0, 0.0, 0.0, 0.0, 0.0, 0.0, 3.048516, 0.0, 0.0, 0.0, 0.0, 0.0, 0.0, 99999.0, 0.0, 0.0, 0.0, 0.0, 0.0, 0.0, 99999.0, 0.0, 0.0, 0.0, 0.0, 0.0, 0.0, 99999.0)",-0.09,0.3,0.02,0.0,0.0,0.0,"(-1.0, 0.0, 0.0, 0.0, 0.0, 0.0, 0.0, 0.0, 0.0, 0.0, 0.0, 0.0, 0.0, 0.0, 0.0, 0.0, 0.0, 0.0, 0.0, 0.0, 0.0, 0.0, 0.0, 0.0, 0.0, 0.0, 0.0, 0.0, 0.0, 0.0, 0.0, 0.0, 0.0, 0.0, 0.0, 0.0)"
2025/07/05/17:44:16.805378,7294,1751712256,800775872,map,base_link,-1.5349386879373377,4.94351041086625,-3.79,0.038163254561833435,-0.055629595841602514,-0.7239772437106203,-0.6865171990976788,"(1.6002249999999998, 0.0, 0.0, 0.0, 0.0, 0.0, 0.0, 1.6002249999999998, 0.0, 0.0, 0.0, 0.0, 0.0, 0.0, 3.048516, 0.0, 0.0, 0.0, 0.0, 0.0, 0.0, 99999.0, 0.0, 0.0, 0.0, 0.0, 0.0, 0.0, 99999.0, 0.0, 0.0, 0.0, 0.0, 0.0, 0.0, 99999.0)",-0.12,0.33,0.02,0.0,0.0,0.0,"(-1.0, 0.0, 0.0, 0.0, 0.0, 0.0, 0.0, 0.0, 0.0, 0.0, 0.0, 0.0, 0.0, 0.0, 0.0, 0.0, 0.0, 0.0, 0.0, 0.0, 0.0, 0.0, 0.0, 0.0, 0.0, 0.0, 0.0, 0.0, 0.0, 0.0, 0.0, 0.0, 0.0, 0.0, 0.0, 0.0)"
2025/07/05/17:44:16.883127,7295,1751712256,878782528,map,base_link,-1.5459814128752214,4.976688332596953,-3.792,0.03544596349830686,-0.057474749020685834,-0.720982327216172,-0.6896555087423276,"(1.5951689999999998, 0.0, 0.0, 0.0, 0.0, 0.0, 0.0, 1.5951689999999998, 0.0, 0.0, 0.0, 0.0, 0.0, 0.0, 3.048516, 0.0, 0.0, 0.0, 0.0, 0.0, 0.0, 99999.0, 0.0, 0.0, 0.0, 0.0, 0.0, 0.0, 99999.0, 0.0, 0.0, 0.0, 0.0, 0.0, 0.0, 99999.0)",-0.12,0.36,0.02,0.0,0.0,0.0,"(-1.0, 0.0, 0.0, 0.0, 0.0, 0.0, 0.0, 0.0, 0.0, 0.0, 0.0, 0.0, 0.0, 0.0, 0.0, 0.0, 0.0, 0.0, 0.0, 0.0, 0.0, 0.0, 0.0, 0.0, 0.0, 0.0, 0.0, 0.0, 0.0, 0.0, 0.0, 0.0, 0.0, 0.0, 0.0, 0.0)"
2025/07/05/17:44:17.025966,7296,1751712257,21787904,map,base_link,-1.5570241404431333,5.043044177013161,-3.798,0.03367732489338984,-0.05822729636326814,-0.7143346908789951,-0.6965639734820196,"(1.5951689999999998, 0.0, 0.0, 0.0, 0.0, 0.0, 0.0, 1.5951689999999998, 0.0, 0.0, 0.0, 0.0, 0.0, 0.0, 3.048516, 0.0, 0.0, 0.0, 0.0, 0.0, 0.0, 99999.0, 0.0, 0.0, 0.0, 0.0, 0.0, 0.0, 99999.0, 0.0, 0.0, 0.0, 0.0, 0.0, 0.0, 99999.0)",-0.13,0.44,0.02,0.0,0.0,0.0,"(-1.0, 0.0, 0.0, 0.0, 0.0, 0.0, 0.0, 0.0, 0.0, 0.0, 0.0, 0.0, 0.0, 0.0, 0.0, 0.0, 0.0, 0.0, 0.0, 0.0, 0.0, 0.0, 0.0, 0.0, 0.0, 0.0, 0.0, 0.0, 0.0, 0.0, 0.0, 0.0, 0.0, 0.0, 0.0, 0.0)"
2025/07/05/17:44:17.123940,7297,1751712257,119794048,map,base_link,-1.568066862608675,5.087281398411428,-3.803,0.03492195414057575,-0.05712386449188477,-0.7086237371020092,-0.7024028192142305,"(1.5951689999999998, 0.0, 0.0, 0.0, 0.0, 0.0, 0.0, 1.5951689999999998, 0.0, 0.0, 0.0, 0.0, 0.0, 0.0, 3.048516, 0.0, 0.0, 0.0, 0.0, 0.0, 0.0, 99999.0, 0.0, 0.0, 0.0, 0.0, 0.0, 0.0, 99999.0, 0.0, 0.0, 0.0, 0.0, 0.0, 0.0, 99999.0)",-0.14,0.47,0.01,0.0,0.0,0.0,"(-1.0, 0.0, 0.0, 0.0, 0.0, 0.0, 0.0, 0.0, 0.0, 0.0, 0.0, 0.0, 0.0, 0.0, 0.0, 0.0, 0.0, 0.0, 0.0, 0.0, 0.0, 0.0, 0.0, 0.0, 0.0, 0.0, 0.0, 0.0, 0.0, 0.0, 0.0, 0.0, 0.0, 0.0, 0.0, 0.0)"
2025/07/05/17:44:17.203545,7298,1751712257,200801728,map,base_link,-1.5791095893958915,5.1315186279774325,-3.807,0.03731612960904918,-0.05528822998617307,-0.7038436490171371,-0.7072162581800828,"(1.5951689999999998, 0.0, 0.0, 0.0, 0.0, 0.0, 0.0, 1.5951689999999998, 0.0, 0.0, 0.0, 0.0, 0.0, 0.0, 3.048516, 0.0, 0.0, 0.0, 0.0, 0.0, 0.0, 99999.0, 0.0, 0.0, 0.0, 0.0, 0.0, 0.0, 99999.0, 0.0, 0.0, 0.0, 0.0, 0.0, 0.0, 99999.0)",-0.11,0.5,0.03,0.0,0.0,0.0,"(-1.0, 0.0, 0.0, 0.0, 0.0, 0.0, 0.0, 0.0, 0.0, 0.0, 0.0, 0.0, 0.0, 0.0, 0.0, 0.0, 0.0, 0.0, 0.0, 0.0, 0.0, 0.0, 0.0, 0.0, 0.0, 0.0, 0.0, 0.0, 0.0, 0.0, 0.0, 0.0, 0.0, 0.0, 0.0, 0.0)"
2025/07/05/17:44:17.283830,7299,1751712257,278808896,map,base_link,-1.590152312351563,5.175755848999819,-3.81,0.03954587734572168,-0.05358290336736995,-0.6989222045020814,-0.7120904072557297,"(1.5951689999999998, 0.0, 0.0, 0.0, 0.0, 0.0, 0.0, 1.5951689999999998, 0.0, 0.0, 0.0, 0.0, 0.0, 0.0, 3.034564, 0.0, 0.0, 0.0, 0.0, 0.0, 0.0, 99999.0, 0.0, 0.0, 0.0, 0.0, 0.0, 0.0, 99999.0, 0.0, 0.0, 0.0, 0.0, 0.0, 0.0, 99999.0)",-0.13,0.52,0.02,0.0,0.0,0.0,"(-1.0, 0.0, 0.0, 0.0, 0.0, 0.0, 0.0, 0.0, 0.0, 0.0, 0.0, 0.0, 0.0, 0.0, 0.0, 0.0, 0.0, 0.0, 0.0, 0.0, 0.0, 0.0, 0.0, 0.0, 0.0, 0.0, 0.0, 0.0, 0.0, 0.0, 0.0, 0.0, 0.0, 0.0, 0.0, 0.0)"
2025/07/05/17:44:17.426263,7300,1751712257,422813760,map,base_link,-1.6122377638480005,5.264230307652563,-3.814,0.04198424875221405,-0.052997172341114764,-0.6896656659438352,-0.7209645565482431,"(1.5951689999999998, 0.0, 0.0, 0.0, 0.0, 0.0, 0.0, 1.5951689999999998, 0.0, 0.0, 0.0, 0.0, 0.0, 0.0, 3.034564, 0.0, 0.0, 0.0, 0.0, 0.0, 0.0, 99999.0, 0.0, 0.0, 0.0, 0.0, 0.0, 0.0, 99999.0, 0.0, 0.0, 0.0, 0.0, 0.0, 0.0, 99999.0)",-0.12,0.54,0.02,0.0,0.0,0.0,"(-1.0, 0.0, 0.0, 0.0, 0.0, 0.0, 0.0, 0.0, 0.0, 0.0, 0.0, 0.0, 0.0, 0.0, 0.0, 0.0, 0.0, 0.0, 0.0, 0.0, 0.0, 0.0, 0.0, 0.0, 0.0, 0.0, 0.0, 0.0, 0.0, 0.0, 0.0, 0.0, 0.0, 0.0, 0.0, 0.0)"
2025/07/05/17:44:17.582464,7301,1751712257,578826816,map,base_link,-1.6343232162714636,5.352704766358698,-3.811,0.0412246673093173,-0.05455887309213807,-0.6790444286462469,-0.730905274366415,"(1.5951689999999998, 0.0, 0.0, 0.0, 0.0, 0.0, 0.0, 1.5951689999999998, 0.0, 0.0, 0.0, 0.0, 0.0, 0.0, 3.0276, 0.0, 0.0, 0.0, 0.0, 0.0, 0.0, 99999.0, 0.0, 0.0, 0.0, 0.0, 0.0, 0.0, 99999.0, 0.0, 0.0, 0.0, 0.0, 0.0, 0.0, 99999.0)",-0.11,0.56,0.02,0.0,0.0,0.0,"(-1.0, 0.0, 0.0, 0.0, 0.0, 0.0, 0.0, 0.0, 0.0, 0.0, 0.0, 0.0, 0.0, 0.0, 0.0, 0.0, 0.0, 0.0, 0.0, 0.0, 0.0, 0.0, 0.0, 0.0, 0.0, 0.0, 0.0, 0.0, 0.0, 0.0, 0.0, 0.0, 0.0, 0.0, 0.0, 0.0)"
2025/07/05/17:44:17.663663,7302,1751712257,659833728,map,base_link,-1.645365944446671,5.408001311493194,-3.809,0.04044295071751373,-0.05505239175158306,-0.6740474288045281,-0.735522715911409,"(1.592644, 0.0, 0.0, 0.0, 0.0, 0.0, 0.0, 1.592644, 0.0, 0.0, 0.0, 0.0, 0.0, 0.0, 3.0380490000000004, 0.0, 0.0, 0.0, 0.0, 0.0, 0.0, 99999.0, 0.0, 0.0, 0.0, 0.0, 0.0, 0.0, 99999.0, 0.0, 0.0, 0.0, 0.0, 0.0, 0.0, 99999.0)",-0.11,0.57,0.02,0.0,0.0,0.0,"(-1.0, 0.0, 0.0, 0.0, 0.0, 0.0, 0.0, 0.0, 0.0, 0.0, 0.0, 0.0, 0.0, 0.0, 0.0, 0.0, 0.0, 0.0, 0.0, 0.0, 0.0, 0.0, 0.0, 0.0, 0.0, 0.0, 0.0, 0.0, 0.0, 0.0, 0.0, 0.0, 0.0, 0.0, 0.0, 0.0)"
2025/07/05/17:44:17.762856,7303,1751712257,758841920,map,base_link,-1.66745139489334,5.4632978477479455,-3.807,0.039085598011250985,-0.05614580663102915,-0.6677787189617088,-0.7412095162150262,"(1.592644, 0.0, 0.0, 0.0, 0.0, 0.0, 0.0, 1.592644, 0.0, 0.0, 0.0, 0.0, 0.0, 0.0, 3.0380490000000004, 0.0, 0.0, 0.0, 0.0, 0.0, 0.0, 99999.0, 0.0, 0.0, 0.0, 0.0, 0.0, 0.0, 99999.0, 0.0, 0.0, 0.0, 0.0, 0.0, 0.0, 99999.0)",-0.1,0.56,0.01,0.0,0.0,0.0,"(-1.0, 0.0, 0.0, 0.0, 0.0, 0.0, 0.0, 0.0, 0.0, 0.0, 0.0, 0.0, 0.0, 0.0, 0.0, 0.0, 0.0, 0.0, 0.0, 0.0, 0.0, 0.0, 0.0, 0.0, 0.0, 0.0, 0.0, 0.0, 0.0, 0.0, 0.0, 0.0, 0.0, 0.0, 0.0, 0.0)"
2025/07/05/17:44:17.862864,7304,1751712257,859847808,map,base_link,-1.6784941211547832,5.529653692042339,-3.805,0.03853453674727755,-0.05696565932184178,-0.6623793413467154,-0.7460051013852332,"(1.592644, 0.0, 0.0, 0.0, 0.0, 0.0, 0.0, 1.592644, 0.0, 0.0, 0.0, 0.0, 0.0, 0.0, 3.0380490000000004, 0.0, 0.0, 0.0, 0.0, 0.0, 0.0, 99999.0, 0.0, 0.0, 0.0, 0.0, 0.0, 0.0, 99999.0, 0.0, 0.0, 0.0, 0.0, 0.0, 0.0, 99999.0)",-0.09,0.55,0.01,0.0,0.0,0.0,"(-1.0, 0.0, 0.0, 0.0, 0.0, 0.0, 0.0, 0.0, 0.0, 0.0, 0.0, 0.0, 0.0, 0.0, 0.0, 0.0, 0.0, 0.0, 0.0, 0.0, 0.0, 0.0, 0.0, 0.0, 0.0, 0.0, 0.0, 0.0, 0.0, 0.0, 0.0, 0.0, 0.0, 0.0, 0.0, 0.0)"
2025/07/05/17:44:17.983992,7305,1751712257,978852928,map,base_link,-1.6895368489731661,5.6070688435849165,-3.803,0.038176845583163185,-0.05801534878135767,-0.6569623524175099,-0.7507178000241824,"(1.5901209999999997, 0.0, 0.0, 0.0, 0.0, 0.0, 0.0, 1.5901209999999997, 0.0, 0.0, 0.0, 0.0, 0.0, 0.0, 3.041536, 0.0, 0.0, 0.0, 0.0, 0.0, 0.0, 99999.0, 0.0, 0.0, 0.0, 0.0, 0.0, 0.0, 99999.0, 0.0, 0.0, 0.0, 0.0, 0.0, 0.0, 99999.0)",-0.07,0.53,0.01,0.0,0.0,0.0,"(-1.0, 0.0, 0.0, 0.0, 0.0, 0.0, 0.0, 0.0, 0.0, 0.0, 0.0, 0.0, 0.0, 0.0, 0.0, 0.0, 0.0, 0.0, 0.0, 0.0, 0.0, 0.0, 0.0, 0.0, 0.0, 0.0, 0.0, 0.0, 0.0, 0.0, 0.0, 0.0, 0.0, 0.0, 0.0, 0.0)"
2025/07/05/17:44:18.062626,7306,1751712258,58858048,map,base_link,-1.7005795741848404,5.640246765481315,-3.801,0.03809860552031786,-0.058609413894264537,-0.6538128649719603,-0.7534203146036978,"(1.5800489999999998, 0.0, 0.0, 0.0, 0.0, 0.0, 0.0, 1.5800489999999998, 0.0, 0.0, 0.0, 0.0, 0.0, 0.0, 3.0380490000000004, 0.0, 0.0, 0.0, 0.0, 0.0, 0.0, 99999.0, 0.0, 0.0, 0.0, 0.0, 0.0, 0.0, 99999.0, 0.0, 0.0, 0.0, 0.0, 0.0, 0.0, 99999.0)",-0.07,0.52,0.01,0.0,0.0,0.0,"(-1.0, 0.0, 0.0, 0.0, 0.0, 0.0, 0.0, 0.0, 0.0, 0.0, 0.0, 0.0, 0.0, 0.0, 0.0, 0.0, 0.0, 0.0, 0.0, 0.0, 0.0, 0.0, 0.0, 0.0, 0.0, 0.0, 0.0, 0.0, 0.0, 0.0, 0.0, 0.0, 0.0, 0.0, 0.0, 0.0)"
2025/07/05/17:44:18.162880,7307,1751712258,159863936,map,base_link,-1.7116223035841842,5.684484003874228,-3.797,0.038022242005216686,-0.05902330116746182,-0.6500181988680523,-0.756668289392733,"(1.5800489999999998, 0.0, 0.0, 0.0, 0.0, 0.0, 0.0, 1.5800489999999998, 0.0, 0.0, 0.0, 0.0, 0.0, 0.0, 3.0380490000000004, 0.0, 0.0, 0.0, 0.0, 0.0, 0.0, 99999.0, 0.0, 0.0, 0.0, 0.0, 0.0, 0.0, 99999.0, 0.0, 0.0, 0.0, 0.0, 0.0, 0.0, 99999.0)",-0.07,0.5,0.01,0.0,0.0,0.0,"(-1.0, 0.0, 0.0, 0.0, 0.0, 0.0, 0.0, 0.0, 0.0, 0.0, 0.0, 0.0, 0.0, 0.0, 0.0, 0.0, 0.0, 0.0, 0.0, 0.0, 0.0, 0.0, 0.0, 0.0, 0.0, 0.0, 0.0, 0.0, 0.0, 0.0, 0.0, 0.0, 0.0, 0.0, 0.0, 0.0)"
2025/07/05/17:44:18.242502,7308,1751712258,238863936,map,base_link,-1.7226650289964847,5.72872123310378,-3.794,0.038021420959146,-0.05896466033960525,-0.6469847619101374,-0.7592682386583578,"(1.5800489999999998, 0.0, 0.0, 0.0, 0.0, 0.0, 0.0, 1.5800489999999998, 0.0, 0.0, 0.0, 0.0, 0.0, 0.0, 3.0380490000000004, 0.0, 0.0, 0.0, 0.0, 0.0, 0.0, 99999.0, 0.0, 0.0, 0.0, 0.0, 0.0, 0.0, 99999.0, 0.0, 0.0, 0.0, 0.0, 0.0, 0.0, 99999.0)",-0.07,0.49,0.01,0.0,0.0,0.0,"(-1.0, 0.0, 0.0, 0.0, 0.0, 0.0, 0.0, 0.0, 0.0, 0.0, 0.0, 0.0, 0.0, 0.0, 0.0, 0.0, 0.0, 0.0, 0.0, 0.0, 0.0, 0.0, 0.0, 0.0, 0.0, 0.0, 0.0, 0.0, 0.0, 0.0, 0.0, 0.0, 0.0, 0.0, 0.0, 0.0)"
2025/07/05/17:44:18.341968,7309,1751712258,338870592,map,base_link,-1.7447504801695528,5.772958462194246,-3.792,0.03814673846185478,-0.05848933308156394,-0.6430640981087586,-0.7626220492379994,"(1.577536, 0.0, 0.0, 0.0, 0.0, 0.0, 0.0, 1.577536, 0.0, 0.0, 0.0, 0.0, 0.0, 0.0, 3.048516, 0.0, 0.0, 0.0, 0.0, 0.0, 0.0, 99999.0, 0.0, 0.0, 0.0, 0.0, 0.0, 0.0, 99999.0, 0.0, 0.0, 0.0, 0.0, 0.0, 0.0, 99999.0)",-0.08,0.47,0.01,0.0,0.0,0.0,"(-1.0, 0.0, 0.0, 0.0, 0.0, 0.0, 0.0, 0.0, 0.0, 0.0, 0.0, 0.0, 0.0, 0.0, 0.0, 0.0, 0.0, 0.0, 0.0, 0.0, 0.0, 0.0, 0.0, 0.0, 0.0, 0.0, 0.0, 0.0, 0.0, 0.0, 0.0, 0.0, 0.0, 0.0, 0.0, 0.0)"
2025/07/05/17:44:18.503839,7310,1751712258,499883904,map,base_link,-1.7668359347852882,5.839314315332415,-3.788,0.037909937186945374,-0.05788734625546929,-0.6363353720633892,-0.7683027958213671,"(1.577536, 0.0, 0.0, 0.0, 0.0, 0.0, 0.0, 1.577536, 0.0, 0.0, 0.0, 0.0, 0.0, 0.0, 3.048516, 0.0, 0.0, 0.0, 0.0, 0.0, 0.0, 99999.0, 0.0, 0.0, 0.0, 0.0, 0.0, 0.0, 99999.0, 0.0, 0.0, 0.0, 0.0, 0.0, 0.0, 99999.0)",-0.08,0.46,0.01,0.0,0.0,0.0,"(-1.0, 0.0, 0.0, 0.0, 0.0, 0.0, 0.0, 0.0, 0.0, 0.0, 0.0, 0.0, 0.0, 0.0, 0.0, 0.0, 0.0, 0.0, 0.0, 0.0, 0.0, 0.0, 0.0, 0.0, 0.0, 0.0, 0.0, 0.0, 0.0, 0.0, 0.0, 0.0, 0.0, 0.0, 0.0, 0.0)"
2025/07/05/17:44:18.628386,7311,1751712258,622889792,map,base_link,-1.7778786607590558,5.894610852350448,-3.782,0.03740049481361245,-0.05767250748585788,-0.6312646044974232,-0.77251542636811,"(1.577536, 0.0, 0.0, 0.0, 0.0, 0.0, 0.0, 1.577536, 0.0, 0.0, 0.0, 0.0, 0.0, 0.0, 3.055504, 0.0, 0.0, 0.0, 0.0, 0.0, 0.0, 99999.0, 0.0, 0.0, 0.0, 0.0, 0.0, 0.0, 99999.0, 0.0, 0.0, 0.0, 0.0, 0.0, 0.0, 99999.0)",-0.08,0.44,0.01,0.0,0.0,0.0,"(-1.0, 0.0, 0.0, 0.0, 0.0, 0.0, 0.0, 0.0, 0.0, 0.0, 0.0, 0.0, 0.0, 0.0, 0.0, 0.0, 0.0, 0.0, 0.0, 0.0, 0.0, 0.0, 0.0, 0.0, 0.0, 0.0, 0.0, 0.0, 0.0, 0.0, 0.0, 0.0, 0.0, 0.0, 0.0, 0.0)"
2025/07/05/17:44:18.704695,7312,1751712258,699897984,map,base_link,-1.7778786645578464,5.927788784120099,-3.778,0.036825449566167484,-0.05749320098890531,-0.6281022153993591,-0.7751296827723191,"(1.5800489999999998, 0.0, 0.0, 0.0, 0.0, 0.0, 0.0, 1.5800489999999998, 0.0, 0.0, 0.0, 0.0, 0.0, 0.0, 3.0625, 0.0, 0.0, 0.0, 0.0, 0.0, 0.0, 99999.0, 0.0, 0.0, 0.0, 0.0, 0.0, 0.0, 99999.0, 0.0, 0.0, 0.0, 0.0, 0.0, 0.0, 99999.0)",-0.08,0.43,0.01,0.0,0.0,0.0,"(-1.0, 0.0, 0.0, 0.0, 0.0, 0.0, 0.0, 0.0, 0.0, 0.0, 0.0, 0.0, 0.0, 0.0, 0.0, 0.0, 0.0, 0.0, 0.0, 0.0, 0.0, 0.0, 0.0, 0.0, 0.0, 0.0, 0.0, 0.0, 0.0, 0.0, 0.0, 0.0, 0.0, 0.0, 0.0, 0.0)"
2025/07/05/17:44:18.784258,7313,1751712258,778904384,map,base_link,-1.777878665520565,5.960966706343936,-3.773,0.0361863195042559,-0.05729168711126923,-0.6253034093199055,-0.7774341510131793,"(1.5800489999999998, 0.0, 0.0, 0.0, 0.0, 0.0, 0.0, 1.5800489999999998, 0.0, 0.0, 0.0, 0.0, 0.0, 0.0, 3.0625, 0.0, 0.0, 0.0, 0.0, 0.0, 0.0, 99999.0, 0.0, 0.0, 0.0, 0.0, 0.0, 0.0, 99999.0, 0.0, 0.0, 0.0, 0.0, 0.0, 0.0, 99999.0)",-0.07,0.42,0.01,0.0,0.0,0.0,"(-1.0, 0.0, 0.0, 0.0, 0.0, 0.0, 0.0, 0.0, 0.0, 0.0, 0.0, 0.0, 0.0, 0.0, 0.0, 0.0, 0.0, 0.0, 0.0, 0.0, 0.0, 0.0, 0.0, 0.0, 0.0, 0.0, 0.0, 0.0, 0.0, 0.0, 0.0, 0.0, 0.0, 0.0, 0.0, 0.0)"
2025/07/05/17:44:18.862419,7314,1751712258,858910272,map,base_link,-1.7889213921570013,5.99414462848548,-3.772,0.03555605852690639,-0.05718211173098219,-0.6230367316182863,-0.7792889091052305,"(1.5800489999999998, 0.0, 0.0, 0.0, 0.0, 0.0, 0.0, 1.5800489999999998, 0.0, 0.0, 0.0, 0.0, 0.0, 0.0, 3.076516, 0.0, 0.0, 0.0, 0.0, 0.0, 0.0, 99999.0, 0.0, 0.0, 0.0, 0.0, 0.0, 0.0, 99999.0, 0.0, 0.0, 0.0, 0.0, 0.0, 0.0, 99999.0)",-0.06,0.41,0.01,0.0,0.0,0.0,"(-1.0, 0.0, 0.0, 0.0, 0.0, 0.0, 0.0, 0.0, 0.0, 0.0, 0.0, 0.0, 0.0, 0.0, 0.0, 0.0, 0.0, 0.0, 0.0, 0.0, 0.0, 0.0, 0.0, 0.0, 0.0, 0.0, 0.0, 0.0, 0.0, 0.0, 0.0, 0.0, 0.0, 0.0, 0.0, 0.0)"
2025/07/05/17:44:18.982474,7315,1751712258,978916672,map,base_link,-1.7889213936811865,6.038381858497798,-3.771,0.034377725378201496,-0.05799594951237159,-0.6203214123414984,-0.7814448075383368,"(1.5800489999999998, 0.0, 0.0, 0.0, 0.0, 0.0, 0.0, 1.5800489999999998, 0.0, 0.0, 0.0, 0.0, 0.0, 0.0, 3.076516, 0.0, 0.0, 0.0, 0.0, 0.0, 0.0, 99999.0, 0.0, 0.0, 0.0, 0.0, 0.0, 0.0, 99999.0, 0.0, 0.0, 0.0, 0.0, 0.0, 0.0, 99999.0)",-0.05,0.4,0.01,0.0,0.0,0.0,"(-1.0, 0.0, 0.0, 0.0, 0.0, 0.0, 0.0, 0.0, 0.0, 0.0, 0.0, 0.0, 0.0, 0.0, 0.0, 0.0, 0.0, 0.0, 0.0, 0.0, 0.0, 0.0, 0.0, 0.0, 0.0, 0.0, 0.0, 0.0, 0.0, 0.0, 0.0, 0.0, 0.0, 0.0, 0.0, 0.0)"
2025/07/05/17:44:19.062646,7316,1751712259,59922048,map,base_link,-1.788921395073194,6.0715597809297,-3.772,0.033681375838782175,-0.0589036921536152,-0.61891013031254,-0.7825255079349129,"(1.5750249999999997, 0.0, 0.0, 0.0, 0.0, 0.0, 0.0, 1.5750249999999997, 0.0, 0.0, 0.0, 0.0, 0.0, 0.0, 3.083536, 0.0, 0.0, 0.0, 0.0, 0.0, 0.0, 99999.0, 0.0, 0.0, 0.0, 0.0, 0.0, 0.0, 99999.0, 0.0, 0.0, 0.0, 0.0, 0.0, 0.0, 99999.0)",-0.04,0.39,0.01,0.0,0.0,0.0,"(-1.0, 0.0, 0.0, 0.0, 0.0, 0.0, 0.0, 0.0, 0.0, 0.0, 0.0, 0.0, 0.0, 0.0, 0.0, 0.0, 0.0, 0.0, 0.0, 0.0, 0.0, 0.0, 0.0, 0.0, 0.0, 0.0, 0.0, 0.0, 0.0, 0.0, 0.0, 0.0, 0.0, 0.0, 0.0, 0.0)"
2025/07/05/17:44:19.163309,7317,1751712259,158930752,map,base_link,-1.788921396734274,6.115797011024867,-3.774,0.032268441369949864,-0.05984518300729317,-0.6172290783470411,-0.7838402685530004,"(1.5750249999999997, 0.0, 0.0, 0.0, 0.0, 0.0, 0.0, 1.5750249999999997, 0.0, 0.0, 0.0, 0.0, 0.0, 0.0, 3.083536, 0.0, 0.0, 0.0, 0.0, 0.0, 0.0, 99999.0, 0.0, 0.0, 0.0, 0.0, 0.0, 0.0, 99999.0, 0.0, 0.0, 0.0, 0.0, 0.0, 0.0, 99999.0)",-0.03,0.45,0.01,0.0,0.0,0.0,"(-1.0, 0.0, 0.0, 0.0, 0.0, 0.0, 0.0, 0.0, 0.0, 0.0, 0.0, 0.0, 0.0, 0.0, 0.0, 0.0, 0.0, 0.0, 0.0, 0.0, 0.0, 0.0, 0.0, 0.0, 0.0, 0.0, 0.0, 0.0, 0.0, 0.0, 0.0, 0.0, 0.0, 0.0, 0.0, 0.0)"
2025/07/05/17:44:19.263505,7318,1751712259,258937920,map,base_link,-1.7889213979660663,6.160034240565544,-3.774,0.030464233498788434,-0.06149374619578928,-0.6138946760763531,-0.7863992474190501,"(1.5600010000000002, 0.0, 0.0, 0.0, 0.0, 0.0, 0.0, 1.5600010000000002, 0.0, 0.0, 0.0, 0.0, 0.0, 0.0, 3.083536, 0.0, 0.0, 0.0, 0.0, 0.0, 0.0, 99999.0, 0.0, 0.0, 0.0, 0.0, 0.0, 0.0, 99999.0, 0.0, 0.0, 0.0, 0.0, 0.0, 0.0, 99999.0)",-0.05,0.44,0.0,0.0,0.0,0.0,"(-1.0, 0.0, 0.0, 0.0, 0.0, 0.0, 0.0, 0.0, 0.0, 0.0, 0.0, 0.0, 0.0, 0.0, 0.0, 0.0, 0.0, 0.0, 0.0, 0.0, 0.0, 0.0, 0.0, 0.0, 0.0, 0.0, 0.0, 0.0, 0.0, 0.0, 0.0, 0.0, 0.0, 0.0, 0.0, 0.0)"
2025/07/05/17:44:19.362928,7319,1751712259,359944320,map,base_link,-1.7889213996955946,6.204271470528924,-3.772,0.031094170243195406,-0.06217394045119488,-0.6094787007840302,-0.7897488632446832,"(1.5600010000000002, 0.0, 0.0, 0.0, 0.0, 0.0, 0.0, 1.5600010000000002, 0.0, 0.0, 0.0, 0.0, 0.0, 0.0, 3.083536, 0.0, 0.0, 0.0, 0.0, 0.0, 0.0, 99999.0, 0.0, 0.0, 0.0, 0.0, 0.0, 0.0, 99999.0, 0.0, 0.0, 0.0, 0.0, 0.0, 0.0, 99999.0)",-0.04,0.43,0.0,0.0,0.0,0.0,"(-1.0, 0.0, 0.0, 0.0, 0.0, 0.0, 0.0, 0.0, 0.0, 0.0, 0.0, 0.0, 0.0, 0.0, 0.0, 0.0, 0.0, 0.0, 0.0, 0.0, 0.0, 0.0, 0.0, 0.0, 0.0, 0.0, 0.0, 0.0, 0.0, 0.0, 0.0, 0.0, 0.0, 0.0, 0.0, 0.0)"
2025/07/05/17:44:19.562517,7320,1751712259,558957888,map,base_link,-1.7889214052923614,6.281686632823015,-3.764,0.03835540612419331,-0.05831966572952343,-0.6000920418212295,-0.7968796777136888,"(1.552516, 0.0, 0.0, 0.0, 0.0, 0.0, 0.0, 1.552516, 0.0, 0.0, 0.0, 0.0, 0.0, 0.0, 3.0940809999999996, 0.0, 0.0, 0.0, 0.0, 0.0, 0.0, 99999.0, 0.0, 0.0, 0.0, 0.0, 0.0, 0.0, 99999.0, 0.0, 0.0, 0.0, 0.0, 0.0, 0.0, 99999.0)",-0.04,0.42,0.0,0.0,0.0,0.0,"(-1.0, 0.0, 0.0, 0.0, 0.0, 0.0, 0.0, 0.0, 0.0, 0.0, 0.0, 0.0, 0.0, 0.0, 0.0, 0.0, 0.0, 0.0, 0.0, 0.0, 0.0, 0.0, 0.0, 0.0, 0.0, 0.0, 0.0, 0.0, 0.0, 0.0, 0.0, 0.0, 0.0, 0.0, 0.0, 0.0)"
2025/07/05/17:44:19.642991,7321,1751712259,638957888,map,base_link,-1.7889214067528163,6.314864555354079,-3.765,0.039519852840870735,-0.05723689712471501,-0.5966015417878039,-0.7995178041641012,"(1.552516, 0.0, 0.0, 0.0, 0.0, 0.0, 0.0, 1.552516, 0.0, 0.0, 0.0, 0.0, 0.0, 0.0, 3.0940809999999996, 0.0, 0.0, 0.0, 0.0, 0.0, 0.0, 99999.0, 0.0, 0.0, 0.0, 0.0, 0.0, 0.0, 99999.0, 0.0, 0.0, 0.0, 0.0, 0.0, 0.0, 99999.0)",-0.03,0.41,0.0,0.0,0.0,0.0,"(-1.0, 0.0, 0.0, 0.0, 0.0, 0.0, 0.0, 0.0, 0.0, 0.0, 0.0, 0.0, 0.0, 0.0, 0.0, 0.0, 0.0, 0.0, 0.0, 0.0, 0.0, 0.0, 0.0, 0.0, 0.0, 0.0, 0.0, 0.0, 0.0, 0.0, 0.0, 0.0, 0.0, 0.0, 0.0, 0.0)"
2025/07/05/17:44:19.742167,7322,1751712259,738963520,map,base_link,-1.7889214084823446,6.359101785317457,-3.767,0.03785863582370225,-0.057443837301864496,-0.5929048336522456,-0.8023283539059357,"(1.542564, 0.0, 0.0, 0.0, 0.0, 0.0, 0.0, 1.542564, 0.0, 0.0, 0.0, 0.0, 0.0, 0.0, 3.0976, 0.0, 0.0, 0.0, 0.0, 0.0, 0.0, 99999.0, 0.0, 0.0, 0.0, 0.0, 0.0, 0.0, 99999.0, 0.0, 0.0, 0.0, 0.0, 0.0, 0.0, 99999.0)",-0.03,0.4,0.01,0.0,0.0,0.0,"(-1.0, 0.0, 0.0, 0.0, 0.0, 0.0, 0.0, 0.0, 0.0, 0.0, 0.0, 0.0, 0.0, 0.0, 0.0, 0.0, 0.0, 0.0, 0.0, 0.0, 0.0, 0.0, 0.0, 0.0, 0.0, 0.0, 0.0, 0.0, 0.0, 0.0, 0.0, 0.0, 0.0, 0.0, 0.0, 0.0)"
2025/07/05/17:44:19.842309,7323,1751712259,838968640,map,base_link,-1.788921406814334,6.392279697715591,-3.771,0.03378795098014645,-0.0590399650632128,-0.5900997989396802,-0.8044593738562853,"(1.542564, 0.0, 0.0, 0.0, 0.0, 0.0, 0.0, 1.542564, 0.0, 0.0, 0.0, 0.0, 0.0, 0.0, 3.0976, 0.0, 0.0, 0.0, 0.0, 0.0, 0.0, 99999.0, 0.0, 0.0, 0.0, 0.0, 0.0, 0.0, 99999.0, 0.0, 0.0, 0.0, 0.0, 0.0, 0.0, 99999.0)",-0.02,0.39,0.01,0.0,0.0,0.0,"(-1.0, 0.0, 0.0, 0.0, 0.0, 0.0, 0.0, 0.0, 0.0, 0.0, 0.0, 0.0, 0.0, 0.0, 0.0, 0.0, 0.0, 0.0, 0.0, 0.0, 0.0, 0.0, 0.0, 0.0, 0.0, 0.0, 0.0, 0.0, 0.0, 0.0, 0.0, 0.0, 0.0, 0.0, 0.0, 0.0)"
2025/07/05/17:44:19.962886,7324,1751712259,958982976,map,base_link,-1.77787868300704,6.436516928190537,-3.776,0.028386133150528903,-0.0618394080381006,-0.5873945821190564,-0.8064351926568167,"(1.522756, 0.0, 0.0, 0.0, 0.0, 0.0, 0.0, 1.522756, 0.0, 0.0, 0.0, 0.0, 0.0, 0.0, 3.0870489999999995, 0.0, 0.0, 0.0, 0.0, 0.0, 0.0, 99999.0, 0.0, 0.0, 0.0, 0.0, 0.0, 0.0, 99999.0, 0.0, 0.0, 0.0, 0.0, 0.0, 0.0, 99999.0)",-0.01,0.37,0.0,0.0,0.0,0.0,"(-1.0, 0.0, 0.0, 0.0, 0.0, 0.0, 0.0, 0.0, 0.0, 0.0, 0.0, 0.0, 0.0, 0.0, 0.0, 0.0, 0.0, 0.0, 0.0, 0.0, 0.0, 0.0, 0.0, 0.0, 0.0, 0.0, 0.0, 0.0, 0.0, 0.0, 0.0, 0.0, 0.0, 0.0, 0.0, 0.0)"
2025/07/05/17:44:20.062907,7325,1751712260,58991936,map,base_link,-1.7778786837458127,6.469694850503795,-3.778,0.026532543332799342,-0.06344254813366591,-0.5852677089276117,-0.807918793021443,"(1.5030759999999999, 0.0, 0.0, 0.0, 0.0, 0.0, 0.0, 1.5030759999999999, 0.0, 0.0, 0.0, 0.0, 0.0, 0.0, 3.076516, 0.0, 0.0, 0.0, 0.0, 0.0, 0.0, 99999.0, 0.0, 0.0, 0.0, 0.0, 0.0, 0.0, 99999.0, 0.0, 0.0, 0.0, 0.0, 0.0, 0.0, 99999.0)",0.0,0.36,0.0,0.0,0.0,0.0,"(-1.0, 0.0, 0.0, 0.0, 0.0, 0.0, 0.0, 0.0, 0.0, 0.0, 0.0, 0.0, 0.0, 0.0, 0.0, 0.0, 0.0, 0.0, 0.0, 0.0, 0.0, 0.0, 0.0, 0.0, 0.0, 0.0, 0.0, 0.0, 0.0, 0.0, 0.0, 0.0, 0.0, 0.0, 0.0, 0.0)"
2025/07/05/17:44:20.162805,7326,1751712260,159000384,map,base_link,-1.7668359581212392,6.502872763008157,-3.78,0.028220765326234874,-0.0634585651126333,-0.5828665372433457,-0.8095944655691508,"(1.5030759999999999, 0.0, 0.0, 0.0, 0.0, 0.0, 0.0, 1.5030759999999999, 0.0, 0.0, 0.0, 0.0, 0.0, 0.0, 3.076516, 0.0, 0.0, 0.0, 0.0, 0.0, 0.0, 99999.0, 0.0, 0.0, 0.0, 0.0, 0.0, 0.0, 99999.0, 0.0, 0.0, 0.0, 0.0, 0.0, 0.0, 99999.0)",0.0,0.35,0.0,0.0,0.0,0.0,"(-1.0, 0.0, 0.0, 0.0, 0.0, 0.0, 0.0, 0.0, 0.0, 0.0, 0.0, 0.0, 0.0, 0.0, 0.0, 0.0, 0.0, 0.0, 0.0, 0.0, 0.0, 0.0, 0.0, 0.0, 0.0, 0.0, 0.0, 0.0, 0.0, 0.0, 0.0, 0.0, 0.0, 0.0, 0.0, 0.0)"
2025/07/05/17:44:20.262901,7327,1751712260,260009088,map,base_link,-1.7668359621938208,6.536050695751831,-3.779,0.03230004531447604,-0.061941134637205846,-0.579960394636674,-0.8116439758695998,"(1.4737959999999999, 0.0, 0.0, 0.0, 0.0, 0.0, 0.0, 1.4737959999999999, 0.0, 0.0, 0.0, 0.0, 0.0, 0.0, 3.0660009999999995, 0.0, 0.0, 0.0, 0.0, 0.0, 0.0, 99999.0, 0.0, 0.0, 0.0, 0.0, 0.0, 0.0, 99999.0, 0.0, 0.0, 0.0, 0.0, 0.0, 0.0, 99999.0)",0.0,0.34,0.0,0.0,0.0,0.0,"(-1.0, 0.0, 0.0, 0.0, 0.0, 0.0, 0.0, 0.0, 0.0, 0.0, 0.0, 0.0, 0.0, 0.0, 0.0, 0.0, 0.0, 0.0, 0.0, 0.0, 0.0, 0.0, 0.0, 0.0, 0.0, 0.0, 0.0, 0.0, 0.0, 0.0, 0.0, 0.0, 0.0, 0.0, 0.0, 0.0)"
2025/07/05/17:44:20.363309,7328,1751712260,359014976,map,base_link,-1.7668359634303301,6.5692286181413655,-3.776,0.03647093768787225,-0.059630289579146734,-0.5768814681503696,-0.8138315986575776,"(1.4737959999999999, 0.0, 0.0, 0.0, 0.0, 0.0, 0.0, 1.4737959999999999, 0.0, 0.0, 0.0, 0.0, 0.0, 0.0, 3.0660009999999995, 0.0, 0.0, 0.0, 0.0, 0.0, 0.0, 99999.0, 0.0, 0.0, 0.0, 0.0, 0.0, 0.0, 99999.0, 0.0, 0.0, 0.0, 0.0, 0.0, 0.0, 99999.0)",0.0,0.35,0.0,0.0,0.0,0.0,"(-1.0, 0.0, 0.0, 0.0, 0.0, 0.0, 0.0, 0.0, 0.0, 0.0, 0.0, 0.0, 0.0, 0.0, 0.0, 0.0, 0.0, 0.0, 0.0, 0.0, 0.0, 0.0, 0.0, 0.0, 0.0, 0.0, 0.0, 0.0, 0.0, 0.0, 0.0, 0.0, 0.0, 0.0, 0.0, 0.0)"
2025/07/05/17:44:20.562955,7329,1751712260,559028800,map,base_link,-1.7557932398687894,6.635584463355723,-3.774,0.03452688702699936,-0.0583792119759836,-0.5706780484591697,-0.8183680875303736,"(1.459264, 0.0, 0.0, 0.0, 0.0, 0.0, 0.0, 1.459264, 0.0, 0.0, 0.0, 0.0, 0.0, 0.0, 3.0800249999999996, 0.0, 0.0, 0.0, 0.0, 0.0, 0.0, 99999.0, 0.0, 0.0, 0.0, 0.0, 0.0, 0.0, 99999.0, 0.0, 0.0, 0.0, 0.0, 0.0, 0.0, 99999.0)",0.0,0.35,0.0,0.0,0.0,0.0,"(-1.0, 0.0, 0.0, 0.0, 0.0, 0.0, 0.0, 0.0, 0.0, 0.0, 0.0, 0.0, 0.0, 0.0, 0.0, 0.0, 0.0, 0.0, 0.0, 0.0, 0.0, 0.0, 0.0, 0.0, 0.0, 0.0, 0.0, 0.0, 0.0, 0.0, 0.0, 0.0, 0.0, 0.0, 0.0, 0.0)"
2025/07/05/17:44:20.663369,7330,1751712260,659037248,map,base_link,-1.755793241036851,6.668762385877046,-3.775,0.029670130012135497,-0.06077694361102587,-0.5680871673142124,-0.820184623632557,"(1.459264, 0.0, 0.0, 0.0, 0.0, 0.0, 0.0, 1.459264, 0.0, 0.0, 0.0, 0.0, 0.0, 0.0, 3.0800249999999996, 0.0, 0.0, 0.0, 0.0, 0.0, 0.0, 99999.0, 0.0, 0.0, 0.0, 0.0, 0.0, 0.0, 99999.0, 0.0, 0.0, 0.0, 0.0, 0.0, 0.0, 99999.0)",0.0,0.35,0.0,0.0,0.0,0.0,"(-1.0, 0.0, 0.0, 0.0, 0.0, 0.0, 0.0, 0.0, 0.0, 0.0, 0.0, 0.0, 0.0, 0.0, 0.0, 0.0, 0.0, 0.0, 0.0, 0.0, 0.0, 0.0, 0.0, 0.0, 0.0, 0.0, 0.0, 0.0, 0.0, 0.0, 0.0, 0.0, 0.0, 0.0, 0.0, 0.0)"
2025/07/05/17:44:20.762772,7331,1751712260,759043136,map,base_link,-1.7557932422733604,6.701940308266581,-3.775,0.02526054099566021,-0.06347983763273382,-0.5659946760342757,-0.821573029002038,"(1.4520250000000001, 0.0, 0.0, 0.0, 0.0, 0.0, 0.0, 1.4520250000000001, 0.0, 0.0, 0.0, 0.0, 0.0, 0.0, 3.104644, 0.0, 0.0, 0.0, 0.0, 0.0, 0.0, 99999.0, 0.0, 0.0, 0.0, 0.0, 0.0, 0.0, 99999.0, 0.0, 0.0, 0.0, 0.0, 0.0, 0.0, 99999.0)",0.01,0.33,0.0,0.0,0.0,0.0,"(-1.0, 0.0, 0.0, 0.0, 0.0, 0.0, 0.0, 0.0, 0.0, 0.0, 0.0, 0.0, 0.0, 0.0, 0.0, 0.0, 0.0, 0.0, 0.0, 0.0, 0.0, 0.0, 0.0, 0.0, 0.0, 0.0, 0.0, 0.0, 0.0, 0.0, 0.0, 0.0, 0.0, 0.0, 0.0, 0.0)"
2025/07/05/17:44:20.862550,7332,1751712260,859051072,map,base_link,-1.744750518923392,6.724058923567551,-3.777,0.02356409103151258,-0.06486989646254492,-0.5640548331399067,-0.8228479661263733,"(1.4520250000000001, 0.0, 0.0, 0.0, 0.0, 0.0, 0.0, 1.4520250000000001, 0.0, 0.0, 0.0, 0.0, 0.0, 0.0, 3.104644, 0.0, 0.0, 0.0, 0.0, 0.0, 0.0, 99999.0, 0.0, 0.0, 0.0, 0.0, 0.0, 0.0, 99999.0, 0.0, 0.0, 0.0, 0.0, 0.0, 0.0, 99999.0)",0.03,0.33,0.0,0.0,0.0,0.0,"(-1.0, 0.0, 0.0, 0.0, 0.0, 0.0, 0.0, 0.0, 0.0, 0.0, 0.0, 0.0, 0.0, 0.0, 0.0, 0.0, 0.0, 0.0, 0.0, 0.0, 0.0, 0.0, 0.0, 0.0, 0.0, 0.0, 0.0, 0.0, 0.0, 0.0, 0.0, 0.0, 0.0, 0.0, 0.0, 0.0)"
2025/07/05/17:44:20.981988,7333,1751712260,979057216,map,base_link,-1.7337077937047876,6.768296143125177,-3.78,0.0262450802826555,-0.06430636037512474,-0.561313445815187,-0.8246836383264446,"(1.44, 0.0, 0.0, 0.0, 0.0, 0.0, 0.0, 1.44, 0.0, 0.0, 0.0, 0.0, 0.0, 0.0, 3.129361, 0.0, 0.0, 0.0, 0.0, 0.0, 0.0, 99999.0, 0.0, 0.0, 0.0, 0.0, 0.0, 0.0, 99999.0, 0.0, 0.0, 0.0, 0.0, 0.0, 0.0, 99999.0)",0.02,0.32,0.0,0.0,0.0,0.0,"(-1.0, 0.0, 0.0, 0.0, 0.0, 0.0, 0.0, 0.0, 0.0, 0.0, 0.0, 0.0, 0.0, 0.0, 0.0, 0.0, 0.0, 0.0, 0.0, 0.0, 0.0, 0.0, 0.0, 0.0, 0.0, 0.0, 0.0, 0.0, 0.0, 0.0, 0.0, 0.0, 0.0, 0.0, 0.0, 0.0)"
2025/07/05/17:44:21.062669,7334,1751712261,59062592,map,base_link,-1.7337077970790067,6.790414768805845,-3.779,0.029418716047870778,-0.06265249479969379,-0.5588676303994805,-0.8263632226407096,"(1.428025, 0.0, 0.0, 0.0, 0.0, 0.0, 0.0, 1.428025, 0.0, 0.0, 0.0, 0.0, 0.0, 0.0, 3.154176, 0.0, 0.0, 0.0, 0.0, 0.0, 0.0, 99999.0, 0.0, 0.0, 0.0, 0.0, 0.0, 0.0, 99999.0, 0.0, 0.0, 0.0, 0.0, 0.0, 0.0, 99999.0)",0.02,0.33,0.0,0.0,0.0,0.0,"(-1.0, 0.0, 0.0, 0.0, 0.0, 0.0, 0.0, 0.0, 0.0, 0.0, 0.0, 0.0, 0.0, 0.0, 0.0, 0.0, 0.0, 0.0, 0.0, 0.0, 0.0, 0.0, 0.0, 0.0, 0.0, 0.0, 0.0, 0.0, 0.0, 0.0, 0.0, 0.0, 0.0, 0.0, 0.0, 0.0)"
2025/07/05/17:44:21.163168,7335,1751712261,159068736,map,base_link,-1.7226650724863006,6.82359269158173,-3.776,0.0339406670039226,-0.06019393973687386,-0.5551983100932462,-0.8288422993621201,"(1.428025, 0.0, 0.0, 0.0, 0.0, 0.0, 0.0, 1.428025, 0.0, 0.0, 0.0, 0.0, 0.0, 0.0, 3.154176, 0.0, 0.0, 0.0, 0.0, 0.0, 0.0, 99999.0, 0.0, 0.0, 0.0, 0.0, 0.0, 0.0, 99999.0, 0.0, 0.0, 0.0, 0.0, 0.0, 0.0, 99999.0)",0.02,0.33,0.0,0.0,0.0,0.0,"(-1.0, 0.0, 0.0, 0.0, 0.0, 0.0, 0.0, 0.0, 0.0, 0.0, 0.0, 0.0, 0.0, 0.0, 0.0, 0.0, 0.0, 0.0, 0.0, 0.0, 0.0, 0.0, 0.0, 0.0, 0.0, 0.0, 0.0, 0.0, 0.0, 0.0, 0.0, 0.0, 0.0, 0.0, 0.0, 0.0)"
2025/07/05/17:44:21.262488,7336,1751712261,259074880,map,base_link,-1.722665073453736,6.845711306654425,-3.773,0.03600938836586549,-0.058766665455026436,-0.551142455196069,-0.8315598577740886,"(1.425636, 0.0, 0.0, 0.0, 0.0, 0.0, 0.0, 1.425636, 0.0, 0.0, 0.0, 0.0, 0.0, 0.0, 3.182656, 0.0, 0.0, 0.0, 0.0, 0.0, 0.0, 99999.0, 0.0, 0.0, 0.0, 0.0, 0.0, 0.0, 99999.0, 0.0, 0.0, 0.0, 0.0, 0.0, 0.0, 99999.0)",0.01,0.32,-0.01,0.0,0.0,0.0,"(-1.0, 0.0, 0.0, 0.0, 0.0, 0.0, 0.0, 0.0, 0.0, 0.0, 0.0, 0.0, 0.0, 0.0, 0.0, 0.0, 0.0, 0.0, 0.0, 0.0, 0.0, 0.0, 0.0, 0.0, 0.0, 0.0, 0.0, 0.0, 0.0, 0.0, 0.0, 0.0, 0.0, 0.0, 0.0, 0.0)"
2025/07/05/17:44:21.362622,7337,1751712261,359081280,map,base_link,-1.7116223528480727,6.878889240210321,-3.769,0.03424443385993304,-0.05947302125379774,-0.5471060879938238,-0.8342452918492573,"(1.425636, 0.0, 0.0, 0.0, 0.0, 0.0, 0.0, 1.425636, 0.0, 0.0, 0.0, 0.0, 0.0, 0.0, 3.182656, 0.0, 0.0, 0.0, 0.0, 0.0, 0.0, 99999.0, 0.0, 0.0, 0.0, 0.0, 0.0, 0.0, 99999.0, 0.0, 0.0, 0.0, 0.0, 0.0, 0.0, 99999.0)",0.01,0.32,-0.01,0.0,0.0,0.0,"(-1.0, 0.0, 0.0, 0.0, 0.0, 0.0, 0.0, 0.0, 0.0, 0.0, 0.0, 0.0, 0.0, 0.0, 0.0, 0.0, 0.0, 0.0, 0.0, 0.0, 0.0, 0.0, 0.0, 0.0, 0.0, 0.0, 0.0, 0.0, 0.0, 0.0, 0.0, 0.0, 0.0, 0.0, 0.0, 0.0)"
2025/07/05/17:44:21.542597,7338,1751712261,539091264,map,base_link,-1.7005796291543542,6.934185778190688,-3.763,0.02528483970730717,-0.0640107767372941,-0.5409627915586255,-0.838225838000454,"(1.425636, 0.0, 0.0, 0.0, 0.0, 0.0, 0.0, 1.425636, 0.0, 0.0, 0.0, 0.0, 0.0, 0.0, 3.182656, 0.0, 0.0, 0.0, 0.0, 0.0, 0.0, 99999.0, 0.0, 0.0, 0.0, 0.0, 0.0, 0.0, 99999.0, 0.0, 0.0, 0.0, 0.0, 0.0, 0.0, 99999.0)",0.02,0.32,0.0,0.0,0.0,0.0,"(-1.0, 0.0, 0.0, 0.0, 0.0, 0.0, 0.0, 0.0, 0.0, 0.0, 0.0, 0.0, 0.0, 0.0, 0.0, 0.0, 0.0, 0.0, 0.0, 0.0, 0.0, 0.0, 0.0, 0.0, 0.0, 0.0, 0.0, 0.0, 0.0, 0.0, 0.0, 0.0, 0.0, 0.0, 0.0, 0.0)"
2025/07/05/17:44:21.643164,7339,1751712261,639097664,map,base_link,-1.6895369055119929,6.956304393366442,-3.763,0.02224690769983968,-0.06530017407629522,-0.5383813270241766,-0.8398729124546683,"(1.4232490000000002, 0.0, 0.0, 0.0, 0.0, 0.0, 0.0, 1.4232490000000002, 0.0, 0.0, 0.0, 0.0, 0.0, 0.0, 3.1969440000000002, 0.0, 0.0, 0.0, 0.0, 0.0, 0.0, 99999.0, 0.0, 0.0, 0.0, 0.0, 0.0, 0.0, 99999.0, 0.0, 0.0, 0.0, 0.0, 0.0, 0.0, 99999.0)",0.03,0.31,0.0,0.0,0.0,0.0,"(-1.0, 0.0, 0.0, 0.0, 0.0, 0.0, 0.0, 0.0, 0.0, 0.0, 0.0, 0.0, 0.0, 0.0, 0.0, 0.0, 0.0, 0.0, 0.0, 0.0, 0.0, 0.0, 0.0, 0.0, 0.0, 0.0, 0.0, 0.0, 0.0, 0.0, 0.0, 0.0, 0.0, 0.0, 0.0, 0.0)"
2025/07/05/17:44:21.722989,7340,1751712261,720103808,map,base_link,-1.6895369064794288,6.978423008439137,-3.765,0.02239600708278782,-0.0651243649803817,-0.5364750843998549,-0.8411014919561242,"(1.420864, 0.0, 0.0, 0.0, 0.0, 0.0, 0.0, 1.420864, 0.0, 0.0, 0.0, 0.0, 0.0, 0.0, 3.2112640000000003, 0.0, 0.0, 0.0, 0.0, 0.0, 0.0, 99999.0, 0.0, 0.0, 0.0, 0.0, 0.0, 0.0, 99999.0, 0.0, 0.0, 0.0, 0.0, 0.0, 0.0, 99999.0)",0.04,0.3,0.0,0.0,0.0,0.0,"(-1.0, 0.0, 0.0, 0.0, 0.0, 0.0, 0.0, 0.0, 0.0, 0.0, 0.0, 0.0, 0.0, 0.0, 0.0, 0.0, 0.0, 0.0, 0.0, 0.0, 0.0, 0.0, 0.0, 0.0, 0.0, 0.0, 0.0, 0.0, 0.0, 0.0, 0.0, 0.0, 0.0, 0.0, 0.0, 0.0)"
2025/07/05/17:44:21.826063,7341,1751712261,823109952,map,base_link,-1.6784941814574335,7.011600931122431,-3.768,0.02452924471877083,-0.06373536831784256,-0.5338565658939824,-0.8428127229882088,"(1.420864, 0.0, 0.0, 0.0, 0.0, 0.0, 0.0, 1.420864, 0.0, 0.0, 0.0, 0.0, 0.0, 0.0, 3.2112640000000003, 0.0, 0.0, 0.0, 0.0, 0.0, 0.0, 99999.0, 0.0, 0.0, 0.0, 0.0, 0.0, 0.0, 99999.0, 0.0, 0.0, 0.0, 0.0, 0.0, 0.0, 99999.0)",0.05,0.29,0.0,0.0,0.0,0.0,"(-1.0, 0.0, 0.0, 0.0, 0.0, 0.0, 0.0, 0.0, 0.0, 0.0, 0.0, 0.0, 0.0, 0.0, 0.0, 0.0, 0.0, 0.0, 0.0, 0.0, 0.0, 0.0, 0.0, 0.0, 0.0, 0.0, 0.0, 0.0, 0.0, 0.0, 0.0, 0.0, 0.0, 0.0, 0.0, 0.0)"
2025/07/05/17:44:21.943242,7342,1751712261,939116352,map,base_link,-1.6564087313599578,7.044778843235327,-3.771,0.028682112805752273,-0.06188075645703516,-0.5300336517147404,-0.8452292212383815,"(1.4161, 0.0, 0.0, 0.0, 0.0, 0.0, 0.0, 1.4161, 0.0, 0.0, 0.0, 0.0, 0.0, 0.0, 3.225616, 0.0, 0.0, 0.0, 0.0, 0.0, 0.0, 99999.0, 0.0, 0.0, 0.0, 0.0, 0.0, 0.0, 99999.0, 0.0, 0.0, 0.0, 0.0, 0.0, 0.0, 99999.0)",0.04,0.3,-0.01,0.0,0.0,0.0,"(-1.0, 0.0, 0.0, 0.0, 0.0, 0.0, 0.0, 0.0, 0.0, 0.0, 0.0, 0.0, 0.0, 0.0, 0.0, 0.0, 0.0, 0.0, 0.0, 0.0, 0.0, 0.0, 0.0, 0.0, 0.0, 0.0, 0.0, 0.0, 0.0, 0.0, 0.0, 0.0, 0.0, 0.0, 0.0, 0.0)"
2025/07/05/17:44:22.044169,7343,1751712262,39121472,map,base_link,-1.6453660068590188,7.066897458803276,-3.771,0.031898458144875755,-0.060897477400836425,-0.5262950073378585,-0.8475184663860945,"(1.4161, 0.0, 0.0, 0.0, 0.0, 0.0, 0.0, 1.4161, 0.0, 0.0, 0.0, 0.0, 0.0, 0.0, 3.225616, 0.0, 0.0, 0.0, 0.0, 0.0, 0.0, 99999.0, 0.0, 0.0, 0.0, 0.0, 0.0, 0.0, 99999.0, 0.0, 0.0, 0.0, 0.0, 0.0, 0.0, 99999.0)",0.05,0.3,-0.01,0.0,0.0,0.0,"(-1.0, 0.0, 0.0, 0.0, 0.0, 0.0, 0.0, 0.0, 0.0, 0.0, 0.0, 0.0, 0.0, 0.0, 0.0, 0.0, 0.0, 0.0, 0.0, 0.0, 0.0, 0.0, 0.0, 0.0, 0.0, 0.0, 0.0, 0.0, 0.0, 0.0, 0.0, 0.0, 0.0, 0.0, 0.0, 0.0)"
2025/07/05/17:44:22.141710,7344,1751712262,139128128,map,base_link,-1.6343232832166574,7.0890160742099795,-3.77,0.032742732822156555,-0.06062548799053255,-0.522424211309383,-0.8498972920835881,"(1.411344, 0.0, 0.0, 0.0, 0.0, 0.0, 0.0, 1.411344, 0.0, 0.0, 0.0, 0.0, 0.0, 0.0, 3.2328040000000002, 0.0, 0.0, 0.0, 0.0, 0.0, 0.0, 99999.0, 0.0, 0.0, 0.0, 0.0, 0.0, 0.0, 99999.0, 0.0, 0.0, 0.0, 0.0, 0.0, 0.0, 99999.0)",0.05,0.3,0.0,0.0,0.0,0.0,"(-1.0, 0.0, 0.0, 0.0, 0.0, 0.0, 0.0, 0.0, 0.0, 0.0, 0.0, 0.0, 0.0, 0.0, 0.0, 0.0, 0.0, 0.0, 0.0, 0.0, 0.0, 0.0, 0.0, 0.0, 0.0, 0.0, 0.0, 0.0, 0.0, 0.0, 0.0, 0.0, 0.0, 0.0, 0.0, 0.0)"
2025/07/05/17:44:22.243116,7345,1751712262,239134272,map,base_link,-1.623280558623951,7.12219399687039,-3.771,0.030735617493008096,-0.06155730426337904,-0.5184732839238201,-0.8523212269833476,"(1.411344, 0.0, 0.0, 0.0, 0.0, 0.0, 0.0, 1.411344, 0.0, 0.0, 0.0, 0.0, 0.0, 0.0, 3.2328040000000002, 0.0, 0.0, 0.0, 0.0, 0.0, 0.0, 99999.0, 0.0, 0.0, 0.0, 0.0, 0.0, 0.0, 99999.0, 0.0, 0.0, 0.0, 0.0, 0.0, 0.0, 99999.0)",0.05,0.31,0.0,0.0,0.0,0.0,"(-1.0, 0.0, 0.0, 0.0, 0.0, 0.0, 0.0, 0.0, 0.0, 0.0, 0.0, 0.0, 0.0, 0.0, 0.0, 0.0, 0.0, 0.0, 0.0, 0.0, 0.0, 0.0, 0.0, 0.0, 0.0, 0.0, 0.0, 0.0, 0.0, 0.0, 0.0, 0.0, 0.0, 0.0, 0.0, 0.0)"
2025/07/05/17:44:22.341915,7346,1751712262,339140672,map,base_link,-1.6011951106641855,7.144312612620844,-3.772,0.02625784521169101,-0.06312101628965287,-0.5149695504754547,-0.8544779838887064,"(1.3994890000000002, 0.0, 0.0, 0.0, 0.0, 0.0, 0.0, 1.3994890000000002, 0.0, 0.0, 0.0, 0.0, 0.0, 0.0, 3.2328040000000002, 0.0, 0.0, 0.0, 0.0, 0.0, 0.0, 99999.0, 0.0, 0.0, 0.0, 0.0, 0.0, 0.0, 99999.0, 0.0, 0.0, 0.0, 0.0, 0.0, 0.0, 99999.0)",0.06,0.3,0.01,0.0,0.0,0.0,"(-1.0, 0.0, 0.0, 0.0, 0.0, 0.0, 0.0, 0.0, 0.0, 0.0, 0.0, 0.0, 0.0, 0.0, 0.0, 0.0, 0.0, 0.0, 0.0, 0.0, 0.0, 0.0, 0.0, 0.0, 0.0, 0.0, 0.0, 0.0, 0.0, 0.0, 0.0, 0.0, 0.0, 0.0, 0.0, 0.0)"
2025/07/05/17:44:22.503553,7347,1751712262,501153472,map,base_link,-1.579109662228492,7.18854984323933,-3.775,0.020474519964906932,-0.06514793259792405,-0.5108845214304913,-0.8569326383521408,"(1.3947610000000001, 0.0, 0.0, 0.0, 0.0, 0.0, 0.0, 1.3947610000000001, 0.0, 0.0, 0.0, 0.0, 0.0, 0.0, 3.236401, 0.0, 0.0, 0.0, 0.0, 0.0, 0.0, 99999.0, 0.0, 0.0, 0.0, 0.0, 0.0, 0.0, 99999.0, 0.0, 0.0, 0.0, 0.0, 0.0, 0.0, 99999.0)",0.07,0.29,0.0,0.0,0.0,0.0,"(-1.0, 0.0, 0.0, 0.0, 0.0, 0.0, 0.0, 0.0, 0.0, 0.0, 0.0, 0.0, 0.0, 0.0, 0.0, 0.0, 0.0, 0.0, 0.0, 0.0, 0.0, 0.0, 0.0, 0.0, 0.0, 0.0, 0.0, 0.0, 0.0, 0.0, 0.0, 0.0, 0.0, 0.0, 0.0, 0.0)"
2025/07/05/17:44:22.625930,7348,1751712262,622159616,map,base_link,-1.5570242129575402,7.221727766250063,-3.777,0.019582250240559335,-0.06555665617797882,-0.5080908033974483,-0.8585817350778049,"(1.3947610000000001, 0.0, 0.0, 0.0, 0.0, 0.0, 0.0, 1.3947610000000001, 0.0, 0.0, 0.0, 0.0, 0.0, 0.0, 3.236401, 0.0, 0.0, 0.0, 0.0, 0.0, 0.0, 99999.0, 0.0, 0.0, 0.0, 0.0, 0.0, 0.0, 99999.0, 0.0, 0.0, 0.0, 0.0, 0.0, 0.0, 99999.0)",0.08,0.28,0.0,0.0,0.0,0.0,"(-1.0, 0.0, 0.0, 0.0, 0.0, 0.0, 0.0, 0.0, 0.0, 0.0, 0.0, 0.0, 0.0, 0.0, 0.0, 0.0, 0.0, 0.0, 0.0, 0.0, 0.0, 0.0, 0.0, 0.0, 0.0, 0.0, 0.0, 0.0, 0.0, 0.0, 0.0, 0.0, 0.0, 0.0, 0.0, 0.0)"
2025/07/05/17:44:22.704476,7349,1751712262,700166016,map,base_link,-1.534938762787601,7.2327870744027365,-3.779,0.02142061690313081,-0.06517928466010772,-0.5056296616413112,-0.8600182924166088,"(1.390041, 0.0, 0.0, 0.0, 0.0, 0.0, 0.0, 1.390041, 0.0, 0.0, 0.0, 0.0, 0.0, 0.0, 3.236401, 0.0, 0.0, 0.0, 0.0, 0.0, 0.0, 99999.0, 0.0, 0.0, 0.0, 0.0, 0.0, 0.0, 99999.0, 0.0, 0.0, 0.0, 0.0, 0.0, 0.0, 99999.0)",0.09,0.27,0.0,0.0,0.0,0.0,"(-1.0, 0.0, 0.0, 0.0, 0.0, 0.0, 0.0, 0.0, 0.0, 0.0, 0.0, 0.0, 0.0, 0.0, 0.0, 0.0, 0.0, 0.0, 0.0, 0.0, 0.0, 0.0, 0.0, 0.0, 0.0, 0.0, 0.0, 0.0, 0.0, 0.0, 0.0, 0.0, 0.0, 0.0, 0.0, 0.0)"
2025/07/05/17:44:22.782482,7350,1751712262,779172416,map,base_link,-1.5238960375285857,7.25490567824821,-3.781,0.025160669840984733,-0.06404049492795967,-0.5027185373946917,-0.8617075071404896,"(1.390041, 0.0, 0.0, 0.0, 0.0, 0.0, 0.0, 1.390041, 0.0, 0.0, 0.0, 0.0, 0.0, 0.0, 3.236401, 0.0, 0.0, 0.0, 0.0, 0.0, 0.0, 99999.0, 0.0, 0.0, 0.0, 0.0, 0.0, 0.0, 99999.0, 0.0, 0.0, 0.0, 0.0, 0.0, 0.0, 99999.0)",0.09,0.27,-0.01,0.0,0.0,0.0,"(-1.0, 0.0, 0.0, 0.0, 0.0, 0.0, 0.0, 0.0, 0.0, 0.0, 0.0, 0.0, 0.0, 0.0, 0.0, 0.0, 0.0, 0.0, 0.0, 0.0, 0.0, 0.0, 0.0, 0.0, 0.0, 0.0, 0.0, 0.0, 0.0, 0.0, 0.0, 0.0, 0.0, 0.0, 0.0, 0.0)"
2025/07/05/17:44:22.862259,7351,1751712262,859177536,map,base_link,-1.5128533118999956,7.265964985967714,-3.781,0.029341593542494018,-0.062464213240866415,-0.49937149858941987,-0.8636349919665969,"(1.385329, 0.0, 0.0, 0.0, 0.0, 0.0, 0.0, 1.385329, 0.0, 0.0, 0.0, 0.0, 0.0, 0.0, 3.2076809999999996, 0.0, 0.0, 0.0, 0.0, 0.0, 0.0, 99999.0, 0.0, 0.0, 0.0, 0.0, 0.0, 0.0, 99999.0, 0.0, 0.0, 0.0, 0.0, 0.0, 0.0, 99999.0)",0.09,0.27,0.0,0.0,0.0,0.0,"(-1.0, 0.0, 0.0, 0.0, 0.0, 0.0, 0.0, 0.0, 0.0, 0.0, 0.0, 0.0, 0.0, 0.0, 0.0, 0.0, 0.0, 0.0, 0.0, 0.0, 0.0, 0.0, 0.0, 0.0, 0.0, 0.0, 0.0, 0.0, 0.0, 0.0, 0.0, 0.0, 0.0, 0.0, 0.0, 0.0)"
2025/07/05/17:44:22.983091,7352,1751712262,979184448,map,base_link,-1.4907678624284184,7.288083601645294,-3.783,0.032355438162030264,-0.06070425570772519,-0.494167590574195,-0.8666409356742899,"(1.385329, 0.0, 0.0, 0.0, 0.0, 0.0, 0.0, 1.385329, 0.0, 0.0, 0.0, 0.0, 0.0, 0.0, 3.2076809999999996, 0.0, 0.0, 0.0, 0.0, 0.0, 0.0, 99999.0, 0.0, 0.0, 0.0, 0.0, 0.0, 0.0, 99999.0, 0.0, 0.0, 0.0, 0.0, 0.0, 0.0, 99999.0)",0.09,0.26,0.0,0.0,0.0,0.0,"(-1.0, 0.0, 0.0, 0.0, 0.0, 0.0, 0.0, 0.0, 0.0, 0.0, 0.0, 0.0, 0.0, 0.0, 0.0, 0.0, 0.0, 0.0, 0.0, 0.0, 0.0, 0.0, 0.0, 0.0, 0.0, 0.0, 0.0, 0.0, 0.0, 0.0, 0.0, 0.0, 0.0, 0.0, 0.0, 0.0)"
2025/07/05/17:44:23.062195,7353,1751712263,59191872,map,base_link,-1.479725138425216,7.3102022167121445,-3.786,0.03069420282128139,-0.061049673830354236,-0.4911102859313724,-0.8684132025083331,"(1.3759290000000002, 0.0, 0.0, 0.0, 0.0, 0.0, 0.0, 1.3759290000000002, 0.0, 0.0, 0.0, 0.0, 0.0, 0.0, 3.1969440000000002, 0.0, 0.0, 0.0, 0.0, 0.0, 0.0, 99999.0, 0.0, 0.0, 0.0, 0.0, 0.0, 0.0, 99999.0, 0.0, 0.0, 0.0, 0.0, 0.0, 0.0, 99999.0)",0.08,0.26,0.0,0.0,0.0,0.0,"(-1.0, 0.0, 0.0, 0.0, 0.0, 0.0, 0.0, 0.0, 0.0, 0.0, 0.0, 0.0, 0.0, 0.0, 0.0, 0.0, 0.0, 0.0, 0.0, 0.0, 0.0, 0.0, 0.0, 0.0, 0.0, 0.0, 0.0, 0.0, 0.0, 0.0, 0.0, 0.0, 0.0, 0.0, 0.0, 0.0)"
2025/07/05/17:44:23.162822,7354,1751712263,159197760,map,base_link,-1.4576396889536387,7.332320832274248,-3.789,0.024490802934855747,-0.06326581819025005,-0.487874249129735,-0.8702737235240541,"(1.3759290000000002, 0.0, 0.0, 0.0, 0.0, 0.0, 0.0, 1.3759290000000002, 0.0, 0.0, 0.0, 0.0, 0.0, 0.0, 3.1969440000000002, 0.0, 0.0, 0.0, 0.0, 0.0, 0.0, 99999.0, 0.0, 0.0, 0.0, 0.0, 0.0, 0.0, 99999.0, 0.0, 0.0, 0.0, 0.0, 0.0, 0.0, 99999.0)",0.1,0.26,0.0,0.0,0.0,0.0,"(-1.0, 0.0, 0.0, 0.0, 0.0, 0.0, 0.0, 0.0, 0.0, 0.0, 0.0, 0.0, 0.0, 0.0, 0.0, 0.0, 0.0, 0.0, 0.0, 0.0, 0.0, 0.0, 0.0, 0.0, 0.0, 0.0, 0.0, 0.0, 0.0, 0.0, 0.0, 0.0, 0.0, 0.0, 0.0, 0.0)"
