time,.header.seq,.header.stamp.secs,.header.stamp.nsecs,.header.frame_id,.voltage,.temperature,.current,.charge,.capacity,.design_capacity,.percentage,.power_supply_status,.power_supply_health,.power_supply_technology,.present,.cell_voltage,.cell_temperature,.location,.serial_number
2025/07/05/17:44:13.523561,14526,1751712253,523108116,,11.937000274658203,0.0,-0.1599999964237213,nan,nan,nan,0.8100000023841858,2,0,0,True,"(11.937000274658203,)",(),id1,
2025/07/05/17:44:13.563060,14527,1751712253,562408286,,0.0,0.0,0.009999999776482582,nan,nan,nan,-0.009999999776482582,2,0,0,True,(),(),,
2025/07/05/17:44:13.625760,14528,1751712253,625118049,,11.887001037597656,0.0,-0.1899999976158142,nan,nan,nan,0.8100000023841858,2,0,0,True,"(11.887001037597656,)",(),id1,
2025/07/05/17:44:13.663836,14529,1751712253,663304464,,0.0,0.0,0.009999999776482582,nan,nan,nan,-0.009999999776482582,2,0,0,True,(),(),,
2025/07/05/17:44:13.722661,14530,1751712253,722138886,,11.92300033569336,0.0,-0.429999977350235,nan,nan,nan,0.8100000023841858,2,0,0,True,"(11.92300033569336,)",(),id1,
2025/07/05/17:44:13.763178,14531,1751712253,762348291,,0.0,0.0,0.009999999776482582,nan,nan,nan,-0.009999999776482582,2,0,0,True,(),(),,
2025/07/05/17:44:13.826802,14532,1751712253,825514286,,11.956000328063965,0.0,-0.41999998688697815,nan,nan,nan,0.8100000023841858,2,0,0,True,"(11.956000328063965,)",(),id1,
2025/07/05/17:44:13.863243,14533,1751712253,862052801,,0.0,0.0,0.009999999776482582,nan,nan,nan,-0.009999999776482582,2,0,0,True,(),(),,
2025/07/05/17:44:13.943935,14534,1751712253,942985466,,11.980000495910645,0.0,-0.429999977350235,nan,nan,nan,0.8100000023841858,2,0,0,True,"(11.980000495910645,)",(),id1,
2025/07/05/17:44:13.982248,14535,1751712253,981841489,,0.0,0.0,0.009999999776482582,nan,nan,nan,-0.009999999776482582,2,0,0,True,(),(),,
2025/07/05/17:44:14.026696,14536,1751712254,26255939,,11.985000610351562,0.0,-0.4399999976158142,nan,nan,nan,0.8100000023841858,2,0,0,True,"(11.985000610351562,)",(),id1,
2025/07/05/17:44:14.062743,14537,1751712254,62083932,,0.0,0.0,0.009999999776482582,nan,nan,nan,-0.009999999776482582,2,0,0,True,(),(),,
2025/07/05/17:44:14.122334,14538,1751712254,121946659,,11.971000671386719,0.0,-0.9799999594688416,nan,nan,nan,0.8100000023841858,2,0,0,True,"(11.971000671386719,)",(),id1,
2025/07/05/17:44:14.162373,14539,1751712254,161931358,,0.0,0.0,0.009999999776482582,nan,nan,nan,-0.009999999776482582,2,0,0,True,(),(),,
2025/07/05/17:44:14.205127,14540,1751712254,204389868,,11.971000671386719,0.0,-0.9799999594688416,nan,nan,nan,0.8100000023841858,2,0,0,True,"(11.971000671386719,)",(),id1,
2025/07/05/17:44:14.262805,14541,1751712254,262164056,,0.0,0.0,0.009999999776482582,nan,nan,nan,-0.009999999776482582,2,0,0,True,(),(),,
2025/07/05/17:44:14.323806,14542,1751712254,323128262,,11.78700065612793,0.0,-12.420000076293945,nan,nan,nan,0.8100000023841858,2,0,0,True,"(11.78700065612793,)",(),id1,
2025/07/05/17:44:14.364711,14543,1751712254,363882856,,0.0,0.0,0.009999999776482582,nan,nan,nan,-0.009999999776482582,2,0,0,True,(),(),,
2025/07/05/17:44:14.523495,14544,1751712254,523054724,,11.955000877380371,0.0,-0.550000011920929,nan,nan,nan,0.8100000023841858,2,0,0,True,"(11.955000877380371,)",(),id1,
2025/07/05/17:44:14.563047,14545,1751712254,562389499,,0.0,0.0,0.009999999776482582,nan,nan,nan,-0.009999999776482582,2,0,0,True,(),(),,
2025/07/05/17:44:14.604145,14546,1751712254,603815941,,11.955000877380371,0.0,-0.550000011920929,nan,nan,nan,0.8100000023841858,2,0,0,True,"(11.955000877380371,)",(),id1,
2025/07/05/17:44:14.642913,14547,1751712254,642275767,,0.0,0.0,0.009999999776482582,nan,nan,nan,-0.009999999776482582,2,0,0,True,(),(),,
2025/07/05/17:44:14.704005,14548,1751712254,703580360,,11.984000205993652,0.0,-0.3199999928474426,nan,nan,nan,0.8100000023841858,2,0,0,True,"(11.984000205993652,)",(),id1,
2025/07/05/17:44:14.742401,14549,1751712254,741965014,,0.0,0.0,0.009999999776482582,nan,nan,nan,-0.009999999776482582,2,0,0,True,(),(),,
2025/07/05/17:44:14.803667,14550,1751712254,803261092,,11.985000610351562,0.0,-0.23999999463558197,nan,nan,nan,0.8100000023841858,2,0,0,True,"(11.985000610351562,)",(),id1,
2025/07/05/17:44:14.842602,14551,1751712254,841978139,,0.0,0.0,0.009999999776482582,nan,nan,nan,-0.009999999776482582,2,0,0,True,(),(),,
2025/07/05/17:44:14.903767,14552,1751712254,903186694,,11.98900032043457,0.0,-0.22999998927116394,nan,nan,nan,0.8100000023841858,2,0,0,True,"(11.98900032043457,)",(),id1,
2025/07/05/17:44:14.942737,14553,1751712254,941902429,,0.0,0.0,0.009999999776482582,nan,nan,nan,-0.009999999776482582,2,0,0,True,(),(),,
2025/07/05/17:44:15.004107,14554,1751712255,3620919,,11.995000839233398,0.0,-0.23999999463558197,nan,nan,nan,0.8100000023841858,2,0,0,True,"(11.995000839233398,)",(),id1,
2025/07/05/17:44:15.042679,14555,1751712255,41967789,,0.0,0.0,0.009999999776482582,nan,nan,nan,-0.009999999776482582,2,0,0,True,(),(),,
2025/07/05/17:44:15.104432,14556,1751712255,103410024,,11.998000144958496,0.0,-0.25,nan,nan,nan,0.8100000023841858,2,0,0,True,"(11.998000144958496,)",(),id1,
2025/07/05/17:44:15.142569,14557,1751712255,142096590,,0.0,0.0,0.009999999776482582,nan,nan,nan,-0.009999999776482582,2,0,0,True,(),(),,
2025/07/05/17:44:15.205896,14558,1751712255,204663071,,11.992000579833984,0.0,-0.23999999463558197,nan,nan,nan,0.8100000023841858,2,0,0,True,"(11.992000579833984,)",(),id1,
2025/07/05/17:44:15.243666,14559,1751712255,242336435,,0.0,0.0,0.009999999776482582,nan,nan,nan,-0.009999999776482582,2,0,0,True,(),(),,
2025/07/05/17:44:15.304298,14560,1751712255,303714750,,11.99000072479248,0.0,-0.23999999463558197,nan,nan,nan,0.8100000023841858,2,0,0,True,"(11.99000072479248,)",(),id1,
2025/07/05/17:44:15.344146,14561,1751712255,342245580,,0.0,0.0,0.009999999776482582,nan,nan,nan,-0.009999999776482582,2,0,0,True,(),(),,
2025/07/05/17:44:15.442312,14562,1751712255,442080328,,11.998000144958496,0.0,-0.25999999046325684,nan,nan,nan,0.8100000023841858,2,0,0,True,"(11.998000144958496,)",(),id1,
2025/07/05/17:44:15.504056,14563,1751712255,503610575,,0.0,0.0,0.009999999776482582,nan,nan,nan,-0.009999999776482582,2,0,0,True,(),(),,
2025/07/05/17:44:15.562464,14564,1751712255,562133768,,11.997000694274902,0.0,-0.25,nan,nan,nan,0.8100000023841858,2,0,0,True,"(11.997000694274902,)",(),id1,
2025/07/05/17:44:15.606023,14565,1751712255,604848021,,0.0,0.0,0.009999999776482582,nan,nan,nan,-0.009999999776482582,2,0,0,True,(),(),,
2025/07/05/17:44:15.641784,14566,1751712255,641149955,,11.996000289916992,0.0,-0.25,nan,nan,nan,0.8100000023841858,2,0,0,True,"(11.996000289916992,)",(),id1,
2025/07/05/17:44:15.682918,14567,1751712255,682439622,,0.0,0.0,0.009999999776482582,nan,nan,nan,-0.009999999776482582,2,0,0,True,(),(),,
2025/07/05/17:44:15.741634,14568,1751712255,741054701,,11.892000198364258,0.0,-5.359999656677246,nan,nan,nan,0.8100000023841858,2,0,0,True,"(11.892000198364258,)",(),id1,
2025/07/05/17:44:15.782426,14569,1751712255,781879512,,0.0,0.0,0.009999999776482582,nan,nan,nan,-0.009999999776482582,2,0,0,True,(),(),,
2025/07/05/17:44:15.825789,14570,1751712255,825349119,,11.870000839233398,0.0,-6.980000019073486,nan,nan,nan,0.8100000023841858,2,0,0,True,"(11.870000839233398,)",(),id1,
2025/07/05/17:44:15.903691,14571,1751712255,902872141,,0.0,0.0,0.009999999776482582,nan,nan,nan,-0.009999999776482582,2,0,0,True,(),(),,
2025/07/05/17:44:15.962402,14572,1751712255,962034850,,11.898000717163086,0.0,-5.420000076293945,nan,nan,nan,0.8100000023841858,2,0,0,True,"(11.898000717163086,)",(),id1,
2025/07/05/17:44:16.004164,14573,1751712256,3634042,,0.0,0.0,0.009999999776482582,nan,nan,nan,-0.009999999776482582,2,0,0,True,(),(),,
2025/07/05/17:44:16.042572,14574,1751712256,42055409,,11.905000686645508,0.0,-3.0799999237060547,nan,nan,nan,0.8100000023841858,2,0,0,True,"(11.905000686645508,)",(),id1,
2025/07/05/17:44:16.083704,14575,1751712256,83081140,,0.0,0.0,0.009999999776482582,nan,nan,nan,-0.009999999776482582,2,0,0,True,(),(),,
2025/07/05/17:44:16.123832,14576,1751712256,123567283,,11.957000732421875,0.0,-1.6799999475479126,nan,nan,nan,0.8100000023841858,2,0,0,True,"(11.957000732421875,)",(),id1,
2025/07/05/17:44:16.182694,14577,1751712256,182089320,,0.0,0.0,0.009999999776482582,nan,nan,nan,-0.009999999776482582,2,0,0,True,(),(),,
2025/07/05/17:44:16.225514,14578,1751712256,225150302,,11.942000389099121,0.0,-2.4700000286102295,nan,nan,nan,0.8100000023841858,2,0,0,True,"(11.942000389099121,)",(),id1,
2025/07/05/17:44:16.262493,14579,1751712256,261970046,,0.0,0.0,0.009999999776482582,nan,nan,nan,-0.009999999776482582,2,0,0,True,(),(),,
2025/07/05/17:44:16.322769,14580,1751712256,322304177,,11.93600082397461,0.0,-2.129999876022339,nan,nan,nan,0.8100000023841858,2,0,0,True,"(11.93600082397461,)",(),id1,
2025/07/05/17:44:16.363052,14581,1751712256,362501270,,0.0,0.0,0.009999999776482582,nan,nan,nan,-0.009999999776482582,2,0,0,True,(),(),,
2025/07/05/17:44:16.463049,14582,1751712256,462397588,,11.905000686645508,0.0,-5.829999923706055,nan,nan,nan,0.8100000023841858,2,0,0,True,"(11.905000686645508,)",(),id1,
2025/07/05/17:44:16.544959,14583,1751712256,541828488,,0.0,0.0,0.009999999776482582,nan,nan,nan,-0.009999999776482582,2,0,0,True,(),(),,
2025/07/05/17:44:16.584446,14584,1751712256,583238131,,11.993000984191895,0.0,-0.28999999165534973,nan,nan,nan,0.8100000023841858,2,0,0,True,"(11.993000984191895,)",(),id1,
2025/07/05/17:44:16.626319,14585,1751712256,625595294,,0.0,0.0,0.009999999776482582,nan,nan,nan,-0.009999999776482582,2,0,0,True,(),(),,
2025/07/05/17:44:16.663529,14586,1751712256,663222494,,11.915000915527344,0.0,-2.5999999046325684,nan,nan,nan,0.8100000023841858,2,0,0,True,"(11.915000915527344,)",(),id1,
2025/07/05/17:44:16.704509,14587,1751712256,703370874,,0.0,0.0,0.009999999776482582,nan,nan,nan,-0.009999999776482582,2,0,0,True,(),(),,
2025/07/05/17:44:16.742965,14588,1751712256,742335820,,11.760000228881836,0.0,-9.710000038146973,nan,nan,nan,0.8100000023841858,2,0,0,True,"(11.760000228881836,)",(),id1,
2025/07/05/17:44:16.805479,14589,1751712256,804255870,,0.0,0.0,0.009999999776482582,nan,nan,nan,-0.009999999776482582,2,0,0,True,(),(),,
2025/07/05/17:44:16.842361,14590,1751712256,842082226,,11.779000282287598,0.0,-7.980000019073486,nan,nan,nan,0.8100000023841858,2,0,0,True,"(11.779000282287598,)",(),id1,
2025/07/05/17:44:16.883219,14591,1751712256,882625635,,0.0,0.0,0.009999999776482582,nan,nan,nan,-0.009999999776482582,2,0,0,True,(),(),,
2025/07/05/17:44:16.942928,14592,1751712256,942401285,,11.761000633239746,0.0,-11.15999984741211,nan,nan,nan,0.8100000023841858,2,0,0,True,"(11.761000633239746,)",(),id1,
2025/07/05/17:44:17.026145,14593,1751712257,25404294,,0.0,0.0,0.009999999776482582,nan,nan,nan,-0.009999999776482582,2,0,0,True,(),(),,
2025/07/05/17:44:17.063060,14594,1751712257,62899269,,11.671000480651855,0.0,-18.31999969482422,nan,nan,nan,0.8100000023841858,2,0,0,True,"(11.671000480651855,)",(),id1,
2025/07/05/17:44:17.124022,14595,1751712257,123206556,,0.0,0.0,0.009999999776482582,nan,nan,nan,-0.009999999776482582,2,0,0,True,(),(),,
2025/07/05/17:44:17.163795,14596,1751712257,163308742,,11.7160005569458,0.0,-14.90999984741211,nan,nan,nan,0.8100000023841858,2,0,0,True,"(11.7160005569458,)",(),id1,
2025/07/05/17:44:17.203616,14597,1751712257,203476921,,0.0,0.0,0.009999999776482582,nan,nan,nan,-0.009999999776482582,2,0,0,True,(),(),,
2025/07/05/17:44:17.241978,14598,1751712257,241478315,,11.74000072479248,0.0,-14.239999771118164,nan,nan,nan,0.8100000023841858,2,0,0,True,"(11.74000072479248,)",(),id1,
2025/07/05/17:44:17.283977,14599,1751712257,282277423,,0.0,0.0,0.009999999776482582,nan,nan,nan,-0.009999999776482582,2,0,0,True,(),(),,
2025/07/05/17:44:17.323598,14600,1751712257,323148768,,11.714000701904297,0.0,-12.139999389648438,nan,nan,nan,0.8100000023841858,2,0,0,True,"(11.714000701904297,)",(),id1,
2025/07/05/17:44:17.426374,14601,1751712257,425784577,,0.0,0.0,0.009999999776482582,nan,nan,nan,-0.009999999776482582,2,0,0,True,(),(),,
2025/07/05/17:44:17.542846,14602,1751712257,542223676,,11.858000755310059,0.0,-6.339999675750732,nan,nan,nan,0.8100000023841858,2,0,0,True,"(11.858000755310059,)",(),id1,
2025/07/05/17:44:17.582500,14603,1751712257,581961199,,0.0,0.0,0.009999999776482582,nan,nan,nan,-0.009999999776482582,2,0,0,True,(),(),,
2025/07/05/17:44:17.625930,14604,1751712257,625342759,,11.867000579833984,0.0,-5.670000076293945,nan,nan,nan,0.8100000023841858,2,0,0,True,"(11.867000579833984,)",(),id1,
2025/07/05/17:44:17.663728,14605,1751712257,663095912,,0.0,0.0,0.009999999776482582,nan,nan,nan,-0.009999999776482582,2,0,0,True,(),(),,
2025/07/05/17:44:17.723904,14606,1751712257,723412093,,11.897000312805176,0.0,-4.210000038146973,nan,nan,nan,0.8100000023841858,2,0,0,True,"(11.897000312805176,)",(),id1,
2025/07/05/17:44:17.763212,14607,1751712257,762028209,,0.0,0.0,0.009999999776482582,nan,nan,nan,-0.009999999776482582,2,0,0,True,(),(),,
2025/07/05/17:44:17.805829,14608,1751712257,804463987,,11.897000312805176,0.0,-4.210000038146973,nan,nan,nan,0.8100000023841858,2,0,0,True,"(11.897000312805176,)",(),id1,
2025/07/05/17:44:17.863019,14609,1751712257,862354595,,0.0,0.0,0.009999999776482582,nan,nan,nan,-0.009999999776482582,2,0,0,True,(),(),,
2025/07/05/17:44:17.943284,14610,1751712257,942268906,,11.974000930786133,0.0,-0.2800000011920929,nan,nan,nan,0.8100000023841858,2,0,0,True,"(11.974000930786133,)",(),id1,
2025/07/05/17:44:17.984243,14611,1751712257,983419317,,0.0,0.0,0.009999999776482582,nan,nan,nan,-0.009999999776482582,2,0,0,True,(),(),,
2025/07/05/17:44:18.027435,14612,1751712258,26353599,,11.982000350952148,0.0,-0.25,nan,nan,nan,0.8100000023841858,2,0,0,True,"(11.982000350952148,)",(),id1,
2025/07/05/17:44:18.062687,14613,1751712258,61996687,,0.0,0.0,0.009999999776482582,nan,nan,nan,-0.009999999776482582,2,0,0,True,(),(),,
2025/07/05/17:44:18.103976,14614,1751712258,103696080,,11.982000350952148,0.0,-0.25,nan,nan,nan,0.8100000023841858,2,0,0,True,"(11.982000350952148,)",(),id1,
2025/07/05/17:44:18.163041,14615,1751712258,162321950,,0.0,0.0,0.009999999776482582,nan,nan,nan,-0.009999999776482582,2,0,0,True,(),(),,
2025/07/05/17:44:18.204671,14616,1751712258,203897163,,11.97900104522705,0.0,-0.23999999463558197,nan,nan,nan,0.8100000023841858,2,0,0,True,"(11.97900104522705,)",(),id1,
2025/07/05/17:44:18.242598,14617,1751712258,241796150,,0.0,0.0,0.009999999776482582,nan,nan,nan,-0.009999999776482582,2,0,0,True,(),(),,
2025/07/05/17:44:18.303721,14618,1751712258,303407106,,11.981000900268555,0.0,-0.25,nan,nan,nan,0.8100000023841858,2,0,0,True,"(11.981000900268555,)",(),id1,
2025/07/05/17:44:18.342201,14619,1751712258,341905713,,0.0,0.0,0.009999999776482582,nan,nan,nan,-0.009999999776482582,2,0,0,True,(),(),,
2025/07/05/17:44:18.444276,14620,1751712258,443436672,,11.988000869750977,0.0,-0.25,nan,nan,nan,0.8100000023841858,2,0,0,True,"(11.988000869750977,)",(),id1,
2025/07/05/17:44:18.503912,14621,1751712258,503228050,,0.0,0.0,0.009999999776482582,nan,nan,nan,-0.009999999776482582,2,0,0,True,(),(),,
2025/07/05/17:44:18.584426,14622,1751712258,583480081,,11.987000465393066,0.0,-0.25999999046325684,nan,nan,nan,0.8100000023841858,2,0,0,True,"(11.987000465393066,)",(),id1,
2025/07/05/17:44:18.628562,14623,1751712258,626117683,,0.0,0.0,0.009999999776482582,nan,nan,nan,-0.009999999776482582,2,0,0,True,(),(),,
2025/07/05/17:44:18.665184,14624,1751712258,663370762,,11.986001014709473,0.0,-0.25999999046325684,nan,nan,nan,0.8100000023841858,2,0,0,True,"(11.986001014709473,)",(),id1,
2025/07/05/17:44:18.705001,14625,1751712258,703556533,,0.0,0.0,0.009999999776482582,nan,nan,nan,-0.009999999776482582,2,0,0,True,(),(),,
2025/07/05/17:44:18.743391,14626,1751712258,742345021,,11.98900032043457,0.0,-0.25,nan,nan,nan,0.8100000023841858,2,0,0,True,"(11.98900032043457,)",(),id1,
2025/07/05/17:44:18.784432,14627,1751712258,782332388,,0.0,0.0,0.009999999776482582,nan,nan,nan,-0.009999999776482582,2,0,0,True,(),(),,
2025/07/05/17:44:18.825455,14628,1751712258,825085230,,11.988000869750977,0.0,-0.25,nan,nan,nan,0.8100000023841858,2,0,0,True,"(11.988000869750977,)",(),id1,
2025/07/05/17:44:18.862508,14629,1751712258,861758936,,0.0,0.0,0.009999999776482582,nan,nan,nan,-0.009999999776482582,2,0,0,True,(),(),,
2025/07/05/17:44:18.924114,14630,1751712258,923471031,,11.988000869750977,0.0,-0.25999999046325684,nan,nan,nan,0.8100000023841858,2,0,0,True,"(11.988000869750977,)",(),id1,
2025/07/05/17:44:18.982593,14631,1751712258,981790298,,0.0,0.0,0.009999999776482582,nan,nan,nan,-0.009999999776482582,2,0,0,True,(),(),,
2025/07/05/17:44:19.025426,14632,1751712259,25107797,,11.988000869750977,0.0,-0.25,nan,nan,nan,0.8100000023841858,2,0,0,True,"(11.988000869750977,)",(),id1,
2025/07/05/17:44:19.062749,14633,1751712259,62301839,,0.0,0.0,0.009999999776482582,nan,nan,nan,-0.009999999776482582,2,0,0,True,(),(),,
2025/07/05/17:44:19.122645,14634,1751712259,122096237,,11.91100025177002,0.0,-3.429999828338623,nan,nan,nan,0.8100000023841858,2,0,0,True,"(11.91100025177002,)",(),id1,
2025/07/05/17:44:19.163342,14635,1751712259,162435746,,0.0,0.0,0.009999999776482582,nan,nan,nan,-0.009999999776482582,2,0,0,True,(),(),,
2025/07/05/17:44:19.225838,14636,1751712259,225226119,,11.894001007080078,0.0,-6.230000019073486,nan,nan,nan,0.8100000023841858,2,0,0,True,"(11.894001007080078,)",(),id1,
2025/07/05/17:44:19.263717,14637,1751712259,263381938,,0.0,0.0,0.009999999776482582,nan,nan,nan,-0.009999999776482582,2,0,0,True,(),(),,
2025/07/05/17:44:19.322744,14638,1751712259,322128919,,11.975000381469727,0.0,-0.5600000023841858,nan,nan,nan,0.8100000023841858,2,0,0,True,"(11.975000381469727,)",(),id1,
2025/07/05/17:44:19.362996,14639,1751712259,362459395,,0.0,0.0,0.009999999776482582,nan,nan,nan,-0.009999999776482582,2,0,0,True,(),(),,
2025/07/05/17:44:19.523640,14640,1751712259,523253103,,11.982000350952148,0.0,-0.41999998688697815,nan,nan,nan,0.8100000023841858,2,0,0,True,"(11.982000350952148,)",(),id1,
2025/07/05/17:44:19.562656,14641,1751712259,561798960,,0.0,0.0,0.009999999776482582,nan,nan,nan,-0.009999999776482582,2,0,0,True,(),(),,
2025/07/05/17:44:19.606323,14642,1751712259,604900181,,11.982000350952148,0.0,-0.41999998688697815,nan,nan,nan,0.8100000023841858,2,0,0,True,"(11.982000350952148,)",(),id1,
2025/07/05/17:44:19.643344,14643,1751712259,642691119,,0.0,0.0,0.009999999776482582,nan,nan,nan,-0.009999999776482582,2,0,0,True,(),(),,
2025/07/05/17:44:19.684085,14644,1751712259,682649679,,11.988000869750977,0.0,-0.25999999046325684,nan,nan,nan,0.8100000023841858,2,0,0,True,"(11.988000869750977,)",(),id1,
2025/07/05/17:44:19.742220,14645,1751712259,741930092,,0.0,0.0,0.009999999776482582,nan,nan,nan,-0.009999999776482582,2,0,0,True,(),(),,
2025/07/05/17:44:19.804277,14646,1751712259,803770739,,11.988000869750977,0.0,-0.25,nan,nan,nan,0.8100000023841858,2,0,0,True,"(11.988000869750977,)",(),id1,
2025/07/05/17:44:19.843437,14647,1751712259,842038647,,0.0,0.0,0.009999999776482582,nan,nan,nan,-0.009999999776482582,2,0,0,True,(),(),,
2025/07/05/17:44:19.923791,14648,1751712259,923147243,,11.955000877380371,0.0,-0.19999998807907104,nan,nan,nan,0.8100000023841858,2,0,0,True,"(11.955000877380371,)",(),id1,
2025/07/05/17:44:19.963166,14649,1751712259,962360867,,0.0,0.0,0.009999999776482582,nan,nan,nan,-0.009999999776482582,2,0,0,True,(),(),,
2025/07/05/17:44:20.005147,14650,1751712260,4582383,,11.955000877380371,0.0,-0.19999998807907104,nan,nan,nan,0.8100000023841858,2,0,0,True,"(11.955000877380371,)",(),id1,
2025/07/05/17:44:20.063114,14651,1751712260,62410306,,0.0,0.0,0.009999999776482582,nan,nan,nan,-0.009999999776482582,2,0,0,True,(),(),,
2025/07/05/17:44:20.123997,14652,1751712260,123444753,,11.998000144958496,0.0,-0.25999999046325684,nan,nan,nan,0.8100000023841858,2,0,0,True,"(11.998000144958496,)",(),id1,
2025/07/05/17:44:20.163034,14653,1751712260,162668636,,0.0,0.0,0.009999999776482582,nan,nan,nan,-0.009999999776482582,2,0,0,True,(),(),,
2025/07/05/17:44:20.226024,14654,1751712260,225647352,,11.97700023651123,0.0,-1.090000033378601,nan,nan,nan,0.8100000023841858,2,0,0,True,"(11.97700023651123,)",(),id1,
2025/07/05/17:44:20.262967,14655,1751712260,262377692,,0.0,0.0,0.009999999776482582,nan,nan,nan,-0.009999999776482582,2,0,0,True,(),(),,
2025/07/05/17:44:20.322685,14656,1751712260,322069530,,11.981000900268555,0.0,-0.6800000071525574,nan,nan,nan,0.8100000023841858,2,0,0,True,"(11.981000900268555,)",(),id1,
2025/07/05/17:44:20.363861,14657,1751712260,362352117,,0.0,0.0,0.009999999776482582,nan,nan,nan,-0.009999999776482582,2,0,0,True,(),(),,
2025/07/05/17:44:20.522690,14658,1751712260,522206483,,11.97900104522705,0.0,-0.4599999785423279,nan,nan,nan,0.8100000023841858,2,0,0,True,"(11.97900104522705,)",(),id1,
2025/07/05/17:44:20.563027,14659,1751712260,562409491,,0.0,0.0,0.009999999776482582,nan,nan,nan,-0.009999999776482582,2,0,0,True,(),(),,
2025/07/05/17:44:20.625672,14660,1751712260,625218838,,11.983000755310059,0.0,-0.4699999988079071,nan,nan,nan,0.8100000023841858,2,0,0,True,"(11.983000755310059,)",(),id1,
2025/07/05/17:44:20.663445,14661,1751712260,662394244,,0.0,0.0,0.009999999776482582,nan,nan,nan,-0.009999999776482582,2,0,0,True,(),(),,
2025/07/05/17:44:20.722757,14662,1751712260,722217293,,11.983000755310059,0.0,-0.4599999785423279,nan,nan,nan,0.8100000023841858,2,0,0,True,"(11.983000755310059,)",(),id1,
2025/07/05/17:44:20.762990,14663,1751712260,762458380,,0.0,0.0,0.009999999776482582,nan,nan,nan,-0.009999999776482582,2,0,0,True,(),(),,
2025/07/05/17:44:20.805146,14664,1751712260,804427915,,11.983000755310059,0.0,-0.4599999785423279,nan,nan,nan,0.8100000023841858,2,0,0,True,"(11.983000755310059,)",(),id1,
2025/07/05/17:44:20.862690,14665,1751712260,862249591,,0.0,0.0,0.009999999776482582,nan,nan,nan,-0.009999999776482582,2,0,0,True,(),(),,
2025/07/05/17:44:20.943392,14666,1751712260,942127536,,11.982000350952148,0.0,-0.4599999785423279,nan,nan,nan,0.8100000023841858,2,0,0,True,"(11.982000350952148,)",(),id1,
2025/07/05/17:44:20.982102,14667,1751712260,981728144,,0.0,0.0,0.009999999776482582,nan,nan,nan,-0.009999999776482582,2,0,0,True,(),(),,
2025/07/05/17:44:21.025704,14668,1751712261,25231883,,11.982000350952148,0.0,-0.47999998927116394,nan,nan,nan,0.8100000023841858,2,0,0,True,"(11.982000350952148,)",(),id1,
2025/07/05/17:44:21.062797,14669,1751712261,62323422,,0.0,0.0,0.009999999776482582,nan,nan,nan,-0.009999999776482582,2,0,0,True,(),(),,
2025/07/05/17:44:21.123894,14670,1751712261,123221698,,11.985000610351562,0.0,-0.4699999988079071,nan,nan,nan,0.8100000023841858,2,0,0,True,"(11.985000610351562,)",(),id1,
2025/07/05/17:44:21.163215,14671,1751712261,162262286,,0.0,0.0,0.009999999776482582,nan,nan,nan,-0.009999999776482582,2,0,0,True,(),(),,
2025/07/05/17:44:21.225437,14672,1751712261,225080059,,11.983000755310059,0.0,-0.4699999988079071,nan,nan,nan,0.8100000023841858,2,0,0,True,"(11.983000755310059,)",(),id1,
2025/07/05/17:44:21.263095,14673,1751712261,262103061,,0.0,0.0,0.009999999776482582,nan,nan,nan,-0.009999999776482582,2,0,0,True,(),(),,
2025/07/05/17:44:21.322702,14674,1751712261,322195258,,11.983000755310059,0.0,-0.4899999797344208,nan,nan,nan,0.8100000023841858,2,0,0,True,"(11.983000755310059,)",(),id1,
2025/07/05/17:44:21.362698,14675,1751712261,362187486,,0.0,0.0,0.009999999776482582,nan,nan,nan,-0.009999999776482582,2,0,0,True,(),(),,
2025/07/05/17:44:21.503576,14676,1751712261,503141948,,11.984000205993652,0.0,-0.4899999797344208,nan,nan,nan,0.8100000023841858,2,0,0,True,"(11.984000205993652,)",(),id1,
2025/07/05/17:44:21.542719,14677,1751712261,541919899,,0.0,0.0,0.009999999776482582,nan,nan,nan,-0.009999999776482582,2,0,0,True,(),(),,
2025/07/05/17:44:21.604020,14678,1751712261,603084531,,11.980000495910645,0.0,-0.4699999988079071,nan,nan,nan,0.8100000023841858,2,0,0,True,"(11.980000495910645,)",(),id1,
2025/07/05/17:44:21.643410,14679,1751712261,642427001,,0.0,0.0,0.009999999776482582,nan,nan,nan,-0.009999999776482582,2,0,0,True,(),(),,
2025/07/05/17:44:21.684376,14680,1751712261,683828096,,11.985000610351562,0.0,-0.47999998927116394,nan,nan,nan,0.8100000023841858,2,0,0,True,"(11.985000610351562,)",(),id1,
2025/07/05/17:44:21.723113,14681,1751712261,722500770,,0.0,0.0,0.009999999776482582,nan,nan,nan,-0.009999999776482582,2,0,0,True,(),(),,
2025/07/05/17:44:21.782448,14682,1751712261,781265445,,11.983000755310059,0.0,-0.47999998927116394,nan,nan,nan,0.8100000023841858,2,0,0,True,"(11.983000755310059,)",(),id1,
2025/07/05/17:44:21.826214,14683,1751712261,825648226,,0.0,0.0,0.009999999776482582,nan,nan,nan,-0.009999999776482582,2,0,0,True,(),(),,
2025/07/05/17:44:21.863316,14684,1751712261,862350070,,11.985000610351562,0.0,-0.4699999988079071,nan,nan,nan,0.8100000023841858,2,0,0,True,"(11.985000610351562,)",(),id1,
2025/07/05/17:44:21.943312,14685,1751712261,942305391,,0.0,0.0,0.009999999776482582,nan,nan,nan,-0.009999999776482582,2,0,0,True,(),(),,
2025/07/05/17:44:22.004501,14686,1751712262,4022412,,11.985000610351562,0.0,-0.4899999797344208,nan,nan,nan,0.8100000023841858,2,0,0,True,"(11.985000610351562,)",(),id1,
2025/07/05/17:44:22.044494,14687,1751712262,42113706,,0.0,0.0,0.009999999776482582,nan,nan,nan,-0.009999999776482582,2,0,0,True,(),(),,
2025/07/05/17:44:22.102038,14688,1751712262,101861109,,11.986001014709473,0.0,-0.47999998927116394,nan,nan,nan,0.8100000023841858,2,0,0,True,"(11.986001014709473,)",(),id1,
2025/07/05/17:44:22.141955,14689,1751712262,141717466,,0.0,0.0,0.009999999776482582,nan,nan,nan,-0.009999999776482582,2,0,0,True,(),(),,
2025/07/05/17:44:22.203806,14690,1751712262,203370087,,11.97800064086914,0.0,-0.9399999976158142,nan,nan,nan,0.8100000023841858,2,0,0,True,"(11.97800064086914,)",(),id1,
2025/07/05/17:44:22.243219,14691,1751712262,241589617,,0.0,0.0,0.009999999776482582,nan,nan,nan,-0.009999999776482582,2,0,0,True,(),(),,
2025/07/05/17:44:22.303786,14692,1751712262,303246054,,11.981000900268555,0.0,-0.7099999785423279,nan,nan,nan,0.8100000023841858,2,0,0,True,"(11.981000900268555,)",(),id1,
2025/07/05/17:44:22.341962,14693,1751712262,341634291,,0.0,0.0,0.009999999776482582,nan,nan,nan,-0.009999999776482582,2,0,0,True,(),(),,
2025/07/05/17:44:22.462746,14694,1751712262,462149273,,11.97900104522705,0.0,-0.6200000047683716,nan,nan,nan,0.8100000023841858,2,0,0,True,"(11.97900104522705,)",(),id1,
2025/07/05/17:44:22.523747,14695,1751712262,523155880,,0.0,0.0,0.009999999776482582,nan,nan,nan,-0.009999999776482582,2,0,0,True,(),(),,
2025/07/05/17:44:22.562708,14696,1751712262,562396148,,11.985000610351562,0.0,-0.4899999797344208,nan,nan,nan,0.8100000023841858,2,0,0,True,"(11.985000610351562,)",(),id1,
2025/07/05/17:44:22.626007,14697,1751712262,625264825,,0.0,0.0,0.009999999776482582,nan,nan,nan,-0.009999999776482582,2,0,0,True,(),(),,
2025/07/05/17:44:22.662609,14698,1751712262,662222278,,11.984000205993652,0.0,-0.4699999988079071,nan,nan,nan,0.8100000023841858,2,0,0,True,"(11.984000205993652,)",(),id1,
2025/07/05/17:44:22.704609,14699,1751712262,703149671,,0.0,0.0,0.009999999776482582,nan,nan,nan,-0.009999999776482582,2,0,0,True,(),(),,
2025/07/05/17:44:22.743285,14700,1751712262,742246601,,11.985000610351562,0.0,-0.5,nan,nan,nan,0.8100000023841858,2,0,0,True,"(11.985000610351562,)",(),id1,
2025/07/05/17:44:22.782533,14701,1751712262,782338018,,0.0,0.0,0.009999999776482582,nan,nan,nan,-0.009999999776482582,2,0,0,True,(),(),,
2025/07/05/17:44:22.825576,14702,1751712262,825159124,,11.985000610351562,0.0,-0.4699999988079071,nan,nan,nan,0.8100000023841858,2,0,0,True,"(11.985000610351562,)",(),id1,
2025/07/05/17:44:22.862315,14703,1751712262,861762716,,0.0,0.0,0.009999999776482582,nan,nan,nan,-0.009999999776482582,2,0,0,True,(),(),,
2025/07/05/17:44:22.924022,14704,1751712262,923692452,,11.987000465393066,0.0,-0.4699999988079071,nan,nan,nan,0.8100000023841858,2,0,0,True,"(11.987000465393066,)",(),id1,
2025/07/05/17:44:22.983283,14705,1751712262,982469022,,0.0,0.0,0.009999999776482582,nan,nan,nan,-0.009999999776482582,2,0,0,True,(),(),,
2025/07/05/17:44:23.026049,14706,1751712263,25316300,,11.985000610351562,0.0,-0.4699999988079071,nan,nan,nan,0.8100000023841858,2,0,0,True,"(11.985000610351562,)",(),id1,
2025/07/05/17:44:23.062320,14707,1751712263,61718238,,0.0,0.0,0.009999999776482582,nan,nan,nan,-0.009999999776482582,2,0,0,True,(),(),,
2025/07/05/17:44:23.122745,14708,1751712263,122176293,,11.983000755310059,0.0,-0.5199999809265137,nan,nan,nan,0.8100000023841858,2,0,0,True,"(11.983000755310059,)",(),id1,
2025/07/05/17:44:23.162978,14709,1751712263,162447710,,0.0,0.0,0.009999999776482582,nan,nan,nan,-0.009999999776482582,2,0,0,True,(),(),,
2025/07/05/17:44:23.204922,14710,1751712263,204395855,,11.983000755310059,0.0,-0.5199999809265137,nan,nan,nan,0.8100000023841858,2,0,0,True,"(11.983000755310059,)",(),id1,
2025/07/05/17:44:23.262740,14711,1751712263,262501943,,0.0,0.0,0.009999999776482582,nan,nan,nan,-0.009999999776482582,2,0,0,True,(),(),,
2025/07/05/17:44:23.323785,14712,1751712263,323081720,,11.97900104522705,0.0,-1.2200000286102295,nan,nan,nan,0.8100000023841858,2,0,0,True,"(11.97900104522705,)",(),id1,
2025/07/05/17:44:23.362309,14713,1751712263,361771658,,0.0,0.0,0.009999999776482582,nan,nan,nan,-0.009999999776482582,2,0,0,True,(),(),,
2025/07/05/17:44:23.483320,14714,1751712263,482309430,,11.98900032043457,0.0,-0.44999998807907104,nan,nan,nan,0.8100000023841858,2,0,0,True,"(11.98900032043457,)",(),id1,
2025/07/05/17:44:23.523793,14715,1751712263,523645923,,0.0,0.0,0.009999999776482582,nan,nan,nan,-0.009999999776482582,2,0,0,True,(),(),,
2025/07/05/17:44:23.603698,14716,1751712263,603031165,,11.986001014709473,0.0,-0.44999998807907104,nan,nan,nan,0.8100000023841858,2,0,0,True,"(11.986001014709473,)",(),id1,
2025/07/05/17:44:23.642337,14717,1751712263,641832198,,0.0,0.0,0.009999999776482582,nan,nan,nan,-0.009999999776482582,2,0,0,True,(),(),,
2025/07/05/17:44:23.702550,14718,1751712263,702197248,,11.985000610351562,0.0,-0.47999998927116394,nan,nan,nan,0.8100000023841858,2,0,0,True,"(11.985000610351562,)",(),id1,
2025/07/05/17:44:23.743680,14719,1751712263,742273745,,0.0,0.0,0.009999999776482582,nan,nan,nan,-0.009999999776482582,2,0,0,True,(),(),,
2025/07/05/17:44:23.784954,14720,1751712263,783568938,,11.987000465393066,0.0,-0.4399999976158142,nan,nan,nan,0.8100000023841858,2,0,0,True,"(11.987000465393066,)",(),id1,
2025/07/05/17:44:23.825570,14721,1751712263,825190362,,0.0,0.0,0.009999999776482582,nan,nan,nan,-0.009999999776482582,2,0,0,True,(),(),,
2025/07/05/17:44:23.862752,14722,1751712263,862257490,,11.99000072479248,0.0,-0.429999977350235,nan,nan,nan,0.8100000023841858,2,0,0,True,"(11.99000072479248,)",(),id1,
2025/07/05/17:44:23.903761,14723,1751712263,903218523,,0.0,0.0,0.009999999776482582,nan,nan,nan,-0.009999999776482582,2,0,0,True,(),(),,
2025/07/05/17:44:23.962832,14724,1751712263,962418888,,11.986001014709473,0.0,-0.4599999785423279,nan,nan,nan,0.8100000023841858,2,0,0,True,"(11.986001014709473,)",(),id1,
2025/07/05/17:44:24.026259,14725,1751712264,25183591,,0.0,0.0,0.009999999776482582,nan,nan,nan,-0.009999999776482582,2,0,0,True,(),(),,
2025/07/05/17:44:24.062397,14726,1751712264,62079930,,11.988000869750977,0.0,-0.4399999976158142,nan,nan,nan,0.8100000023841858,2,0,0,True,"(11.988000869750977,)",(),id1,
2025/07/05/17:44:24.103013,14727,1751712264,102537541,,0.0,0.0,0.009999999776482582,nan,nan,nan,-0.009999999776482582,2,0,0,True,(),(),,
2025/07/05/17:44:24.143087,14728,1751712264,142268721,,11.987000465393066,0.0,-0.44999998807907104,nan,nan,nan,0.8100000023841858,2,0,0,True,"(11.987000465393066,)",(),id1,
2025/07/05/17:44:24.204353,14729,1751712264,203415450,,0.0,0.0,0.009999999776482582,nan,nan,nan,-0.009999999776482582,2,0,0,True,(),(),,
2025/07/05/17:44:24.241549,14730,1751712264,241043230,,12.00100040435791,0.0,-0.3199999928474426,nan,nan,nan,0.8100000023841858,2,0,0,True,"(12.00100040435791,)",(),id1,
2025/07/05/17:44:24.284322,14731,1751712264,282947873,,0.0,0.0,0.009999999776482582,nan,nan,nan,-0.009999999776482582,2,0,0,True,(),(),,
2025/07/05/17:44:24.341593,14732,1751712264,341158490,,11.98900032043457,0.0,-0.23999999463558197,nan,nan,nan,0.8100000023841858,2,0,0,True,"(11.98900032043457,)",(),id1,
2025/07/05/17:44:24.382393,14733,1751712264,382127418,,0.0,0.0,0.009999999776482582,nan,nan,nan,-0.009999999776482582,2,0,0,True,(),(),,
2025/07/05/17:44:24.541592,14734,1751712264,541121998,,11.92400074005127,0.0,-0.17000000178813934,nan,nan,nan,0.8100000023841858,2,0,0,True,"(11.92400074005127,)",(),id1,
2025/07/05/17:44:24.582614,14735,1751712264,581749549,,0.0,0.0,0.009999999776482582,nan,nan,nan,-0.009999999776482582,2,0,0,True,(),(),,
2025/07/05/17:44:24.625872,14736,1751712264,625450740,,11.884000778198242,0.0,-0.14000000059604645,nan,nan,nan,0.8100000023841858,2,0,0,True,"(11.884000778198242,)",(),id1,
2025/07/05/17:44:24.662842,14737,1751712264,662198441,,0.0,0.0,0.009999999776482582,nan,nan,nan,-0.009999999776482582,2,0,0,True,(),(),,
2025/07/05/17:44:24.723046,14738,1751712264,722372972,,11.960000991821289,0.0,-0.19999998807907104,nan,nan,nan,0.8100000023841858,2,0,0,True,"(11.960000991821289,)",(),id1,
2025/07/05/17:44:24.762939,14739,1751712264,762272315,,0.0,0.0,0.009999999776482582,nan,nan,nan,-0.009999999776482582,2,0,0,True,(),(),,
2025/07/05/17:44:24.805391,14740,1751712264,804240681,,11.960000991821289,0.0,-0.19999998807907104,nan,nan,nan,0.8100000023841858,2,0,0,True,"(11.960000991821289,)",(),id1,
2025/07/05/17:44:24.863470,14741,1751712264,862271874,,0.0,0.0,0.009999999776482582,nan,nan,nan,-0.009999999776482582,2,0,0,True,(),(),,
2025/07/05/17:44:24.943237,14742,1751712264,942190147,,11.987000465393066,0.0,-0.2199999988079071,nan,nan,nan,0.8100000023841858,2,0,0,True,"(11.987000465393066,)",(),id1,
2025/07/05/17:44:25.003891,14743,1751712265,3199474,,0.0,0.0,0.009999999776482582,nan,nan,nan,-0.009999999776482582,2,0,0,True,(),(),,
2025/07/05/17:44:25.041503,14744,1751712265,41127371,,11.996000289916992,0.0,-0.25,nan,nan,nan,0.8100000023841858,2,0,0,True,"(11.996000289916992,)",(),id1,
2025/07/05/17:44:25.084055,14745,1751712265,83352671,,0.0,0.0,0.009999999776482582,nan,nan,nan,-0.009999999776482582,2,0,0,True,(),(),,
2025/07/05/17:44:25.141549,14746,1751712265,141058300,,12.000000953674316,0.0,-0.23999999463558197,nan,nan,nan,0.8100000023841858,2,0,0,True,"(12.000000953674316,)",(),id1,
2025/07/05/17:44:25.181921,14747,1751712265,181613467,,0.0,0.0,0.009999999776482582,nan,nan,nan,-0.009999999776482582,2,0,0,True,(),(),,
2025/07/05/17:44:25.225840,14748,1751712265,225466595,,11.999000549316406,0.0,-0.23999999463558197,nan,nan,nan,0.8100000023841858,2,0,0,True,"(11.999000549316406,)",(),id1,
2025/07/05/17:44:25.262303,14749,1751712265,261664725,,0.0,0.0,0.009999999776482582,nan,nan,nan,-0.009999999776482582,2,0,0,True,(),(),,
2025/07/05/17:44:25.322413,14750,1751712265,322102554,,12.00100040435791,0.0,-0.23999999463558197,nan,nan,nan,0.8100000023841858,2,0,0,True,"(12.00100040435791,)",(),id1,
2025/07/05/17:44:25.363013,14751,1751712265,362659616,,0.0,0.0,0.009999999776482582,nan,nan,nan,-0.009999999776482582,2,0,0,True,(),(),,
2025/07/05/17:44:25.463112,14752,1751712265,462310195,,11.998000144958496,0.0,-0.23999999463558197,nan,nan,nan,0.8100000023841858,2,0,0,True,"(11.998000144958496,)",(),id1,
2025/07/05/17:44:25.543322,14753,1751712265,542585578,,0.0,0.0,0.009999999776482582,nan,nan,nan,-0.009999999776482582,2,0,0,True,(),(),,
2025/07/05/17:44:25.603860,14754,1751712265,603408999,,12.004000663757324,0.0,-0.23999999463558197,nan,nan,nan,0.8100000023841858,2,0,0,True,"(12.004000663757324,)",(),id1,
2025/07/05/17:44:25.643787,14755,1751712265,641942350,,0.0,0.0,0.009999999776482582,nan,nan,nan,-0.009999999776482582,2,0,0,True,(),(),,
2025/07/05/17:44:25.684505,14756,1751712265,682849862,,12.007000923156738,0.0,-0.25,nan,nan,nan,0.8100000023841858,2,0,0,True,"(12.007000923156738,)",(),id1,
2025/07/05/17:44:25.742613,14757,1751712265,742309131,,0.0,0.0,0.009999999776482582,nan,nan,nan,-0.009999999776482582,2,0,0,True,(),(),,
2025/07/05/17:44:25.804246,14758,1751712265,803605455,,12.006000518798828,0.0,-0.25,nan,nan,nan,0.8100000023841858,2,0,0,True,"(12.006000518798828,)",(),id1,
2025/07/05/17:44:25.841837,14759,1751712265,841533182,,0.0,0.0,0.009999999776482582,nan,nan,nan,-0.009999999776482582,2,0,0,True,(),(),,
2025/07/05/17:44:25.884074,14760,1751712265,882849382,,12.006000518798828,0.0,-0.25,nan,nan,nan,0.8100000023841858,2,0,0,True,"(12.006000518798828,)",(),id1,
2025/07/05/17:44:25.923132,14761,1751712265,922483022,,0.0,0.0,0.009999999776482582,nan,nan,nan,-0.009999999776482582,2,0,0,True,(),(),,
2025/07/05/17:44:25.983547,14762,1751712265,982807110,,12.006000518798828,0.0,-0.25999999046325684,nan,nan,nan,0.8100000023841858,2,0,0,True,"(12.006000518798828,)",(),id1,
2025/07/05/17:44:26.042170,14763,1751712266,41704342,,0.0,0.0,0.009999999776482582,nan,nan,nan,-0.009999999776482582,2,0,0,True,(),(),,
2025/07/05/17:44:26.103919,14764,1751712266,103473034,,12.008000373840332,0.0,-0.25999999046325684,nan,nan,nan,0.8100000023841858,2,0,0,True,"(12.008000373840332,)",(),id1,
2025/07/05/17:44:26.145572,14765,1751712266,141490437,,0.0,0.0,0.009999999776482582,nan,nan,nan,-0.009999999776482582,2,0,0,True,(),(),,
2025/07/05/17:44:26.203968,14766,1751712266,203402303,,12.008000373840332,0.0,-0.25999999046325684,nan,nan,nan,0.8100000023841858,2,0,0,True,"(12.008000373840332,)",(),id1,
2025/07/05/17:44:26.242031,14767,1751712266,241638868,,0.0,0.0,0.009999999776482582,nan,nan,nan,-0.009999999776482582,2,0,0,True,(),(),,
2025/07/05/17:44:26.304149,14768,1751712266,303654414,,12.008000373840332,0.0,-0.25999999046325684,nan,nan,nan,0.8100000023841858,2,0,0,True,"(12.008000373840332,)",(),id1,
2025/07/05/17:44:26.341658,14769,1751712266,341495939,,0.0,0.0,0.009999999776482582,nan,nan,nan,-0.009999999776482582,2,0,0,True,(),(),,
2025/07/05/17:44:26.426839,14770,1751712266,426297383,,12.005000114440918,0.0,-0.23999999463558197,nan,nan,nan,0.8100000023841858,2,0,0,True,"(12.005000114440918,)",(),id1,
2025/07/05/17:44:26.482278,14771,1751712266,481786759,,0.0,0.0,0.009999999776482582,nan,nan,nan,-0.009999999776482582,2,0,0,True,(),(),,
2025/07/05/17:44:26.543181,14772,1751712266,542266677,,12.009000778198242,0.0,-0.25,nan,nan,nan,0.8100000023841858,2,0,0,True,"(12.009000778198242,)",(),id1,
2025/07/05/17:44:26.581977,14773,1751712266,581474775,,0.0,0.0,0.009999999776482582,nan,nan,nan,-0.009999999776482582,2,0,0,True,(),(),,
2025/07/05/17:44:26.625586,14774,1751712266,625139436,,12.008000373840332,0.0,-0.25,nan,nan,nan,0.8100000023841858,2,0,0,True,"(12.008000373840332,)",(),id1,
2025/07/05/17:44:26.662579,14775,1751712266,662138933,,0.0,0.0,0.009999999776482582,nan,nan,nan,-0.009999999776482582,2,0,0,True,(),(),,
2025/07/05/17:44:26.722627,14776,1751712266,722112109,,12.008000373840332,0.0,-0.25,nan,nan,nan,0.8100000023841858,2,0,0,True,"(12.008000373840332,)",(),id1,
2025/07/05/17:44:26.763324,14777,1751712266,762338260,,0.0,0.0,0.009999999776482582,nan,nan,nan,-0.009999999776482582,2,0,0,True,(),(),,
2025/07/05/17:44:26.805542,14778,1751712266,804254608,,12.008000373840332,0.0,-0.25,nan,nan,nan,0.8100000023841858,2,0,0,True,"(12.008000373840332,)",(),id1,
2025/07/05/17:44:26.863031,14779,1751712266,862353930,,0.0,0.0,0.009999999776482582,nan,nan,nan,-0.009999999776482582,2,0,0,True,(),(),,
2025/07/05/17:44:26.942380,14780,1751712266,942073052,,12.008000373840332,0.0,-0.25999999046325684,nan,nan,nan,0.8100000023841858,2,0,0,True,"(12.008000373840332,)",(),id1,
2025/07/05/17:44:26.982194,14781,1751712266,981670789,,0.0,0.0,0.009999999776482582,nan,nan,nan,-0.009999999776482582,2,0,0,True,(),(),,
2025/07/05/17:44:27.025809,14782,1751712267,25219484,,12.006000518798828,0.0,-0.23999999463558197,nan,nan,nan,0.8100000023841858,2,0,0,True,"(12.006000518798828,)",(),id1,
2025/07/05/17:44:27.063104,14783,1751712267,62340347,,0.0,0.0,0.009999999776482582,nan,nan,nan,-0.009999999776482582,2,0,0,True,(),(),,
2025/07/05/17:44:27.123006,14784,1751712267,122406359,,12.008000373840332,0.0,-0.23999999463558197,nan,nan,nan,0.8100000023841858,2,0,0,True,"(12.008000373840332,)",(),id1,
2025/07/05/17:44:27.163065,14785,1751712267,162401324,,0.0,0.0,0.009999999776482582,nan,nan,nan,-0.009999999776482582,2,0,0,True,(),(),,
2025/07/05/17:44:27.204964,14786,1751712267,203957051,,12.008000373840332,0.0,-0.23999999463558197,nan,nan,nan,0.8100000023841858,2,0,0,True,"(12.008000373840332,)",(),id1,
2025/07/05/17:44:27.263155,14787,1751712267,262409769,,0.0,0.0,0.009999999776482582,nan,nan,nan,-0.009999999776482582,2,0,0,True,(),(),,
2025/07/05/17:44:27.322662,14788,1751712267,322117717,,12.004000663757324,0.0,-0.25,nan,nan,nan,0.8100000023841858,2,0,0,True,"(12.004000663757324,)",(),id1,
2025/07/05/17:44:27.362625,14789,1751712267,362254861,,0.0,0.0,0.009999999776482582,nan,nan,nan,-0.009999999776482582,2,0,0,True,(),(),,
2025/07/05/17:44:27.443428,14790,1751712267,442273145,,12.008000373840332,0.0,-0.25,nan,nan,nan,0.8100000023841858,2,0,0,True,"(12.008000373840332,)",(),id1,
2025/07/05/17:44:27.542262,14791,1751712267,541536525,,0.0,0.0,0.009999999776482582,nan,nan,nan,-0.009999999776482582,2,0,0,True,(),(),,
2025/07/05/17:44:27.603913,14792,1751712267,603519075,,12.007000923156738,0.0,-0.25,nan,nan,nan,0.8100000023841858,2,0,0,True,"(12.007000923156738,)",(),id1,
2025/07/05/17:44:27.641573,14793,1751712267,641350742,,0.0,0.0,0.009999999776482582,nan,nan,nan,-0.009999999776482582,2,0,0,True,(),(),,
2025/07/05/17:44:27.684575,14794,1751712267,683296578,,12.007000923156738,0.0,-0.25,nan,nan,nan,0.8100000023841858,2,0,0,True,"(12.007000923156738,)",(),id1,
2025/07/05/17:44:27.742424,14795,1751712267,742079617,,0.0,0.0,0.009999999776482582,nan,nan,nan,-0.009999999776482582,2,0,0,True,(),(),,
2025/07/05/17:44:27.804087,14796,1751712267,803670357,,12.008000373840332,0.0,-0.23999999463558197,nan,nan,nan,0.8100000023841858,2,0,0,True,"(12.008000373840332,)",(),id1,
2025/07/05/17:44:27.842399,14797,1751712267,842115971,,0.0,0.0,0.009999999776482582,nan,nan,nan,-0.009999999776482582,2,0,0,True,(),(),,
2025/07/05/17:44:27.923988,14798,1751712267,923477212,,12.009000778198242,0.0,-0.25,nan,nan,nan,0.8100000023841858,2,0,0,True,"(12.009000778198242,)",(),id1,
2025/07/05/17:44:27.962969,14799,1751712267,962481076,,0.0,0.0,0.009999999776482582,nan,nan,nan,-0.009999999776482582,2,0,0,True,(),(),,
2025/07/05/17:44:28.025577,14800,1751712268,25095180,,12.004000663757324,0.0,-0.25,nan,nan,nan,0.8100000023841858,2,0,0,True,"(12.004000663757324,)",(),id1,
2025/07/05/17:44:28.063081,14801,1751712268,62729317,,0.0,0.0,0.009999999776482582,nan,nan,nan,-0.009999999776482582,2,0,0,True,(),(),,
2025/07/05/17:44:28.122914,14802,1751712268,122405243,,12.004000663757324,0.0,-0.23999999463558197,nan,nan,nan,0.8100000023841858,2,0,0,True,"(12.004000663757324,)",(),id1,
2025/07/05/17:44:28.162310,14803,1751712268,161488622,,0.0,0.0,0.009999999776482582,nan,nan,nan,-0.009999999776482582,2,0,0,True,(),(),,
2025/07/05/17:44:28.225641,14804,1751712268,225124206,,12.010000228881836,0.0,-0.23999999463558197,nan,nan,nan,0.8100000023841858,2,0,0,True,"(12.010000228881836,)",(),id1,
2025/07/05/17:44:28.262490,14805,1751712268,261690714,,0.0,0.0,0.009999999776482582,nan,nan,nan,-0.009999999776482582,2,0,0,True,(),(),,
2025/07/05/17:44:28.322489,14806,1751712268,322083557,,12.012001037597656,0.0,-0.25999999046325684,nan,nan,nan,0.8100000023841858,2,0,0,True,"(12.012001037597656,)",(),id1,
2025/07/05/17:44:28.362772,14807,1751712268,362308921,,0.0,0.0,0.009999999776482582,nan,nan,nan,-0.009999999776482582,2,0,0,True,(),(),,
2025/07/05/17:44:28.503268,14808,1751712268,503035845,,12.01300048828125,0.0,-0.25999999046325684,nan,nan,nan,0.8100000023841858,2,0,0,True,"(12.01300048828125,)",(),id1,
2025/07/05/17:44:28.562225,14809,1751712268,561464961,,0.0,0.0,0.009999999776482582,nan,nan,nan,-0.009999999776482582,2,0,0,True,(),(),,
2025/07/05/17:44:28.606004,14810,1751712268,604331029,,12.01400089263916,0.0,-0.25,nan,nan,nan,0.8100000023841858,2,0,0,True,"(12.01400089263916,)",(),id1,
2025/07/05/17:44:28.663139,14811,1751712268,662345135,,0.0,0.0,0.009999999776482582,nan,nan,nan,-0.009999999776482582,2,0,0,True,(),(),,
2025/07/05/17:44:28.722541,14812,1751712268,722156287,,12.012001037597656,0.0,-0.25,nan,nan,nan,0.8100000023841858,2,0,0,True,"(12.012001037597656,)",(),id1,
2025/07/05/17:44:28.762165,14813,1751712268,761446896,,0.0,0.0,0.009999999776482582,nan,nan,nan,-0.009999999776482582,2,0,0,True,(),(),,
2025/07/05/17:44:28.825305,14814,1751712268,824996802,,12.011000633239746,0.0,-0.25999999046325684,nan,nan,nan,0.8100000023841858,2,0,0,True,"(12.011000633239746,)",(),id1,
2025/07/05/17:44:28.862173,14815,1751712268,861504028,,0.0,0.0,0.009999999776482582,nan,nan,nan,-0.009999999776482582,2,0,0,True,(),(),,
2025/07/05/17:44:28.923003,14816,1751712268,922402779,,12.010000228881836,0.0,-0.23999999463558197,nan,nan,nan,0.8100000023841858,2,0,0,True,"(12.010000228881836,)",(),id1,
2025/07/05/17:44:28.963074,14817,1751712268,962292435,,0.0,0.0,0.009999999776482582,nan,nan,nan,-0.009999999776482582,2,0,0,True,(),(),,
2025/07/05/17:44:29.004221,14818,1751712269,3701198,,12.010000228881836,0.0,-0.23999999463558197,nan,nan,nan,0.8100000023841858,2,0,0,True,"(12.010000228881836,)",(),id1,
2025/07/05/17:44:29.042717,14819,1751712269,42023354,,0.0,0.0,0.009999999776482582,nan,nan,nan,-0.009999999776482582,2,0,0,True,(),(),,
2025/07/05/17:44:29.102934,14820,1751712269,102311418,,12.011000633239746,0.0,-0.22999998927116394,nan,nan,nan,0.8100000023841858,2,0,0,True,"(12.011000633239746,)",(),id1,
2025/07/05/17:44:29.142431,14821,1751712269,141993119,,0.0,0.0,0.009999999776482582,nan,nan,nan,-0.009999999776482582,2,0,0,True,(),(),,
2025/07/05/17:44:29.184396,14822,1751712269,183649693,,12.01300048828125,0.0,-0.25999999046325684,nan,nan,nan,0.8100000023841858,2,0,0,True,"(12.01300048828125,)",(),id1,
2025/07/05/17:44:29.242274,14823,1751712269,241984974,,0.0,0.0,0.009999999776482582,nan,nan,nan,-0.009999999776482582,2,0,0,True,(),(),,
2025/07/05/17:44:29.302413,14824,1751712269,302061800,,12.01400089263916,0.0,-0.25,nan,nan,nan,0.8100000023841858,2,0,0,True,"(12.01400089263916,)",(),id1,
2025/07/05/17:44:29.341842,14825,1751712269,341609941,,0.0,0.0,0.009999999776482582,nan,nan,nan,-0.009999999776482582,2,0,0,True,(),(),,
2025/07/05/17:44:29.425594,14826,1751712269,425220510,,12.015000343322754,0.0,-0.25999999046325684,nan,nan,nan,0.8100000023841858,2,0,0,True,"(12.015000343322754,)",(),id1,
2025/07/05/17:44:29.522949,14827,1751712269,522242086,,0.0,0.0,0.009999999776482582,nan,nan,nan,-0.009999999776482582,2,0,0,True,(),(),,
2025/07/05/17:44:29.582433,14828,1751712269,581357401,,12.008000373840332,0.0,-0.22999998927116394,nan,nan,nan,0.8100000023841858,2,0,0,True,"(12.008000373840332,)",(),id1,
2025/07/05/17:44:29.625718,14829,1751712269,625033368,,0.0,0.0,0.009999999776482582,nan,nan,nan,-0.009999999776482582,2,0,0,True,(),(),,
2025/07/05/17:44:29.662897,14830,1751712269,662311496,,12.016000747680664,0.0,-0.25,nan,nan,nan,0.8100000023841858,2,0,0,True,"(12.016000747680664,)",(),id1,
2025/07/05/17:44:29.705726,14831,1751712269,703371856,,0.0,0.0,0.009999999776482582,nan,nan,nan,-0.009999999776482582,2,0,0,True,(),(),,
2025/07/05/17:44:29.742875,14832,1751712269,742291266,,12.016000747680664,0.0,-0.25999999046325684,nan,nan,nan,0.8100000023841858,2,0,0,True,"(12.016000747680664,)",(),id1,
2025/07/05/17:44:29.783527,14833,1751712269,783183945,,0.0,0.0,0.009999999776482582,nan,nan,nan,-0.009999999776482582,2,0,0,True,(),(),,
2025/07/05/17:44:29.825729,14834,1751712269,825406010,,12.016000747680664,0.0,-0.25999999046325684,nan,nan,nan,0.8100000023841858,2,0,0,True,"(12.016000747680664,)",(),id1,
2025/07/05/17:44:29.862350,14835,1751712269,862161564,,0.0,0.0,0.009999999776482582,nan,nan,nan,-0.009999999776482582,2,0,0,True,(),(),,
2025/07/05/17:44:29.942873,14836,1751712269,942260498,,12.01400089263916,0.0,-0.25,nan,nan,nan,0.8100000023841858,2,0,0,True,"(12.01400089263916,)",(),id1,
2025/07/05/17:44:29.983024,14837,1751712269,982362007,,0.0,0.0,0.009999999776482582,nan,nan,nan,-0.009999999776482582,2,0,0,True,(),(),,
2025/07/05/17:44:30.025921,14838,1751712270,25573932,,12.016000747680664,0.0,-0.25,nan,nan,nan,0.8100000023841858,2,0,0,True,"(12.016000747680664,)",(),id1,
2025/07/05/17:44:30.062709,14839,1751712270,62328575,,0.0,0.0,0.009999999776482582,nan,nan,nan,-0.009999999776482582,2,0,0,True,(),(),,
2025/07/05/17:44:30.122511,14840,1751712270,122153071,,12.015000343322754,0.0,-0.25,nan,nan,nan,0.8100000023841858,2,0,0,True,"(12.015000343322754,)",(),id1,
2025/07/05/17:44:30.162955,14841,1751712270,162490947,,0.0,0.0,0.009999999776482582,nan,nan,nan,-0.009999999776482582,2,0,0,True,(),(),,
2025/07/05/17:44:30.205744,14842,1751712270,204619344,,12.015000343322754,0.0,-0.25,nan,nan,nan,0.8100000023841858,2,0,0,True,"(12.015000343322754,)",(),id1,
2025/07/05/17:44:30.262156,14843,1751712270,261445582,,0.0,0.0,0.009999999776482582,nan,nan,nan,-0.009999999776482582,2,0,0,True,(),(),,
2025/07/05/17:44:30.323107,14844,1751712270,322512334,,12.017000198364258,0.0,-0.25,nan,nan,nan,0.8100000023841858,2,0,0,True,"(12.017000198364258,)",(),id1,
2025/07/05/17:44:30.362683,14845,1751712270,361990984,,0.0,0.0,0.009999999776482582,nan,nan,nan,-0.009999999776482582,2,0,0,True,(),(),,
2025/07/05/17:44:30.445688,14846,1751712270,445354681,,12.017000198364258,0.0,-0.25,nan,nan,nan,0.8100000023841858,2,0,0,True,"(12.017000198364258,)",(),id1,
2025/07/05/17:44:30.503901,14847,1751712270,503483208,,0.0,0.0,0.009999999776482582,nan,nan,nan,-0.009999999776482582,2,0,0,True,(),(),,
2025/07/05/17:44:30.583752,14848,1751712270,582590955,,12.016000747680664,0.0,-0.25,nan,nan,nan,0.8100000023841858,2,0,0,True,"(12.016000747680664,)",(),id1,
2025/07/05/17:44:30.623350,14849,1751712270,622479024,,0.0,0.0,0.009999999776482582,nan,nan,nan,-0.009999999776482582,2,0,0,True,(),(),,
2025/07/05/17:44:30.663207,14850,1751712270,662496802,,12.017000198364258,0.0,-0.25,nan,nan,nan,0.8100000023841858,2,0,0,True,"(12.017000198364258,)",(),id1,
2025/07/05/17:44:30.722730,14851,1751712270,722045830,,0.0,0.0,0.009999999776482582,nan,nan,nan,-0.009999999776482582,2,0,0,True,(),(),,
2025/07/05/17:44:30.782352,14852,1751712270,781251203,,12.01300048828125,0.0,-0.23999999463558197,nan,nan,nan,0.8100000023841858,2,0,0,True,"(12.01300048828125,)",(),id1,
2025/07/05/17:44:30.823022,14853,1751712270,822429480,,0.0,0.0,0.009999999776482582,nan,nan,nan,-0.009999999776482582,2,0,0,True,(),(),,
2025/07/05/17:44:30.862078,14854,1751712270,861823905,,12.015000343322754,0.0,-0.25,nan,nan,nan,0.8100000023841858,2,0,0,True,"(12.015000343322754,)",(),id1,
2025/07/05/17:44:30.942259,14855,1751712270,941367087,,0.0,0.0,0.009999999776482582,nan,nan,nan,-0.009999999776482582,2,0,0,True,(),(),,
2025/07/05/17:44:31.003994,14856,1751712271,3434047,,12.017000198364258,0.0,-0.25,nan,nan,nan,0.8100000023841858,2,0,0,True,"(12.017000198364258,)",(),id1,
2025/07/05/17:44:31.043543,14857,1751712271,41818747,,0.0,0.0,0.009999999776482582,nan,nan,nan,-0.009999999776482582,2,0,0,True,(),(),,
2025/07/05/17:44:31.102628,14858,1751712271,102225896,,12.016000747680664,0.0,-0.25999999046325684,nan,nan,nan,0.8100000023841858,2,0,0,True,"(12.016000747680664,)",(),id1,
2025/07/05/17:44:31.142364,14859,1751712271,142126180,,0.0,0.0,0.009999999776482582,nan,nan,nan,-0.009999999776482582,2,0,0,True,(),(),,
2025/07/05/17:44:31.204105,14860,1751712271,203678349,,12.018000602722168,0.0,-0.25,nan,nan,nan,0.8100000023841858,2,0,0,True,"(12.018000602722168,)",(),id1,
2025/07/05/17:44:31.242168,14861,1751712271,241336400,,0.0,0.0,0.009999999776482582,nan,nan,nan,-0.009999999776482582,2,0,0,True,(),(),,
2025/07/05/17:44:31.302827,14862,1751712271,302251644,,12.015000343322754,0.0,-0.23999999463558197,nan,nan,nan,0.8100000023841858,2,0,0,True,"(12.015000343322754,)",(),id1,
2025/07/05/17:44:31.342348,14863,1751712271,341450399,,0.0,0.0,0.009999999776482582,nan,nan,nan,-0.009999999776482582,2,0,0,True,(),(),,
2025/07/05/17:44:31.404160,14864,1751712271,403918540,,12.017000198364258,0.0,-0.25,nan,nan,nan,0.8100000023841858,2,0,0,True,"(12.017000198364258,)",(),id1,
2025/07/05/17:44:31.463465,14865,1751712271,462436545,,0.0,0.0,0.009999999776482582,nan,nan,nan,-0.009999999776482582,2,0,0,True,(),(),,
2025/07/05/17:44:31.563274,14866,1751712271,562448640,,12.016000747680664,0.0,-0.23999999463558197,nan,nan,nan,0.8100000023841858,2,0,0,True,"(12.016000747680664,)",(),id1,
2025/07/05/17:44:31.604062,14867,1751712271,603342502,,0.0,0.0,0.009999999776482582,nan,nan,nan,-0.009999999776482582,2,0,0,True,(),(),,
2025/07/05/17:44:31.641509,14868,1751712271,641225086,,12.018000602722168,0.0,-0.25,nan,nan,nan,0.8100000023841858,2,0,0,True,"(12.018000602722168,)",(),id1,
2025/07/05/17:44:31.683190,14869,1751712271,682632523,,0.0,0.0,0.009999999776482582,nan,nan,nan,-0.009999999776482582,2,0,0,True,(),(),,
2025/07/05/17:44:31.723201,14870,1751712271,722400042,,12.017000198364258,0.0,-0.25,nan,nan,nan,0.8100000023841858,2,0,0,True,"(12.017000198364258,)",(),id1,
2025/07/05/17:44:31.784252,14871,1751712271,783626843,,0.0,0.0,0.009999999776482582,nan,nan,nan,-0.009999999776482582,2,0,0,True,(),(),,
2025/07/05/17:44:31.825818,14872,1751712271,825277633,,12.019001007080078,0.0,-0.25,nan,nan,nan,0.8100000023841858,2,0,0,True,"(12.019001007080078,)",(),id1,
2025/07/05/17:44:31.862043,14873,1751712271,861349497,,0.0,0.0,0.009999999776482582,nan,nan,nan,-0.009999999776482582,2,0,0,True,(),(),,
2025/07/05/17:44:31.942962,14874,1751712271,942290568,,12.017000198364258,0.0,-0.25,nan,nan,nan,0.8100000023841858,2,0,0,True,"(12.017000198364258,)",(),id1,
2025/07/05/17:44:31.981669,14875,1751712271,981325331,,0.0,0.0,0.009999999776482582,nan,nan,nan,-0.009999999776482582,2,0,0,True,(),(),,
2025/07/05/17:44:32.022832,14876,1751712272,22317335,,12.018000602722168,0.0,-0.25999999046325684,nan,nan,nan,0.8100000023841858,2,0,0,True,"(12.018000602722168,)",(),id1,
2025/07/05/17:44:32.062996,14877,1751712272,62593057,,0.0,0.0,0.009999999776482582,nan,nan,nan,-0.009999999776482582,2,0,0,True,(),(),,
2025/07/05/17:44:32.102993,14878,1751712272,102834380,,12.018000602722168,0.0,-0.25999999046325684,nan,nan,nan,0.8100000023841858,2,0,0,True,"(12.018000602722168,)",(),id1,
2025/07/05/17:44:32.161769,14879,1751712272,161220374,,0.0,0.0,0.009999999776482582,nan,nan,nan,-0.009999999776482582,2,0,0,True,(),(),,
2025/07/05/17:44:32.203585,14880,1751712272,203162260,,12.017000198364258,0.0,-0.25,nan,nan,nan,0.8100000023841858,2,0,0,True,"(12.017000198364258,)",(),id1,
2025/07/05/17:44:32.262993,14881,1751712272,262449974,,0.0,0.0,0.009999999776482582,nan,nan,nan,-0.009999999776482582,2,0,0,True,(),(),,
2025/07/05/17:44:32.322467,14882,1751712272,322182068,,12.019001007080078,0.0,-0.25999999046325684,nan,nan,nan,0.8100000023841858,2,0,0,True,"(12.019001007080078,)",(),id1,
2025/07/05/17:44:32.362813,14883,1751712272,362215547,,0.0,0.0,0.009999999776482582,nan,nan,nan,-0.009999999776482582,2,0,0,True,(),(),,
2025/07/05/17:44:32.482186,14884,1751712272,481678208,,12.017000198364258,0.0,-0.25,nan,nan,nan,0.8100000023841858,2,0,0,True,"(12.017000198364258,)",(),id1,
2025/07/05/17:44:32.563037,14885,1751712272,562368470,,0.0,0.0,0.009999999776482582,nan,nan,nan,-0.009999999776482582,2,0,0,True,(),(),,
2025/07/05/17:44:32.625611,14886,1751712272,625135206,,12.017000198364258,0.0,-0.25,nan,nan,nan,0.8100000023841858,2,0,0,True,"(12.017000198364258,)",(),id1,
2025/07/05/17:44:32.663019,14887,1751712272,662289666,,0.0,0.0,0.009999999776482582,nan,nan,nan,-0.009999999776482582,2,0,0,True,(),(),,
2025/07/05/17:44:32.722937,14888,1751712272,722351609,,12.017000198364258,0.0,-0.25,nan,nan,nan,0.8100000023841858,2,0,0,True,"(12.017000198364258,)",(),id1,
2025/07/05/17:44:32.783011,14889,1751712272,782407030,,0.0,0.0,0.009999999776482582,nan,nan,nan,-0.009999999776482582,2,0,0,True,(),(),,
2025/07/05/17:44:32.825267,14890,1751712272,825077131,,12.015000343322754,0.0,-0.25,nan,nan,nan,0.8100000023841858,2,0,0,True,"(12.015000343322754,)",(),id1,
2025/07/05/17:44:32.862823,14891,1751712272,862334588,,0.0,0.0,0.009999999776482582,nan,nan,nan,-0.009999999776482582,2,0,0,True,(),(),,
2025/07/05/17:44:32.942228,14892,1751712272,941978584,,12.017000198364258,0.0,-0.25,nan,nan,nan,0.8100000023841858,2,0,0,True,"(12.017000198364258,)",(),id1,
2025/07/05/17:44:32.982003,14893,1751712272,981342296,,0.0,0.0,0.009999999776482582,nan,nan,nan,-0.009999999776482582,2,0,0,True,(),(),,
2025/07/05/17:44:33.025831,14894,1751712273,25250513,,12.017000198364258,0.0,-0.25,nan,nan,nan,0.8100000023841858,2,0,0,True,"(12.017000198364258,)",(),id1,
2025/07/05/17:44:33.062280,14895,1751712273,61386245,,0.0,0.0,0.009999999776482582,nan,nan,nan,-0.009999999776482582,2,0,0,True,(),(),,
2025/07/05/17:44:33.122665,14896,1751712273,122275435,,12.016000747680664,0.0,-0.25,nan,nan,nan,0.8100000023841858,2,0,0,True,"(12.016000747680664,)",(),id1,
2025/07/05/17:44:33.162104,14897,1751712273,161424203,,0.0,0.0,0.009999999776482582,nan,nan,nan,-0.009999999776482582,2,0,0,True,(),(),,
2025/07/05/17:44:33.204007,14898,1751712273,203702363,,12.016000747680664,0.0,-0.25,nan,nan,nan,0.8100000023841858,2,0,0,True,"(12.016000747680664,)",(),id1,
2025/07/05/17:44:33.241868,14899,1751712273,241348187,,0.0,0.0,0.009999999776482582,nan,nan,nan,-0.009999999776482582,2,0,0,True,(),(),,
2025/07/05/17:44:33.302706,14900,1751712273,302284331,,12.015000343322754,0.0,-0.23999999463558197,nan,nan,nan,0.8100000023841858,2,0,0,True,"(12.015000343322754,)",(),id1,
2025/07/05/17:44:33.343063,14901,1751712273,342305870,,0.0,0.0,0.009999999776482582,nan,nan,nan,-0.009999999776482582,2,0,0,True,(),(),,
2025/07/05/17:44:33.442729,14902,1751712273,442156603,,12.018000602722168,0.0,-0.25999999046325684,nan,nan,nan,0.8100000023841858,2,0,0,True,"(12.018000602722168,)",(),id1,
2025/07/05/17:44:33.503484,14903,1751712273,502780812,,0.0,0.0,0.009999999776482582,nan,nan,nan,-0.009999999776482582,2,0,0,True,(),(),,
2025/07/05/17:44:33.562756,14904,1751712273,562301961,,12.016000747680664,0.0,-0.25,nan,nan,nan,0.8100000023841858,2,0,0,True,"(12.016000747680664,)",(),id1,
2025/07/05/17:44:33.603997,14905,1751712273,603099837,,0.0,0.0,0.009999999776482582,nan,nan,nan,-0.009999999776482582,2,0,0,True,(),(),,
2025/07/05/17:44:33.641389,14906,1751712273,641047955,,12.017000198364258,0.0,-0.25,nan,nan,nan,0.8100000023841858,2,0,0,True,"(12.017000198364258,)",(),id1,
2025/07/05/17:44:33.683078,14907,1751712273,682428999,,0.0,0.0,0.009999999776482582,nan,nan,nan,-0.009999999776482582,2,0,0,True,(),(),,
2025/07/05/17:44:33.741918,14908,1751712273,741350823,,12.016000747680664,0.0,-0.23999999463558197,nan,nan,nan,0.8100000023841858,2,0,0,True,"(12.016000747680664,)",(),id1,
2025/07/05/17:44:33.782212,14909,1751712273,781375171,,0.0,0.0,0.009999999776482582,nan,nan,nan,-0.009999999776482582,2,0,0,True,(),(),,
2025/07/05/17:44:33.825861,14910,1751712273,825297067,,12.019001007080078,0.0,-0.25,nan,nan,nan,0.8100000023841858,2,0,0,True,"(12.019001007080078,)",(),id1,
2025/07/05/17:44:33.862405,14911,1751712273,861644369,,0.0,0.0,0.009999999776482582,nan,nan,nan,-0.009999999776482582,2,0,0,True,(),(),,
2025/07/05/17:44:33.941604,14912,1751712273,941141555,,12.020000457763672,0.0,-0.25999999046325684,nan,nan,nan,0.8100000023841858,2,0,0,True,"(12.020000457763672,)",(),id1,
2025/07/05/17:44:33.982288,14913,1751712273,981401937,,0.0,0.0,0.009999999776482582,nan,nan,nan,-0.009999999776482582,2,0,0,True,(),(),,
2025/07/05/17:44:34.025864,14914,1751712274,25255327,,12.021000862121582,0.0,-0.25999999046325684,nan,nan,nan,0.8100000023841858,2,0,0,True,"(12.021000862121582,)",(),id1,
2025/07/05/17:44:34.062141,14915,1751712274,61943658,,0.0,0.0,0.009999999776482582,nan,nan,nan,-0.009999999776482582,2,0,0,True,(),(),,
2025/07/05/17:44:34.122421,14916,1751712274,122130907,,12.020000457763672,0.0,-0.25999999046325684,nan,nan,nan,0.8100000023841858,2,0,0,True,"(12.020000457763672,)",(),id1,
2025/07/05/17:44:34.162168,14917,1751712274,161328922,,0.0,0.0,0.009999999776482582,nan,nan,nan,-0.009999999776482582,2,0,0,True,(),(),,
