time,.header.seq,.header.stamp.secs,.header.stamp.nsecs,.header.frame_id,.status.status,.status.service,.latitude,.longitude,.altitude,.position_covariance,.position_covariance_type
2025/07/05/17:44:13.305102,6717,1751712253,278540352,base_link,0,1,-7.2870828,112.7959234,53.52515113789228,"(1.6205289999999997, 0.0, 0.0, 0.0, 1.6205289999999997, 0.0, 0.0, 0.0, 3.048516)",2
2025/07/05/17:44:13.403988,6718,1751712253,399548544,base_link,0,1,-7.2870827,112.7959233,53.525151079490755,"(1.6205289999999997, 0.0, 0.0, 0.0, 1.6205289999999997, 0.0, 0.0, 0.0, 3.048516)",2
2025/07/05/17:44:13.563015,6719,1751712253,558564160,base_link,0,1,-7.2870824,112.7959231,53.525151216496496,"(1.6307289999999999, 0.0, 0.0, 0.0, 1.6307289999999999, 0.0, 0.0, 0.0, 3.0590010000000003)",2
2025/07/05/17:44:13.663751,6720,1751712253,659573888,base_link,0,1,-7.2870823,112.795923,53.51515115809512,"(1.6307289999999999, 0.0, 0.0, 0.0, 1.6307289999999999, 0.0, 0.0, 0.0, 3.0590010000000003)",2
2025/07/05/17:44:13.763085,6721,1751712253,758580032,base_link,0,1,-7.2870822,112.7959229,53.51515109969377,"(1.640961, 0.0, 0.0, 0.0, 1.640961, 0.0, 0.0, 0.0, 3.0660009999999995)",2
2025/07/05/17:44:13.862952,6722,1751712253,858580032,base_link,0,1,-7.287082,112.7959227,53.51515098289117,"(1.653796, 0.0, 0.0, 0.0, 1.653796, 0.0, 0.0, 0.0, 3.0660009999999995)",2
2025/07/05/17:44:13.982126,6723,1751712253,978586944,base_link,0,1,-7.2870819,112.7959226,53.5151509244899,"(1.653796, 0.0, 0.0, 0.0, 1.653796, 0.0, 0.0, 0.0, 3.0660009999999995)",2
2025/07/05/17:44:14.062564,6724,1751712254,58592576,base_link,0,1,-7.2870818,112.7959225,53.515150866088604,"(1.6641000000000001, 0.0, 0.0, 0.0, 1.6641000000000001, 0.0, 0.0, 0.0, 3.0800249999999996)",2
2025/07/05/17:44:14.162307,6725,1751712254,158597184,base_link,0,1,-7.2870816,112.7959223,53.51515074928609,"(1.6641000000000001, 0.0, 0.0, 0.0, 1.6641000000000001, 0.0, 0.0, 0.0, 3.0800249999999996)",2
2025/07/05/17:44:14.262576,6726,1751712254,259604864,base_link,0,1,-7.2870815,112.7959222,53.50515069088493,"(1.6641000000000001, 0.0, 0.0, 0.0, 1.6641000000000001, 0.0, 0.0, 0.0, 3.0800249999999996)",2
2025/07/05/17:44:14.363014,6727,1751712254,358609728,base_link,0,1,-7.2870813,112.795922,53.505150574082506,"(1.671849, 0.0, 0.0, 0.0, 1.671849, 0.0, 0.0, 0.0, 3.1011209999999996)",2
2025/07/05/17:44:14.562992,6728,1751712254,558623808,base_link,0,1,-7.2870808,112.7959217,53.495150906499006,"(1.679616, 0.0, 0.0, 0.0, 1.679616, 0.0, 0.0, 0.0, 3.122289)",2
2025/07/05/17:44:14.642826,6729,1751712254,638623808,base_link,0,1,-7.2870807,112.7959216,53.485150848098115,"(1.679616, 0.0, 0.0, 0.0, 1.679616, 0.0, 0.0, 0.0, 3.122289)",2
2025/07/05/17:44:14.742288,6730,1751712254,738629696,base_link,0,1,-7.2870805,112.7959215,53.47515104350754,"(1.6822089999999998, 0.0, 0.0, 0.0, 1.6822089999999998, 0.0, 0.0, 0.0, 3.139984)",2
2025/07/05/17:44:14.842194,6731,1751712254,838636352,base_link,0,1,-7.2870803,112.7959214,53.47515123891722,"(1.6822089999999998, 0.0, 0.0, 0.0, 1.6822089999999998, 0.0, 0.0, 0.0, 3.139984)",2
2025/07/05/17:44:14.942497,6732,1751712254,938642496,base_link,0,1,-7.2870801,112.7959212,53.465151122115735,"(1.6589440000000002, 0.0, 0.0, 0.0, 1.6589440000000002, 0.0, 0.0, 0.0, 3.1011209999999996)",2
2025/07/05/17:44:15.042605,6733,1751712255,38649152,base_link,0,1,-7.2870799,112.7959211,53.465151317526015,"(1.6589440000000002, 0.0, 0.0, 0.0, 1.6589440000000002, 0.0, 0.0, 0.0, 3.1011209999999996)",2
2025/07/05/17:44:15.142494,6734,1751712255,138655296,base_link,0,1,-7.2870797,112.795921,53.46515151293655,"(1.643524, 0.0, 0.0, 0.0, 1.643524, 0.0, 0.0, 0.0, 3.0976)",2
2025/07/05/17:44:15.243566,6735,1751712255,238661184,base_link,0,1,-7.2870796,112.7959209,53.45515145453605,"(1.643524, 0.0, 0.0, 0.0, 1.643524, 0.0, 0.0, 0.0, 3.0976)",2
2025/07/05/17:44:15.343409,6736,1751712255,338667328,base_link,0,1,-7.2870794,112.7959208,53.45515164994704,"(1.6358409999999999, 0.0, 0.0, 0.0, 1.6358409999999999, 0.0, 0.0, 0.0, 3.0976)",2
2025/07/05/17:44:15.503606,6737,1751712255,499683200,base_link,0,1,-7.2870791,112.7959207,53.445152099169945,"(1.6358409999999999, 0.0, 0.0, 0.0, 1.6358409999999999, 0.0, 0.0, 0.0, 3.0976)",2
2025/07/05/17:44:15.605834,6738,1751712255,600688320,base_link,0,1,-7.2870789,112.7959206,53.44515229458176,"(1.6358409999999999, 0.0, 0.0, 0.0, 1.6358409999999999, 0.0, 0.0, 0.0, 3.1081689999999997)",2
2025/07/05/17:44:15.682842,6739,1751712255,678696768,base_link,0,1,-7.2870788,112.7959205,53.445152236181656,"(1.6384, 0.0, 0.0, 0.0, 1.6384, 0.0, 0.0, 0.0, 3.118756)",2
2025/07/05/17:44:15.782341,6740,1751712255,778704960,base_link,0,1,-7.2870786,112.7959203,53.445152119381476,"(1.6384, 0.0, 0.0, 0.0, 1.6384, 0.0, 0.0, 0.0, 3.118756)",2
2025/07/05/17:44:15.903563,6741,1751712255,899712640,base_link,0,1,-7.2870783,112.7959202,53.43515256860635,"(1.633284, 0.0, 0.0, 0.0, 1.633284, 0.0, 0.0, 0.0, 3.1152249999999997)",2
2025/07/05/17:44:16.004070,6742,1751712256,718272,base_link,0,1,-7.2870781,112.79592,53.43515245180662,"(1.633284, 0.0, 0.0, 0.0, 1.633284, 0.0, 0.0, 0.0, 3.1152249999999997)",2
2025/07/05/17:44:16.083606,6743,1751712256,78725440,base_link,0,1,-7.2870779,112.7959199,53.425152647219775,"(1.6205289999999997, 0.0, 0.0, 0.0, 1.6205289999999997, 0.0, 0.0, 0.0, 3.0800249999999996)",2
2025/07/05/17:44:16.182487,6744,1751712256,178732864,base_link,0,1,-7.2870776,112.7959198,53.42515309644635,"(1.6205289999999997, 0.0, 0.0, 0.0, 1.6205289999999997, 0.0, 0.0, 0.0, 3.0800249999999996)",2
2025/07/05/17:44:16.262378,6745,1751712256,258740544,base_link,0,1,-7.2870774,112.7959197,53.42515329186024,"(1.6078240000000001, 0.0, 0.0, 0.0, 1.6078240000000001, 0.0, 0.0, 0.0, 3.0450250000000003)",2
2025/07/05/17:44:16.362868,6746,1751712256,359746688,base_link,0,1,-7.2870772,112.7959196,53.42515348727447,"(1.6078240000000001, 0.0, 0.0, 0.0, 1.6078240000000001, 0.0, 0.0, 0.0, 3.0450250000000003)",2
2025/07/05/17:44:16.543051,6747,1751712256,538753600,base_link,0,1,-7.2870767,112.7959195,53.42515444413122,"(1.6078240000000001, 0.0, 0.0, 0.0, 1.6078240000000001, 0.0, 0.0, 0.0, 3.0450250000000003)",2
2025/07/05/17:44:16.626163,6748,1751712256,622759744,base_link,0,1,-7.2870765,112.7959194,53.42515463954665,"(1.602756, 0.0, 0.0, 0.0, 1.602756, 0.0, 0.0, 0.0, 3.0450250000000003)",2
2025/07/05/17:44:16.704236,6749,1751712256,699767680,base_link,0,1,-7.2870763,112.7959193,53.425154834962356,"(1.6002249999999998, 0.0, 0.0, 0.0, 1.6002249999999998, 0.0, 0.0, 0.0, 3.048516)",2
2025/07/05/17:44:16.805339,6750,1751712256,800775872,base_link,0,1,-7.287076,112.7959192,53.42515528419331,"(1.6002249999999998, 0.0, 0.0, 0.0, 1.6002249999999998, 0.0, 0.0, 0.0, 3.048516)",2
2025/07/05/17:44:16.883066,6751,1751712256,878782528,base_link,0,1,-7.2870757,112.7959191,53.4251557334252,"(1.5951689999999998, 0.0, 0.0, 0.0, 1.5951689999999998, 0.0, 0.0, 0.0, 3.048516)",2
2025/07/05/17:44:17.025893,6752,1751712257,21787904,base_link,0,1,-7.2870751,112.795919,53.42515694410535,"(1.5951689999999998, 0.0, 0.0, 0.0, 1.5951689999999998, 0.0, 0.0, 0.0, 3.048516)",2
2025/07/05/17:44:17.123634,6753,1751712257,119794048,base_link,0,1,-7.2870747,112.7959189,53.41515764715629,"(1.5951689999999998, 0.0, 0.0, 0.0, 1.5951689999999998, 0.0, 0.0, 0.0, 3.048516)",2
2025/07/05/17:44:17.203526,6754,1751712257,200801728,base_link,0,1,-7.2870743,112.7959188,53.41515835020877,"(1.5951689999999998, 0.0, 0.0, 0.0, 1.5951689999999998, 0.0, 0.0, 0.0, 3.048516)",2
2025/07/05/17:44:17.283815,6755,1751712257,278808896,base_link,0,1,-7.2870739,112.7959187,53.40515905326287,"(1.5951689999999998, 0.0, 0.0, 0.0, 1.5951689999999998, 0.0, 0.0, 0.0, 3.034564)",2
2025/07/05/17:44:17.426252,6756,1751712257,422813760,base_link,0,1,-7.2870731,112.7959185,53.40516045937604,"(1.5951689999999998, 0.0, 0.0, 0.0, 1.5951689999999998, 0.0, 0.0, 0.0, 3.034564)",2
2025/07/05/17:44:17.582430,6757,1751712257,578826816,base_link,0,1,-7.2870723,112.7959183,53.40516186549558,"(1.5951689999999998, 0.0, 0.0, 0.0, 1.5951689999999998, 0.0, 0.0, 0.0, 3.0276)",2
2025/07/05/17:44:17.663658,6758,1751712257,659833728,base_link,0,1,-7.2870718,112.7959182,53.415162822377454,"(1.592644, 0.0, 0.0, 0.0, 1.592644, 0.0, 0.0, 0.0, 3.0380490000000004)",2
2025/07/05/17:44:17.762509,6759,1751712257,758841920,base_link,0,1,-7.2870713,112.795918,53.4151634670462,"(1.592644, 0.0, 0.0, 0.0, 1.592644, 0.0, 0.0, 0.0, 3.0380490000000004)",2
2025/07/05/17:44:17.862814,6760,1751712257,859847808,base_link,0,1,-7.2870707,112.7959179,53.41516467775412,"(1.592644, 0.0, 0.0, 0.0, 1.592644, 0.0, 0.0, 0.0, 3.0380490000000004)",2
2025/07/05/17:44:17.983964,6761,1751712257,978852928,base_link,0,1,-7.28707,112.7959178,53.4151661422876,"(1.5901209999999997, 0.0, 0.0, 0.0, 1.5901209999999997, 0.0, 0.0, 0.0, 3.041536)",2
2025/07/05/17:44:18.062627,6762,1751712258,58858048,base_link,0,1,-7.2870697,112.7959177,53.41516659153703,"(1.5800489999999998, 0.0, 0.0, 0.0, 1.5800489999999998, 0.0, 0.0, 0.0, 3.0380490000000004)",2
2025/07/05/17:44:18.162869,6763,1751712258,159863936,base_link,0,1,-7.2870693,112.7959176,53.425167294609835,"(1.5800489999999998, 0.0, 0.0, 0.0, 1.5800489999999998, 0.0, 0.0, 0.0, 3.0380490000000004)",2
2025/07/05/17:44:18.242491,6764,1751712258,238863936,base_link,0,1,-7.2870689,112.7959175,53.425167997684284,"(1.5800489999999998, 0.0, 0.0, 0.0, 1.5800489999999998, 0.0, 0.0, 0.0, 3.0380490000000004)",2
2025/07/05/17:44:18.341952,6765,1751712258,338870592,base_link,0,1,-7.2870685,112.7959173,53.42516838854324,"(1.577536, 0.0, 0.0, 0.0, 1.577536, 0.0, 0.0, 0.0, 3.048516)",2
2025/07/05/17:44:18.503824,6766,1751712258,499883904,base_link,0,1,-7.2870679,112.7959171,53.43516928705136,"(1.577536, 0.0, 0.0, 0.0, 1.577536, 0.0, 0.0, 0.0, 3.048516)",2
2025/07/05/17:44:18.627882,6767,1751712258,622889792,base_link,0,1,-7.2870674,112.795917,53.435170243955746,"(1.577536, 0.0, 0.0, 0.0, 1.577536, 0.0, 0.0, 0.0, 3.055504)",2
2025/07/05/17:44:18.704559,6768,1751712258,699897984,base_link,0,1,-7.2870671,112.795917,53.44517100543027,"(1.5800489999999998, 0.0, 0.0, 0.0, 1.5800489999999998, 0.0, 0.0, 0.0, 3.0625)",2
2025/07/05/17:44:18.784060,6769,1751712258,778904384,base_link,0,1,-7.2870668,112.795917,53.445171766905844,"(1.5800489999999998, 0.0, 0.0, 0.0, 1.5800489999999998, 0.0, 0.0, 0.0, 3.0625)",2
2025/07/05/17:44:18.862283,6770,1751712258,858910272,base_link,0,1,-7.2870665,112.7959169,53.44517221616462,"(1.5800489999999998, 0.0, 0.0, 0.0, 1.5800489999999998, 0.0, 0.0, 0.0, 3.076516)",2
2025/07/05/17:44:18.982442,6771,1751712258,978916672,base_link,0,1,-7.2870661,112.7959169,53.44517323146846,"(1.5800489999999998, 0.0, 0.0, 0.0, 1.5800489999999998, 0.0, 0.0, 0.0, 3.076516)",2
2025/07/05/17:44:19.062640,6772,1751712259,59922048,base_link,0,1,-7.2870658,112.7959169,53.44517399294759,"(1.5750249999999997, 0.0, 0.0, 0.0, 1.5750249999999997, 0.0, 0.0, 0.0, 3.083536)",2
2025/07/05/17:44:19.163239,6773,1751712259,158930752,base_link,0,1,-7.2870654,112.7959169,53.445175008254836,"(1.5750249999999997, 0.0, 0.0, 0.0, 1.5750249999999997, 0.0, 0.0, 0.0, 3.083536)",2
2025/07/05/17:44:19.263432,6774,1751712259,258937920,base_link,0,1,-7.287065,112.7959169,53.445176023564045,"(1.5600010000000002, 0.0, 0.0, 0.0, 1.5600010000000002, 0.0, 0.0, 0.0, 3.083536)",2
2025/07/05/17:44:19.362917,6775,1751712259,359944320,base_link,0,1,-7.2870646,112.7959169,53.44517703887519,"(1.5600010000000002, 0.0, 0.0, 0.0, 1.5600010000000002, 0.0, 0.0, 0.0, 3.083536)",2
2025/07/05/17:44:19.562488,6776,1751712259,558957888,base_link,0,1,-7.2870639,112.7959169,53.45517881567439,"(1.552516, 0.0, 0.0, 0.0, 1.552516, 0.0, 0.0, 0.0, 3.0940809999999996)",2
2025/07/05/17:44:19.642965,6777,1751712259,638957888,base_link,0,1,-7.2870636,112.7959169,53.455179577161616,"(1.552516, 0.0, 0.0, 0.0, 1.552516, 0.0, 0.0, 0.0, 3.0940809999999996)",2
2025/07/05/17:44:19.742161,6778,1751712259,738963520,base_link,0,1,-7.2870632,112.7959169,53.45518059247961,"(1.542564, 0.0, 0.0, 0.0, 1.542564, 0.0, 0.0, 0.0, 3.0976)",2
2025/07/05/17:44:19.842242,6779,1751712259,838968640,base_link,0,1,-7.2870629,112.7959169,53.44518135396936,"(1.542564, 0.0, 0.0, 0.0, 1.542564, 0.0, 0.0, 0.0, 3.0976)",2
2025/07/05/17:44:19.962865,6780,1751712259,958982976,base_link,0,1,-7.2870625,112.795917,53.44518268151026,"(1.522756, 0.0, 0.0, 0.0, 1.522756, 0.0, 0.0, 0.0, 3.0870489999999995)",2
2025/07/05/17:44:20.062898,6781,1751712260,58991936,base_link,0,1,-7.2870622,112.795917,53.44518344300269,"(1.5030759999999999, 0.0, 0.0, 0.0, 1.5030759999999999, 0.0, 0.0, 0.0, 3.076516)",2
2025/07/05/17:44:20.162763,6782,1751712260,159000384,base_link,0,1,-7.2870619,112.7959171,53.43518451671593,"(1.5030759999999999, 0.0, 0.0, 0.0, 1.5030759999999999, 0.0, 0.0, 0.0, 3.076516)",2
2025/07/05/17:44:20.262880,6783,1751712260,260009088,base_link,0,1,-7.2870616,112.7959171,53.44518527821069,"(1.4737959999999999, 0.0, 0.0, 0.0, 1.4737959999999999, 0.0, 0.0, 0.0, 3.0660009999999995)",2
2025/07/05/17:44:20.363289,6784,1751712260,359014976,base_link,0,1,-7.2870613,112.7959171,53.445186039706556,"(1.4737959999999999, 0.0, 0.0, 0.0, 1.4737959999999999, 0.0, 0.0, 0.0, 3.0660009999999995)",2
2025/07/05/17:44:20.562942,6785,1751712260,559028800,base_link,0,1,-7.2870607,112.7959172,53.445187874921714,"(1.459264, 0.0, 0.0, 0.0, 1.459264, 0.0, 0.0, 0.0, 3.0800249999999996)",2
2025/07/05/17:44:20.663358,6786,1751712260,659037248,base_link,0,1,-7.2870604,112.7959172,53.445188636420966,"(1.459264, 0.0, 0.0, 0.0, 1.459264, 0.0, 0.0, 0.0, 3.0800249999999996)",2
2025/07/05/17:44:20.762759,6787,1751712260,759043136,base_link,0,1,-7.2870601,112.7959172,53.445189397921354,"(1.4520250000000001, 0.0, 0.0, 0.0, 1.4520250000000001, 0.0, 0.0, 0.0, 3.104644)",2
2025/07/05/17:44:20.862511,6788,1751712260,859051072,base_link,0,1,-7.2870599,112.7959173,53.445190217809255,"(1.4520250000000001, 0.0, 0.0, 0.0, 1.4520250000000001, 0.0, 0.0, 0.0, 3.104644)",2
2025/07/05/17:44:20.981977,6789,1751712260,979057216,base_link,0,1,-7.2870595,112.7959174,53.435191545366415,"(1.44, 0.0, 0.0, 0.0, 1.44, 0.0, 0.0, 0.0, 3.129361)",2
2025/07/05/17:44:21.062651,6790,1751712261,59062592,base_link,0,1,-7.2870593,112.7959174,53.445192053035555,"(1.428025, 0.0, 0.0, 0.0, 1.428025, 0.0, 0.0, 0.0, 3.154176)",2
2025/07/05/17:44:21.163089,6791,1751712261,159068736,base_link,0,1,-7.287059,112.7959175,53.445193126760955,"(1.428025, 0.0, 0.0, 0.0, 1.428025, 0.0, 0.0, 0.0, 3.154176)",2
2025/07/05/17:44:21.262476,6792,1751712261,259074880,base_link,0,1,-7.2870588,112.7959175,53.44519363443143,"(1.425636, 0.0, 0.0, 0.0, 1.425636, 0.0, 0.0, 0.0, 3.182656)",2
2025/07/05/17:44:21.362594,6793,1751712261,359081280,base_link,0,1,-7.2870585,112.7959176,53.4551947081588,"(1.425636, 0.0, 0.0, 0.0, 1.425636, 0.0, 0.0, 0.0, 3.182656)",2
2025/07/05/17:44:21.542584,6794,1751712261,539091264,base_link,0,1,-7.287058,112.7959177,53.45519628956011,"(1.425636, 0.0, 0.0, 0.0, 1.425636, 0.0, 0.0, 0.0, 3.182656)",2
2025/07/05/17:44:21.643128,6795,1751712261,639097664,base_link,0,1,-7.2870578,112.7959178,53.45519710945423,"(1.4232490000000002, 0.0, 0.0, 0.0, 1.4232490000000002, 0.0, 0.0, 0.0, 3.1969440000000002)",2
2025/07/05/17:44:21.722947,6796,1751712261,720103808,base_link,0,1,-7.2870576,112.7959178,53.45519761712784,"(1.420864, 0.0, 0.0, 0.0, 1.420864, 0.0, 0.0, 0.0, 3.2112640000000003)",2
2025/07/05/17:44:21.826034,6797,1751712261,823109952,base_link,0,1,-7.2870573,112.7959179,53.45519869086043,"(1.420864, 0.0, 0.0, 0.0, 1.420864, 0.0, 0.0, 0.0, 3.2112640000000003)",2
2025/07/05/17:44:21.943218,6798,1751712261,939116352,base_link,0,1,-7.287057,112.7959181,53.44520007681555,"(1.4161, 0.0, 0.0, 0.0, 1.4161, 0.0, 0.0, 0.0, 3.225616)",2
2025/07/05/17:44:22.044187,6799,1751712262,39121472,base_link,0,1,-7.2870568,112.7959182,53.44520089671272,"(1.4161, 0.0, 0.0, 0.0, 1.4161, 0.0, 0.0, 0.0, 3.225616)",2
2025/07/05/17:44:22.141704,6800,1751712262,139128128,base_link,0,1,-7.2870566,112.7959183,53.445201716610484,"(1.411344, 0.0, 0.0, 0.0, 1.411344, 0.0, 0.0, 0.0, 3.2328040000000002)",2
2025/07/05/17:44:22.243096,6801,1751712262,239134272,base_link,0,1,-7.2870563,112.7959184,53.445202790347565,"(1.411344, 0.0, 0.0, 0.0, 1.411344, 0.0, 0.0, 0.0, 3.2328040000000002)",2
2025/07/05/17:44:22.341909,6802,1751712262,339140672,base_link,0,1,-7.2870561,112.7959186,53.445203922468295,"(1.3994890000000002, 0.0, 0.0, 0.0, 1.3994890000000002, 0.0, 0.0, 0.0, 3.2328040000000002)",2
2025/07/05/17:44:22.503548,6803,1751712262,501153472,base_link,0,1,-7.2870557,112.7959188,53.445205562268825,"(1.3947610000000001, 0.0, 0.0, 0.0, 1.3947610000000001, 0.0, 0.0, 0.0, 3.236401)",2
2025/07/05/17:44:22.625789,6804,1751712262,622159616,base_link,0,1,-7.2870554,112.795919,53.44520694823163,"(1.3947610000000001, 0.0, 0.0, 0.0, 1.3947610000000001, 0.0, 0.0, 0.0, 3.236401)",2
2025/07/05/17:44:22.704462,6805,1751712262,700166016,base_link,0,1,-7.2870553,112.7959192,53.445207826515116,"(1.390041, 0.0, 0.0, 0.0, 1.390041, 0.0, 0.0, 0.0, 3.236401)",2
2025/07/05/17:44:22.782455,6806,1751712262,779172416,base_link,0,1,-7.2870551,112.7959193,53.43520864641763,"(1.390041, 0.0, 0.0, 0.0, 1.390041, 0.0, 0.0, 0.0, 3.236401)",2
2025/07/05/17:44:22.862231,6807,1751712262,859177536,base_link,0,1,-7.287055,112.7959194,53.43520921248,"(1.385329, 0.0, 0.0, 0.0, 1.385329, 0.0, 0.0, 0.0, 3.2076809999999996)",2
2025/07/05/17:44:22.983042,6808,1751712262,979184448,base_link,0,1,-7.2870548,112.7959196,53.43521034460522,"(1.385329, 0.0, 0.0, 0.0, 1.385329, 0.0, 0.0, 0.0, 3.2076809999999996)",2
2025/07/05/17:44:23.062167,6809,1751712263,59191872,base_link,0,1,-7.2870546,112.7959197,53.43521116450929,"(1.3759290000000002, 0.0, 0.0, 0.0, 1.3759290000000002, 0.0, 0.0, 0.0, 3.1969440000000002)",2
2025/07/05/17:44:23.162713,6810,1751712263,159197760,base_link,0,1,-7.2870544,112.7959199,53.435212296635875,"(1.3759290000000002, 0.0, 0.0, 0.0, 1.3759290000000002, 0.0, 0.0, 0.0, 3.1969440000000002)",2
2025/07/05/17:44:23.262619,6811,1751712263,259203904,base_link,0,1,-7.2870542,112.7959201,53.42521342876314,"(1.3759290000000002, 0.0, 0.0, 0.0, 1.3759290000000002, 0.0, 0.0, 0.0, 3.1969440000000002)",2
2025/07/05/17:44:23.362193,6812,1751712263,359208512,base_link,0,1,-7.287054,112.7959203,53.425214560891035,"(1.3479210000000001, 0.0, 0.0, 0.0, 1.3479210000000001, 0.0, 0.0, 0.0, 3.1684)",2
2025/07/05/17:44:23.523623,6813,1751712263,521214144,base_link,0,1,-7.2870537,112.7959205,53.425215946862366,"(1.334025, 0.0, 0.0, 0.0, 1.334025, 0.0, 0.0, 0.0, 3.1719609999999996)",2
2025/07/05/17:44:23.642040,6814,1751712263,639220032,base_link,0,1,-7.2870534,112.7959207,53.42521733283506,"(1.334025, 0.0, 0.0, 0.0, 1.334025, 0.0, 0.0, 0.0, 3.1719609999999996)",2
2025/07/05/17:44:23.743548,6815,1751712263,739225152,base_link,0,1,-7.2870532,112.7959209,53.43521846496571,"(1.3363359999999997, 0.0, 0.0, 0.0, 1.3363359999999997, 0.0, 0.0, 0.0, 3.1933689999999997)",2
2025/07/05/17:44:23.825483,6816,1751712263,823230528,base_link,0,1,-7.287053,112.795921,53.43521928487504,"(1.3363359999999997, 0.0, 0.0, 0.0, 1.3363359999999997, 0.0, 0.0, 0.0, 3.1933689999999997)",2
2025/07/05/17:44:23.903708,6817,1751712263,900236160,base_link,0,1,-7.2870528,112.7959211,53.43522010478497,"(1.338649, 0.0, 0.0, 0.0, 1.338649, 0.0, 0.0, 0.0, 3.1933689999999997)",2
2025/07/05/17:44:24.025791,6818,1751712264,23243072,base_link,0,1,-7.2870525,112.7959213,53.44522149076204,"(1.338649, 0.0, 0.0, 0.0, 1.338649, 0.0, 0.0, 0.0, 3.1933689999999997)",2
2025/07/05/17:44:24.102987,6819,1751712264,100249216,base_link,0,1,-7.2870523,112.7959214,53.4452223106735,"(1.3409639999999998, 0.0, 0.0, 0.0, 1.3409639999999998, 0.0, 0.0, 0.0, 3.1897960000000003)",2
2025/07/05/17:44:24.204113,6820,1751712264,201255872,base_link,0,1,-7.2870521,112.7959216,53.4452234428079,"(1.3409639999999998, 0.0, 0.0, 0.0, 1.3409639999999998, 0.0, 0.0, 0.0, 3.1897960000000003)",2
2025/07/05/17:44:24.284194,6821,1751712264,279263040,base_link,0,1,-7.2870519,112.7959218,53.44522457494293,"(1.3479210000000001, 0.0, 0.0, 0.0, 1.3479210000000001, 0.0, 0.0, 0.0, 3.1897960000000003)",2
2025/07/05/17:44:24.382296,6822,1751712264,379270464,base_link,0,1,-7.2870517,112.795922,53.445225707078606,"(1.3479210000000001, 0.0, 0.0, 0.0, 1.3479210000000001, 0.0, 0.0, 0.0, 3.1897960000000003)",2
2025/07/05/17:44:24.582281,6823,1751712264,579285312,base_link,0,1,-7.2870513,112.7959223,53.45522765912976,"(1.3548959999999999, 0.0, 0.0, 0.0, 1.3548959999999999, 0.0, 0.0, 0.0, 3.161284)",2
2025/07/05/17:44:24.662752,6824,1751712264,659290432,base_link,0,1,-7.2870511,112.7959224,53.45522847904515,"(1.3595559999999998, 0.0, 0.0, 0.0, 1.3595559999999998, 0.0, 0.0, 0.0, 3.157729)",2
2025/07/05/17:44:24.762783,6825,1751712264,760296832,base_link,0,1,-7.287051,112.7959226,53.455229357336705,"(1.3595559999999998, 0.0, 0.0, 0.0, 1.3595559999999998, 0.0, 0.0, 0.0, 3.157729)",2
2025/07/05/17:44:24.862885,6826,1751712264,859303232,base_link,0,1,-7.2870508,112.7959228,53.46523048947551,"(1.3618890000000001, 0.0, 0.0, 0.0, 1.3618890000000001, 0.0, 0.0, 0.0, 3.1755240000000002)",2
2025/07/05/17:44:25.003618,6827,1751712265,1310144,base_link,0,1,-7.2870505,112.7959231,53.46523218768498,"(1.3618890000000001, 0.0, 0.0, 0.0, 1.3618890000000001, 0.0, 0.0, 0.0, 3.1755240000000002)",2
2025/07/05/17:44:25.083966,6828,1751712265,79316800,base_link,0,1,-7.2870504,112.7959232,53.46523275375517,"(1.3688999999999998, 0.0, 0.0, 0.0, 1.3688999999999998, 0.0, 0.0, 0.0, 3.2005209999999997)",2
2025/07/05/17:44:25.181888,6829,1751712265,179324736,base_link,0,1,-7.2870502,112.7959234,53.46523388589605,"(1.3688999999999998, 0.0, 0.0, 0.0, 1.3688999999999998, 0.0, 0.0, 0.0, 3.2005209999999997)",2
2025/07/05/17:44:25.262073,6830,1751712265,259329600,base_link,0,1,-7.2870501,112.7959236,53.46523476418917,"(1.373584, 0.0, 0.0, 0.0, 1.373584, 0.0, 0.0, 0.0, 3.2041)",2
2025/07/05/17:44:25.362781,6831,1751712265,359335232,base_link,0,1,-7.2870499,112.7959238,53.46523589633113,"(1.373584, 0.0, 0.0, 0.0, 1.373584, 0.0, 0.0, 0.0, 3.2041)",2
2025/07/05/17:44:25.543069,6832,1751712265,539341888,base_link,0,1,-7.2870496,112.7959241,53.465237594545265,"(1.3782759999999998, 0.0, 0.0, 0.0, 1.3782759999999998, 0.0, 0.0, 0.0, 3.186225)",2
2025/07/05/17:44:25.643663,6833,1751712265,639347264,base_link,0,1,-7.2870495,112.7959242,53.46523816061701,"(1.3782759999999998, 0.0, 0.0, 0.0, 1.3782759999999998, 0.0, 0.0, 0.0, 3.186225)",2
2025/07/05/17:44:25.742558,6834,1751712265,739353408,base_link,0,1,-7.2870494,112.7959244,53.46523903891147,"(1.385329, 0.0, 0.0, 0.0, 1.385329, 0.0, 0.0, 0.0, 3.154176)",2
2025/07/05/17:44:25.841744,6835,1751712265,839358016,base_link,0,1,-7.2870492,112.7959246,53.47524017105579,"(1.385329, 0.0, 0.0, 0.0, 1.385329, 0.0, 0.0, 0.0, 3.154176)",2
2025/07/05/17:44:25.923036,6836,1751712265,920363648,base_link,0,1,-7.2870491,112.7959247,53.47524073712822,"(1.390041, 0.0, 0.0, 0.0, 1.390041, 0.0, 0.0, 0.0, 3.1364409999999996)",2
2025/07/05/17:44:26.042015,6837,1751712266,39368768,base_link,0,1,-7.2870489,112.7959249,53.48524186927365,"(1.390041, 0.0, 0.0, 0.0, 1.390041, 0.0, 0.0, 0.0, 3.1364409999999996)",2
2025/07/05/17:44:26.143157,6838,1751712266,139374144,base_link,0,1,-7.2870487,112.795925,53.48524268919705,"(1.3971239999999998, 0.0, 0.0, 0.0, 1.3971239999999998, 0.0, 0.0, 0.0, 3.1435289999999996)",2
2025/07/05/17:44:26.241711,6839,1751712266,239379008,base_link,0,1,-7.2870486,112.7959251,53.49524325527044,"(1.3971239999999998, 0.0, 0.0, 0.0, 1.3971239999999998, 0.0, 0.0, 0.0, 3.1435289999999996)",2
2025/07/05/17:44:26.341540,6840,1751712266,339384896,base_link,0,1,-7.2870484,112.7959253,53.4952443874174,"(1.404225, 0.0, 0.0, 0.0, 1.404225, 0.0, 0.0, 0.0, 3.154176)",2
2025/07/05/17:44:26.481965,6841,1751712266,479394880,base_link,0,1,-7.2870482,112.7959255,53.50524551956522,"(1.404225, 0.0, 0.0, 0.0, 1.404225, 0.0, 0.0, 0.0, 3.154176)",2
2025/07/05/17:44:26.581768,6842,1751712266,579399744,base_link,0,1,-7.287048,112.7959257,53.50524665171369,"(1.4137210000000002, 0.0, 0.0, 0.0, 1.4137210000000002, 0.0, 0.0, 0.0, 3.182656)",2
2025/07/05/17:44:26.662497,6843,1751712266,659405120,base_link,0,1,-7.2870479,112.7959258,53.505247217788195,"(1.420864, 0.0, 0.0, 0.0, 1.420864, 0.0, 0.0, 0.0, 3.2112640000000003)",2
2025/07/05/17:44:26.762939,6844,1751712266,759413312,base_link,0,1,-7.2870477,112.7959259,53.50524803771498,"(1.420864, 0.0, 0.0, 0.0, 1.420864, 0.0, 0.0, 0.0, 3.2112640000000003)",2
2025/07/05/17:44:26.862939,6845,1751712266,860421504,base_link,0,1,-7.2870476,112.7959261,53.50524891601273,"(1.420864, 0.0, 0.0, 0.0, 1.420864, 0.0, 0.0, 0.0, 3.2112640000000003)",2
2025/07/05/17:44:26.982065,6846,1751712266,979427392,base_link,0,1,-7.2870474,112.7959262,53.50524973594045,"(1.430416, 0.0, 0.0, 0.0, 1.430416, 0.0, 0.0, 0.0, 3.2328040000000002)",2
2025/07/05/17:44:27.062770,6847,1751712267,59433024,base_link,0,1,-7.2870472,112.7959263,53.50525055586883,"(1.435204, 0.0, 0.0, 0.0, 1.435204, 0.0, 0.0, 0.0, 3.243601)",2
2025/07/05/17:44:27.162963,6848,1751712267,159433024,base_link,0,1,-7.2870471,112.7959265,53.51525143416747,"(1.435204, 0.0, 0.0, 0.0, 1.435204, 0.0, 0.0, 0.0, 3.243601)",2
2025/07/05/17:44:27.263002,6849,1751712267,259439680,base_link,0,1,-7.2870469,112.7959266,53.515252254096865,"(1.435204, 0.0, 0.0, 0.0, 1.435204, 0.0, 0.0, 0.0, 3.243601)",2
2025/07/05/17:44:27.362489,6850,1751712267,359445824,base_link,0,1,-7.2870468,112.7959267,53.51525282017322,"(1.4376010000000001, 0.0, 0.0, 0.0, 1.4376010000000001, 0.0, 0.0, 0.0, 3.265249)",2
2025/07/05/17:44:27.542117,6851,1751712267,539454016,base_link,0,1,-7.2870465,112.7959268,53.52525389395744,"(1.4376010000000001, 0.0, 0.0, 0.0, 1.4376010000000001, 0.0, 0.0, 0.0, 3.265249)",2
2025/07/05/17:44:27.641514,6852,1751712267,639458880,base_link,0,1,-7.2870463,112.795927,53.535255026111685,"(1.4424010000000003, 0.0, 0.0, 0.0, 1.4424010000000003, 0.0, 0.0, 0.0, 3.2905960000000003)",2
2025/07/05/17:44:27.742359,6853,1751712267,739464000,base_link,0,1,-7.2870462,112.7959271,53.53525559218909,"(1.4472090000000002, 0.0, 0.0, 0.0, 1.4472090000000002, 0.0, 0.0, 0.0, 3.319684)",2
2025/07/05/17:44:27.842355,6854,1751712267,839470656,base_link,0,1,-7.2870461,112.7959272,53.545256158266604,"(1.4472090000000002, 0.0, 0.0, 0.0, 1.4472090000000002, 0.0, 0.0, 0.0, 3.319684)",2
2025/07/05/17:44:27.962821,6855,1751712267,959482688,base_link,0,1,-7.2870459,112.7959273,53.545256978199156,"(1.4544359999999998, 0.0, 0.0, 0.0, 1.4544359999999998, 0.0, 0.0, 0.0, 3.337929)",2
2025/07/05/17:44:28.062944,6856,1751712268,60488832,base_link,0,1,-7.2870457,112.7959274,53.54525779813233,"(1.4544359999999998, 0.0, 0.0, 0.0, 1.4544359999999998, 0.0, 0.0, 0.0, 3.337929)",2
2025/07/05/17:44:28.162152,6857,1751712268,159488832,base_link,0,1,-7.2870456,112.7959275,53.54525836421073,"(1.4616810000000002, 0.0, 0.0, 0.0, 1.4616810000000002, 0.0, 0.0, 0.0, 3.3525609999999997)",2
2025/07/05/17:44:28.262319,6858,1751712268,259493440,base_link,0,1,-7.2870454,112.7959276,53.54525918414476,"(1.4665210000000002, 0.0, 0.0, 0.0, 1.4665210000000002, 0.0, 0.0, 0.0, 3.356224)",2
2025/07/05/17:44:28.362649,6859,1751712268,359498816,base_link,0,1,-7.2870453,112.7959277,53.54525975022367,"(1.4665210000000002, 0.0, 0.0, 0.0, 1.4665210000000002, 0.0, 0.0, 0.0, 3.356224)",2
2025/07/05/17:44:28.562033,6860,1751712268,559507008,base_link,0,1,-7.2870451,112.7959278,53.55526057015875,"(1.468944, 0.0, 0.0, 0.0, 1.468944, 0.0, 0.0, 0.0, 3.341584)",2
2025/07/05/17:44:28.662848,6861,1751712268,659507008,base_link,0,1,-7.287045,112.7959279,53.555261136238144,"(1.468944, 0.0, 0.0, 0.0, 1.468944, 0.0, 0.0, 0.0, 3.341584)",2
2025/07/05/17:44:28.761838,6862,1751712268,759507008,base_link,0,1,-7.2870448,112.7959279,53.55526164395083,"(1.468944, 0.0, 0.0, 0.0, 1.468944, 0.0, 0.0, 0.0, 3.316041)",2
2025/07/05/17:44:28.862032,6863,1751712268,859512384,base_link,0,1,-7.2870447,112.795928,53.56526221003074,"(1.468944, 0.0, 0.0, 0.0, 1.468944, 0.0, 0.0, 0.0, 3.2905960000000003)",2
2025/07/05/17:44:28.962882,6864,1751712268,959519040,base_link,0,1,-7.2870447,112.795928,53.56526221003074,"(1.468944, 0.0, 0.0, 0.0, 1.468944, 0.0, 0.0, 0.0, 3.2905960000000003)",2
2025/07/05/17:44:29.042629,6865,1751712269,39519040,base_link,0,1,-7.2870446,112.7959281,53.56526277611081,"(1.468944, 0.0, 0.0, 0.0, 1.468944, 0.0, 0.0, 0.0, 3.2905960000000003)",2
2025/07/05/17:44:29.142351,6866,1751712269,139524160,base_link,0,1,-7.2870445,112.7959282,53.57526334219103,"(1.4665210000000002, 0.0, 0.0, 0.0, 1.4665210000000002, 0.0, 0.0, 0.0, 3.272481)",2
2025/07/05/17:44:29.242083,6867,1751712269,239524160,base_link,0,1,-7.2870444,112.7959283,53.57526390827142,"(1.4665210000000002, 0.0, 0.0, 0.0, 1.4665210000000002, 0.0, 0.0, 0.0, 3.272481)",2
2025/07/05/17:44:29.341708,6868,1751712269,339529024,base_link,0,1,-7.2870443,112.7959283,53.57526416212858,"(1.4641, 0.0, 0.0, 0.0, 1.4641, 0.0, 0.0, 0.0, 3.272481)",2
2025/07/05/17:44:29.522805,6869,1751712269,520539776,base_link,0,1,-7.2870442,112.7959285,53.58526504043276,"(1.4641, 0.0, 0.0, 0.0, 1.4641, 0.0, 0.0, 0.0, 3.272481)",2
2025/07/05/17:44:29.625611,6870,1751712269,623545664,base_link,0,1,-7.2870441,112.7959286,53.58526560651363,"(1.4616810000000002, 0.0, 0.0, 0.0, 1.4616810000000002, 0.0, 0.0, 0.0, 3.2869689999999996)",2
2025/07/05/17:44:29.704993,6871,1751712269,700552320,base_link,0,1,-7.2870441,112.7959287,53.58526591873711,"(1.459264, 0.0, 0.0, 0.0, 1.459264, 0.0, 0.0, 0.0, 3.3014889999999997)",2
2025/07/05/17:44:29.783331,6872,1751712269,779557184,base_link,0,1,-7.287044,112.7959288,53.58526648481818,"(1.459264, 0.0, 0.0, 0.0, 1.459264, 0.0, 0.0, 0.0, 3.3014889999999997)",2
2025/07/05/17:44:29.862309,6873,1751712269,859557184,base_link,0,1,-7.2870439,112.7959288,53.585266738676026,"(1.459264, 0.0, 0.0, 0.0, 1.459264, 0.0, 0.0, 0.0, 3.319684)",2
2025/07/05/17:44:29.982892,6874,1751712269,979563072,base_link,0,1,-7.2870438,112.7959289,53.585267304757465,"(1.459264, 0.0, 0.0, 0.0, 1.459264, 0.0, 0.0, 0.0, 3.319684)",2
2025/07/05/17:44:30.062619,6875,1751712270,59568192,base_link,0,1,-7.2870437,112.795929,53.585267870839104,"(1.4641, 0.0, 0.0, 0.0, 1.4641, 0.0, 0.0, 0.0, 3.3489000000000004)",2
2025/07/05/17:44:30.162868,6876,1751712270,159568192,base_link,0,1,-7.2870436,112.7959291,53.585268436920884,"(1.4641, 0.0, 0.0, 0.0, 1.4641, 0.0, 0.0, 0.0, 3.3489000000000004)",2
2025/07/05/17:44:30.262054,6877,1751712270,259568192,base_link,0,1,-7.2870436,112.7959291,53.585268436920884,"(1.4665210000000002, 0.0, 0.0, 0.0, 1.4665210000000002, 0.0, 0.0, 0.0, 3.3745689999999997)",2
2025/07/05/17:44:30.362491,6878,1751712270,359573312,base_link,0,1,-7.2870435,112.7959292,53.585269003002864,"(1.4665210000000002, 0.0, 0.0, 0.0, 1.4665210000000002, 0.0, 0.0, 0.0, 3.3745689999999997)",2
2025/07/05/17:44:30.503749,6879,1751712270,500580480,base_link,0,1,-7.2870434,112.7959293,53.58526956908493,"(1.4665210000000002, 0.0, 0.0, 0.0, 1.4665210000000002, 0.0, 0.0, 0.0, 3.3745689999999997)",2
2025/07/05/17:44:30.622958,6880,1751712270,620587392,base_link,0,1,-7.2870434,112.7959295,53.58527019353191,"(1.468944, 0.0, 0.0, 0.0, 1.468944, 0.0, 0.0, 0.0, 3.392964)",2
2025/07/05/17:44:30.722644,6881,1751712270,720594304,base_link,0,1,-7.2870433,112.7959295,53.585270447390755,"(1.4737959999999999, 0.0, 0.0, 0.0, 1.4737959999999999, 0.0, 0.0, 0.0, 3.4188009999999998)",2
2025/07/05/17:44:30.822942,6882,1751712270,820600704,base_link,0,1,-7.2870432,112.7959296,53.595271013473194,"(1.4737959999999999, 0.0, 0.0, 0.0, 1.4737959999999999, 0.0, 0.0, 0.0, 3.4188009999999998)",2
2025/07/05/17:44:30.942091,6883,1751712270,939606848,base_link,0,1,-7.2870431,112.7959297,53.59527157955591,"(1.478656, 0.0, 0.0, 0.0, 1.478656, 0.0, 0.0, 0.0, 3.426201)",2
2025/07/05/17:44:31.043384,6884,1751712271,39613504,base_link,0,1,-7.287043,112.7959298,53.59527214563869,"(1.478656, 0.0, 0.0, 0.0, 1.478656, 0.0, 0.0, 0.0, 3.426201)",2
2025/07/05/17:44:31.142308,6885,1751712271,139613504,base_link,0,1,-7.2870428,112.7959298,53.59527265335774,"(1.4835239999999998, 0.0, 0.0, 0.0, 1.4835239999999998, 0.0, 0.0, 0.0, 3.4225000000000003)",2
2025/07/05/17:44:31.241921,6886,1751712271,239618112,base_link,0,1,-7.2870427,112.7959299,53.595273219441054,"(1.4835239999999998, 0.0, 0.0, 0.0, 1.4835239999999998, 0.0, 0.0, 0.0, 3.4225000000000003)",2
2025/07/05/17:44:31.342078,6887,1751712271,339622976,base_link,0,1,-7.2870426,112.79593,53.59527378552457,"(1.4835239999999998, 0.0, 0.0, 0.0, 1.4835239999999998, 0.0, 0.0, 0.0, 3.404025)",2
2025/07/05/17:44:31.463259,6888,1751712271,459633728,base_link,0,1,-7.2870425,112.7959301,53.59527435160825,"(1.4835239999999998, 0.0, 0.0, 0.0, 1.4835239999999998, 0.0, 0.0, 0.0, 3.404025)",2
2025/07/05/17:44:31.603745,6889,1751712271,601639872,base_link,0,1,-7.2870423,112.7959302,53.59527517155246,"(1.481089, 0.0, 0.0, 0.0, 1.481089, 0.0, 0.0, 0.0, 3.3819209999999997)",2
2025/07/05/17:44:31.683007,6890,1751712271,680639872,base_link,0,1,-7.2870423,112.7959302,53.59527517155246,"(1.478656, 0.0, 0.0, 0.0, 1.478656, 0.0, 0.0, 0.0, 3.3525609999999997)",2
2025/07/05/17:44:31.784155,6891,1751712271,779639872,base_link,0,1,-7.2870422,112.7959302,53.60527542541292,"(1.478656, 0.0, 0.0, 0.0, 1.478656, 0.0, 0.0, 0.0, 3.3525609999999997)",2
2025/07/05/17:44:31.861829,6892,1751712271,859639872,base_link,0,1,-7.2870421,112.7959303,53.6052759914972,"(1.4713690000000001, 0.0, 0.0, 0.0, 1.4713690000000001, 0.0, 0.0, 0.0, 3.316041)",2
2025/07/05/17:44:31.981580,6893,1751712271,979646528,base_link,0,1,-7.2870421,112.7959303,53.6052759914972,"(1.4713690000000001, 0.0, 0.0, 0.0, 1.4713690000000001, 0.0, 0.0, 0.0, 3.316041)",2
2025/07/05/17:44:32.062598,6894,1751712272,59651648,base_link,0,1,-7.287042,112.7959304,53.60527655758177,"(1.4713690000000001, 0.0, 0.0, 0.0, 1.4713690000000001, 0.0, 0.0, 0.0, 3.316041)",2
2025/07/05/17:44:32.161632,6895,1751712272,159655488,base_link,0,1,-7.287042,112.7959305,53.605276869805444,"(1.4616810000000002, 0.0, 0.0, 0.0, 1.4616810000000002, 0.0, 0.0, 0.0, 3.2905960000000003)",2
2025/07/05/17:44:32.262880,6896,1751712272,260661120,base_link,0,1,-7.2870419,112.7959305,53.60527712366639,"(1.4616810000000002, 0.0, 0.0, 0.0, 1.4616810000000002, 0.0, 0.0, 0.0, 3.2905960000000003)",2
2025/07/05/17:44:32.362628,6897,1751712272,359666496,base_link,0,1,-7.2870419,112.7959306,53.60527743589015,"(1.4472090000000002, 0.0, 0.0, 0.0, 1.4472090000000002, 0.0, 0.0, 0.0, 3.261636)",2
2025/07/05/17:44:32.562862,6898,1751712272,560679296,base_link,0,1,-7.2870418,112.7959307,53.61527800197503,"(1.430416, 0.0, 0.0, 0.0, 1.430416, 0.0, 0.0, 0.0, 3.2005209999999997)",2
2025/07/05/17:44:32.662901,6899,1751712272,659679296,base_link,0,1,-7.2870418,112.7959307,53.61527800197503,"(1.3971239999999998, 0.0, 0.0, 0.0, 1.3971239999999998, 0.0, 0.0, 0.0, 3.118756)",2
2025/07/05/17:44:32.782866,6900,1751712272,779683136,base_link,0,1,-7.2870417,112.7959308,53.60527856806002,"(1.3971239999999998, 0.0, 0.0, 0.0, 1.3971239999999998, 0.0, 0.0, 0.0, 3.118756)",2
2025/07/05/17:44:32.862713,6901,1751712272,859683136,base_link,0,1,-7.2870417,112.7959309,53.605278880283755,"(1.3618890000000001, 0.0, 0.0, 0.0, 1.3618890000000001, 0.0, 0.0, 0.0, 3.048516)",2
2025/07/05/17:44:32.981780,6902,1751712272,979687488,base_link,0,1,-7.2870417,112.7959309,53.605278880283755,"(1.3618890000000001, 0.0, 0.0, 0.0, 1.3618890000000001, 0.0, 0.0, 0.0, 3.048516)",2
2025/07/05/17:44:33.062004,6903,1751712273,59692096,base_link,0,1,-7.2870417,112.795931,53.60527919250749,"(1.331716, 0.0, 0.0, 0.0, 1.331716, 0.0, 0.0, 0.0, 2.9929)",2
2025/07/05/17:44:33.161906,6904,1751712273,159692096,base_link,0,1,-7.2870417,112.7959311,53.605279504731165,"(1.331716, 0.0, 0.0, 0.0, 1.331716, 0.0, 0.0, 0.0, 2.9929)",2
2025/07/05/17:44:33.241719,6905,1751712273,239692096,base_link,0,1,-7.2870417,112.7959311,53.605279504731165,"(1.331716, 0.0, 0.0, 0.0, 1.331716, 0.0, 0.0, 0.0, 2.9929)",2
2025/07/05/17:44:33.343088,6906,1751712273,339696960,base_link,0,1,-7.2870417,112.7959312,53.60527981695484,"(1.3041639999999999, 0.0, 0.0, 0.0, 1.3041639999999999, 0.0, 0.0, 0.0, 2.9446559999999997)",2
2025/07/05/17:44:33.503340,6907,1751712273,500706944,base_link,0,1,-7.2870418,112.7959313,53.59527987531695,"(1.3041639999999999, 0.0, 0.0, 0.0, 1.3041639999999999, 0.0, 0.0, 0.0, 2.9446559999999997)",2
2025/07/05/17:44:33.603808,6908,1751712273,601712320,base_link,0,1,-7.2870418,112.7959314,53.59528018754054,"(1.2859559999999999, 0.0, 0.0, 0.0, 1.2859559999999999, 0.0, 0.0, 0.0, 2.9070250000000004)",2
2025/07/05/17:44:33.682919,6909,1751712273,679712320,base_link,0,1,-7.2870418,112.7959315,53.595280499764016,"(1.274641, 0.0, 0.0, 0.0, 1.274641, 0.0, 0.0, 0.0, 2.876416)",2
2025/07/05/17:44:33.781916,6910,1751712273,779716928,base_link,0,1,-7.2870419,112.7959315,53.59528024590256,"(1.274641, 0.0, 0.0, 0.0, 1.274641, 0.0, 0.0, 0.0, 2.876416)",2
2025/07/05/17:44:33.862212,6911,1751712273,859716928,base_link,0,1,-7.2870419,112.7959316,53.585280558126,"(1.2678759999999998, 0.0, 0.0, 0.0, 1.2678759999999998, 0.0, 0.0, 0.0, 2.845969)",2
2025/07/05/17:44:33.981951,6912,1751712273,979722816,base_link,0,1,-7.2870419,112.7959317,53.58528087034948,"(1.2678759999999998, 0.0, 0.0, 0.0, 1.2678759999999998, 0.0, 0.0, 0.0, 2.845969)",2
2025/07/05/17:44:34.061780,6913,1751712274,59726912,base_link,0,1,-7.287042,112.7959318,53.57528092871144,"(1.261129, 0.0, 0.0, 0.0, 1.261129, 0.0, 0.0, 0.0, 2.812329)",2
2025/07/05/17:44:34.162024,6914,1751712274,159726912,base_link,0,1,-7.287042,112.7959318,53.57528092871144,"(1.261129, 0.0, 0.0, 0.0, 1.261129, 0.0, 0.0, 0.0, 2.812329)",2
2025/07/05/17:44:34.241978,6915,1751712274,239726912,base_link,0,1,-7.2870421,112.7959319,53.57528098707335,"(1.261129, 0.0, 0.0, 0.0, 1.261129, 0.0, 0.0, 0.0, 2.812329)",2
2025/07/05/17:44:34.341964,6916,1751712274,339731776,base_link,0,1,-7.2870422,112.795932,53.56528104543534,"(1.2544000000000002, 0.0, 0.0, 0.0, 1.2544000000000002, 0.0, 0.0, 0.0, 2.782224)",2
2025/07/05/17:44:34.503639,6917,1751712274,501744832,base_link,0,1,-7.2870423,112.7959321,53.56528110379736,"(1.2544000000000002, 0.0, 0.0, 0.0, 1.2544000000000002, 0.0, 0.0, 0.0, 2.782224)",2
2025/07/05/17:44:34.625663,6918,1751712274,623751232,base_link,0,1,-7.2870424,112.7959322,53.56528116215941,"(1.247689, 0.0, 0.0, 0.0, 1.247689, 0.0, 0.0, 0.0, 2.752281)",2
2025/07/05/17:44:34.723099,6919,1751712274,720757376,base_link,0,1,-7.2870425,112.7959322,53.56528090829843,"(1.2365440000000003, 0.0, 0.0, 0.0, 1.2365440000000003, 0.0, 0.0, 0.0, 2.7224999999999997)",2
2025/07/05/17:44:34.841792,6920,1751712274,839763520,base_link,0,1,-7.2870426,112.7959323,53.56528096666054,"(1.2365440000000003, 0.0, 0.0, 0.0, 1.2365440000000003, 0.0, 0.0, 0.0, 2.7224999999999997)",2
2025/07/05/17:44:34.922592,6921,1751712274,920768896,base_link,0,1,-7.2870426,112.7959324,53.56528127888353,"(1.2276640000000003, 0.0, 0.0, 0.0, 1.2276640000000003, 0.0, 0.0, 0.0, 2.699449)",2
2025/07/05/17:44:35.025315,6922,1751712275,23774528,base_link,0,1,-7.2870427,112.7959324,53.555281025022694,"(1.2276640000000003, 0.0, 0.0, 0.0, 1.2276640000000003, 0.0, 0.0, 0.0, 2.699449)",2
2025/07/05/17:44:35.103457,6923,1751712275,100779136,base_link,0,1,-7.2870428,112.7959325,53.555281083384884,"(1.2188160000000001, 0.0, 0.0, 0.0, 1.2188160000000001, 0.0, 0.0, 0.0, 2.6764959999999998)",2
2025/07/05/17:44:35.181910,6924,1751712275,179784768,base_link,0,1,-7.2870429,112.7959326,53.55528114174699,"(1.2188160000000001, 0.0, 0.0, 0.0, 1.2188160000000001, 0.0, 0.0, 0.0, 2.6764959999999998)",2
2025/07/05/17:44:35.261882,6925,1751712275,259784768,base_link,0,1,-7.287043,112.7959326,53.55528088788644,"(1.2100000000000002, 0.0, 0.0, 0.0, 1.2100000000000002, 0.0, 0.0, 0.0, 2.653641)",2
2025/07/05/17:44:35.361861,6926,1751712275,359788608,base_link,0,1,-7.2870431,112.7959327,53.555280946248715,"(1.2100000000000002, 0.0, 0.0, 0.0, 1.2100000000000002, 0.0, 0.0, 0.0, 2.653641)",2
2025/07/05/17:44:35.541706,6927,1751712275,539792960,base_link,0,1,-7.2870433,112.7959329,53.55528106297329,"(1.2012160000000003, 0.0, 0.0, 0.0, 1.2012160000000003, 0.0, 0.0, 0.0, 2.6308840000000004)",2
2025/07/05/17:44:35.642021,6928,1751712275,639797312,base_link,0,1,-7.2870434,112.795933,53.565281121335715,"(1.2012160000000003, 0.0, 0.0, 0.0, 1.2012160000000003, 0.0, 0.0, 0.0, 2.6308840000000004)",2
2025/07/05/17:44:35.742080,6929,1751712275,739802432,base_link,0,1,-7.2870435,112.7959331,53.56528117969799,"(1.1881000000000002, 0.0, 0.0, 0.0, 1.1881000000000002, 0.0, 0.0, 0.0, 2.608225)",2
2025/07/05/17:44:35.841650,6930,1751712275,839807040,base_link,0,1,-7.2870436,112.7959331,53.56528092583798,"(1.1881000000000002, 0.0, 0.0, 0.0, 1.1881000000000002, 0.0, 0.0, 0.0, 2.608225)",2
2025/07/05/17:44:35.941835,6931,1751712275,939810624,base_link,0,1,-7.2870438,112.7959332,53.565280730340675,"(1.177225, 0.0, 0.0, 0.0, 1.177225, 0.0, 0.0, 0.0, 2.5792360000000003)",2
2025/07/05/17:44:36.041646,6932,1751712276,39810624,base_link,0,1,-7.2870439,112.7959333,53.5552807887032,"(1.177225, 0.0, 0.0, 0.0, 1.177225, 0.0, 0.0, 0.0, 2.5792360000000003)",2
2025/07/05/17:44:36.141781,6933,1751712276,139815488,base_link,0,1,-7.287044,112.7959334,53.55528084706579,"(1.1642409999999999, 0.0, 0.0, 0.0, 1.1642409999999999, 0.0, 0.0, 0.0, 2.5504089999999997)",2
2025/07/05/17:44:36.242107,6934,1751712276,239819840,base_link,0,1,-7.2870442,112.7959334,53.55528033934685,"(1.1642409999999999, 0.0, 0.0, 0.0, 1.1642409999999999, 0.0, 0.0, 0.0, 2.5504089999999997)",2
2025/07/05/17:44:36.341537,6935,1751712276,339824704,base_link,0,1,-7.2870443,112.7959335,53.56528039770964,"(1.1534760000000002, 0.0, 0.0, 0.0, 1.1534760000000002, 0.0, 0.0, 0.0, 2.524921)",2
2025/07/05/17:44:36.502691,6936,1751712276,500834432,base_link,0,1,-7.2870446,112.7959336,53.56527994835426,"(1.1534760000000002, 0.0, 0.0, 0.0, 1.1534760000000002, 0.0, 0.0, 0.0, 2.524921)",2
2025/07/05/17:44:36.624984,6937,1751712276,623840064,base_link,0,1,-7.2870447,112.7959337,53.55528000671727,"(1.142761, 0.0, 0.0, 0.0, 1.142761, 0.0, 0.0, 0.0, 2.499561)",2
2025/07/05/17:44:36.702563,6938,1751712276,700845696,base_link,0,1,-7.2870449,112.7959338,53.555279811221524,"(1.1320960000000002, 0.0, 0.0, 0.0, 1.1320960000000002, 0.0, 0.0, 0.0, 2.474329)",2
2025/07/05/17:44:36.803519,6939,1751712276,801850048,base_link,0,1,-7.287045,112.7959338,53.55527955736294,"(1.1320960000000002, 0.0, 0.0, 0.0, 1.1320960000000002, 0.0, 0.0, 0.0, 2.474329)",2
2025/07/05/17:44:36.902762,6940,1751712276,900850048,base_link,0,1,-7.2870452,112.795934,53.55527967408928,"(1.121481, 0.0, 0.0, 0.0, 1.121481, 0.0, 0.0, 0.0, 2.4492249999999998)",2
2025/07/05/17:44:37.025417,6941,1751712277,22854400,base_link,0,1,-7.2870454,112.7959341,53.555279478594215,"(1.121481, 0.0, 0.0, 0.0, 1.121481, 0.0, 0.0, 0.0, 2.4492249999999998)",2
2025/07/05/17:44:37.122773,6942,1751712277,120858752,base_link,0,1,-7.2870456,112.7959342,53.55527928309952,"(1.113025, 0.0, 0.0, 0.0, 1.113025, 0.0, 0.0, 0.0, 2.4242489999999997)",2
2025/07/05/17:44:37.225688,6943,1751712277,223862592,base_link,0,1,-7.2870457,112.7959342,53.555279029241674,"(1.113025, 0.0, 0.0, 0.0, 1.113025, 0.0, 0.0, 0.0, 2.4242489999999997)",2
2025/07/05/17:44:37.302540,6944,1751712277,300867712,base_link,0,1,-7.2870458,112.7959343,53.555279087605115,"(1.104601, 0.0, 0.0, 0.0, 1.104601, 0.0, 0.0, 0.0, 2.4025000000000003)",2
2025/07/05/17:44:37.403682,6945,1751712277,401872576,base_link,0,1,-7.287046,112.7959344,53.54527889211102,"(1.104601, 0.0, 0.0, 0.0, 1.104601, 0.0, 0.0, 0.0, 2.4025000000000003)",2
2025/07/05/17:44:37.561685,6946,1751712277,559879744,base_link,0,1,-7.2870462,112.7959345,53.54527869661724,"(1.100401, 0.0, 0.0, 0.0, 1.100401, 0.0, 0.0, 0.0, 2.3839360000000003)",2
2025/07/05/17:44:37.641872,6947,1751712277,639879744,base_link,0,1,-7.2870463,112.7959345,53.545278442760015,"(1.100401, 0.0, 0.0, 0.0, 1.100401, 0.0, 0.0, 0.0, 2.3839360000000003)",2
2025/07/05/17:44:37.742072,6948,1751712277,739884096,base_link,0,1,-7.2870465,112.7959346,53.54527824726669,"(1.0962089999999998, 0.0, 0.0, 0.0, 1.0962089999999998, 0.0, 0.0, 0.0, 2.3716)",2
2025/07/05/17:44:37.841853,6949,1751712277,839888448,base_link,0,1,-7.2870466,112.7959346,53.54527799340975,"(1.0962089999999998, 0.0, 0.0, 0.0, 1.0962089999999998, 0.0, 0.0, 0.0, 2.3716)",2
2025/07/05/17:44:37.963129,6950,1751712277,960898432,base_link,0,1,-7.2870468,112.7959347,53.545277797917045,"(1.0920249999999998, 0.0, 0.0, 0.0, 1.0920249999999998, 0.0, 0.0, 0.0, 2.3531560000000002)",2
2025/07/05/17:44:38.061646,6951,1751712278,59898432,base_link,0,1,-7.2870469,112.7959347,53.54527754406045,"(1.0878489999999998, 0.0, 0.0, 0.0, 1.0878489999999998, 0.0, 0.0, 0.0, 2.3378409999999996)",2
2025/07/05/17:44:38.161624,6952,1751712278,159902528,base_link,0,1,-7.287047,112.7959348,53.54527760242454,"(1.0878489999999998, 0.0, 0.0, 0.0, 1.0878489999999998, 0.0, 0.0, 0.0, 2.3378409999999996)",2
2025/07/05/17:44:38.261850,6953,1751712278,260906624,base_link,0,1,-7.2870472,112.7959348,53.54527709471186,"(1.0878489999999998, 0.0, 0.0, 0.0, 1.0878489999999998, 0.0, 0.0, 0.0, 2.3378409999999996)",2
2025/07/05/17:44:38.361694,6954,1751712278,359906624,base_link,0,1,-7.2870473,112.7959349,53.545277153076206,"(1.083681, 0.0, 0.0, 0.0, 1.083681, 0.0, 0.0, 0.0, 2.3195289999999997)",2
2025/07/05/17:44:38.561759,6955,1751712278,559910464,base_link,0,1,-7.2870476,112.7959349,53.545276391508374,"(1.0795209999999997, 0.0, 0.0, 0.0, 1.0795209999999997, 0.0, 0.0, 0.0, 2.3043240000000003)",2
2025/07/05/17:44:38.661753,6956,1751712278,659910464,base_link,0,1,-7.2870477,112.795935,53.54527644987295,"(1.0753689999999998, 0.0, 0.0, 0.0, 1.0753689999999998, 0.0, 0.0, 0.0, 2.289169)",2
2025/07/05/17:44:38.761915,6957,1751712278,759914304,base_link,0,1,-7.2870478,112.795935,53.54527619601735,"(1.0753689999999998, 0.0, 0.0, 0.0, 1.0753689999999998, 0.0, 0.0, 0.0, 2.289169)",2
2025/07/05/17:44:38.841814,6958,1751712278,839914304,base_link,0,1,-7.2870479,112.7959351,53.54527625438198,"(1.0753689999999998, 0.0, 0.0, 0.0, 1.0753689999999998, 0.0, 0.0, 0.0, 2.289169)",2
2025/07/05/17:44:38.942063,6959,1751712278,939918912,base_link,0,1,-7.287048,112.7959351,53.54527600052655,"(1.0712249999999999, 0.0, 0.0, 0.0, 1.0712249999999999, 0.0, 0.0, 0.0, 2.274064)",2
2025/07/05/17:44:39.041693,6960,1751712279,39923520,base_link,0,1,-7.2870481,112.7959352,53.54527605889138,"(1.0712249999999999, 0.0, 0.0, 0.0, 1.0712249999999999, 0.0, 0.0, 0.0, 2.274064)",2
2025/07/05/17:44:39.141869,6961,1751712279,139928640,base_link,0,1,-7.2870482,112.7959352,53.54527580503618,"(1.0670889999999997, 0.0, 0.0, 0.0, 1.0670889999999997, 0.0, 0.0, 0.0, 2.259009)",2
2025/07/05/17:44:39.241963,6962,1751712279,239933504,base_link,0,1,-7.2870483,112.7959353,53.545275863401066,"(1.0670889999999997, 0.0, 0.0, 0.0, 1.0670889999999997, 0.0, 0.0, 0.0, 2.259009)",2
2025/07/05/17:44:39.361974,6963,1751712279,359942208,base_link,0,1,-7.2870484,112.7959353,53.55527560954606,"(1.0629609999999998, 0.0, 0.0, 0.0, 1.0629609999999998, 0.0, 0.0, 0.0, 2.244004)",2
2025/07/05/17:44:39.541677,6964,1751712279,539946304,base_link,0,1,-7.2870486,112.7959354,53.55527541405628,"(1.0629609999999998, 0.0, 0.0, 0.0, 1.0629609999999998, 0.0, 0.0, 0.0, 2.244004)",2
2025/07/05/17:44:39.641505,6965,1751712279,639950400,base_link,0,1,-7.2870486,112.7959354,53.545275414056285,"(1.056784, 0.0, 0.0, 0.0, 1.056784, 0.0, 0.0, 0.0, 2.2290490000000003)",2
2025/07/05/17:44:39.722310,6966,1751712279,720954496,base_link,0,1,-7.2870487,112.7959355,53.54527547242137,"(1.050625, 0.0, 0.0, 0.0, 1.050625, 0.0, 0.0, 0.0, 2.214144)",2
2025/07/05/17:44:39.825181,6967,1751712279,823954496,base_link,0,1,-7.2870488,112.7959355,53.53527521856677,"(1.050625, 0.0, 0.0, 0.0, 1.050625, 0.0, 0.0, 0.0, 2.214144)",2
2025/07/05/17:44:39.902707,6968,1751712279,900954496,base_link,0,1,-7.2870488,112.7959356,53.53527553078649,"(1.044484, 0.0, 0.0, 0.0, 1.044484, 0.0, 0.0, 0.0, 2.1992890000000003)",2
2025/07/05/17:44:40.025212,6969,1751712280,23954496,base_link,0,1,-7.2870489,112.7959356,53.535275276932,"(1.044484, 0.0, 0.0, 0.0, 1.044484, 0.0, 0.0, 0.0, 2.1992890000000003)",2
2025/07/05/17:44:40.122474,6970,1751712280,120959104,base_link,0,1,-7.287049,112.7959357,53.5352753352972,"(1.036324, 0.0, 0.0, 0.0, 1.036324, 0.0, 0.0, 0.0, 2.184484)",2
2025/07/05/17:44:40.225212,6971,1751712280,223963200,base_link,0,1,-7.287049,112.7959357,53.525275335297195,"(1.036324, 0.0, 0.0, 0.0, 1.036324, 0.0, 0.0, 0.0, 2.184484)",2
2025/07/05/17:44:40.303024,6972,1751712280,300968064,base_link,0,1,-7.287049,112.7959358,53.5152756475167,"(1.0302249999999997, 0.0, 0.0, 0.0, 1.0302249999999997, 0.0, 0.0, 0.0, 2.1697290000000002)",2
2025/07/05/17:44:40.403399,6973,1751712280,401972672,base_link,0,1,-7.2870491,112.7959358,53.51527539366238,"(1.0302249999999997, 0.0, 0.0, 0.0, 1.0302249999999997, 0.0, 0.0, 0.0, 2.1697290000000002)",2
2025/07/05/17:44:40.561685,6974,1751712280,559976256,base_link,0,1,-7.2870491,112.7959359,53.50527570588187,"(1.0201, 0.0, 0.0, 0.0, 1.0201, 0.0, 0.0, 0.0, 2.152089)",2
2025/07/05/17:44:40.661912,6975,1751712280,659976256,base_link,0,1,-7.2870491,112.795936,53.50527601810134,"(1.0201, 0.0, 0.0, 0.0, 1.0201, 0.0, 0.0, 0.0, 2.152089)",2
2025/07/05/17:44:40.761547,6976,1751712280,759979840,base_link,0,1,-7.2870492,112.795936,53.505275764247045,"(1.0100249999999997, 0.0, 0.0, 0.0, 1.0100249999999997, 0.0, 0.0, 0.0, 2.137444)",2
2025/07/05/17:44:40.861620,6977,1751712280,859983424,base_link,0,1,-7.2870492,112.7959361,53.50527607646649,"(1.0100249999999997, 0.0, 0.0, 0.0, 1.0100249999999997, 0.0, 0.0, 0.0, 2.137444)",2
2025/07/05/17:44:40.981462,6978,1751712280,979987520,base_link,0,1,-7.2870492,112.7959362,53.505276388685786,"(1.0, 0.0, 0.0, 0.0, 1.0, 0.0, 0.0, 0.0, 2.119936)",2
2025/07/05/17:44:41.061827,6979,1751712281,59987520,base_link,0,1,-7.2870493,112.7959363,53.505276447050875,"(0.988036, 0.0, 0.0, 0.0, 0.988036, 0.0, 0.0, 0.0, 2.1025)",2
2025/07/05/17:44:41.161668,6980,1751712281,159987520,base_link,0,1,-7.2870493,112.7959363,53.51527644705088,"(0.988036, 0.0, 0.0, 0.0, 0.988036, 0.0, 0.0, 0.0, 2.1025)",2
2025/07/05/17:44:41.241522,6981,1751712281,239987520,base_link,0,1,-7.2870493,112.7959364,53.51527675927018,"(0.988036, 0.0, 0.0, 0.0, 0.988036, 0.0, 0.0, 0.0, 2.1025)",2
2025/07/05/17:44:41.341458,6982,1751712281,339991360,base_link,0,1,-7.2870493,112.7959365,53.51527707148945,"(0.974169, 0.0, 0.0, 0.0, 0.974169, 0.0, 0.0, 0.0, 2.085136)",2
2025/07/05/17:44:41.523091,6983,1751712281,520994944,base_link,0,1,-7.2870494,112.7959366,53.50527712985439,"(0.974169, 0.0, 0.0, 0.0, 0.974169, 0.0, 0.0, 0.0, 2.085136)",2
2025/07/05/17:44:41.624981,6984,1751712281,623999808,base_link,0,1,-7.2870495,112.7959367,53.50527718821934,"(0.962361, 0.0, 0.0, 0.0, 0.962361, 0.0, 0.0, 0.0, 2.064969)",2
2025/07/05/17:44:41.702592,6985,1751712281,701005440,base_link,0,1,-7.2870495,112.7959367,53.50527718821934,"(0.948676, 0.0, 0.0, 0.0, 0.948676, 0.0, 0.0, 0.0, 2.0448999999999997)",2
2025/07/05/17:44:41.781769,6986,1751712281,780010048,base_link,0,1,-7.2870496,112.7959368,53.50527724658434,"(0.948676, 0.0, 0.0, 0.0, 0.948676, 0.0, 0.0, 0.0, 2.0448999999999997)",2
2025/07/05/17:44:41.861947,6987,1751712281,861013632,base_link,0,1,-7.2870496,112.7959369,53.50527755880333,"(0.937024, 0.0, 0.0, 0.0, 0.937024, 0.0, 0.0, 0.0, 2.024929)",2
2025/07/05/17:44:41.982044,6988,1751712281,980013632,base_link,0,1,-7.2870497,112.795937,53.50527761716825,"(0.937024, 0.0, 0.0, 0.0, 0.937024, 0.0, 0.0, 0.0, 2.024929)",2
2025/07/05/17:44:42.061649,6989,1751712282,60013632,base_link,0,1,-7.2870497,112.795937,53.50527761716825,"(0.9254439999999999, 0.0, 0.0, 0.0, 0.9254439999999999, 0.0, 0.0, 0.0, 2.0050559999999997)",2
2025/07/05/17:44:42.161677,6990,1751712282,160017984,base_link,0,1,-7.2870498,112.7959371,53.49527767553322,"(0.9254439999999999, 0.0, 0.0, 0.0, 0.9254439999999999, 0.0, 0.0, 0.0, 2.0050559999999997)",2
2025/07/05/17:44:42.261930,6991,1751712282,260021568,base_link,0,1,-7.2870499,112.7959372,53.495277733898135,"(0.9254439999999999, 0.0, 0.0, 0.0, 0.9254439999999999, 0.0, 0.0, 0.0, 2.0050559999999997)",2
2025/07/05/17:44:42.362308,6992,1751712282,360026176,base_link,0,1,-7.2870499,112.7959372,53.495277733898135,"(0.913936, 0.0, 0.0, 0.0, 0.913936, 0.0, 0.0, 0.0, 1.9880999999999998)",2
2025/07/05/17:44:42.503026,6993,1751712282,501026176,base_link,0,1,-7.28705,112.7959373,53.49527779226317,"(0.913936, 0.0, 0.0, 0.0, 0.913936, 0.0, 0.0, 0.0, 1.9880999999999998)",2
2025/07/05/17:44:42.624625,6994,1751712282,624030528,base_link,0,1,-7.2870501,112.7959374,53.48527785062812,"(0.9025, 0.0, 0.0, 0.0, 0.9025, 0.0, 0.0, 0.0, 1.962801)",2
2025/07/05/17:44:42.702445,6995,1751712282,701030528,base_link,0,1,-7.2870502,112.7959375,53.485277908993154,"(0.889249, 0.0, 0.0, 0.0, 0.889249, 0.0, 0.0, 0.0, 1.9376639999999998)",2
2025/07/05/17:44:42.781455,6996,1751712282,780030528,base_link,0,1,-7.2870503,112.7959375,53.485277655139626,"(0.889249, 0.0, 0.0, 0.0, 0.889249, 0.0, 0.0, 0.0, 1.9376639999999998)",2
2025/07/05/17:44:42.861683,6997,1751712282,860030528,base_link,0,1,-7.2870504,112.7959376,53.495277713504734,"(0.8779690000000001, 0.0, 0.0, 0.0, 0.8779690000000001, 0.0, 0.0, 0.0, 1.9209959999999997)",2
2025/07/05/17:44:42.961456,6998,1751712282,960030528,base_link,0,1,-7.2870505,112.7959377,53.49527777186991,"(0.8779690000000001, 0.0, 0.0, 0.0, 0.8779690000000001, 0.0, 0.0, 0.0, 1.9209959999999997)",2
2025/07/05/17:44:43.061666,6999,1751712283,60034112,base_link,0,1,-7.2870505,112.7959378,53.495278084088326,"(0.8779690000000001, 0.0, 0.0, 0.0, 0.8779690000000001, 0.0, 0.0, 0.0, 1.9209959999999997)",2
2025/07/05/17:44:43.161777,7000,1751712283,160034112,base_link,0,1,-7.2870506,112.7959379,53.49527814245336,"(0.8704890000000001, 0.0, 0.0, 0.0, 0.8704890000000001, 0.0, 0.0, 0.0, 1.907161)",2
2025/07/05/17:44:43.261842,7001,1751712283,260034112,base_link,0,1,-7.2870507,112.795938,53.49527820081853,"(0.8704890000000001, 0.0, 0.0, 0.0, 0.8704890000000001, 0.0, 0.0, 0.0, 1.907161)",2
2025/07/05/17:44:43.361901,7002,1751712283,360034112,base_link,0,1,-7.2870508,112.7959381,53.49527825918359,"(0.8593290000000001, 0.0, 0.0, 0.0, 0.8593290000000001, 0.0, 0.0, 0.0, 1.8933759999999997)",2
2025/07/05/17:44:43.561536,7003,1751712283,560039488,base_link,0,1,-7.287051,112.7959382,53.49527806369572,"(0.851929, 0.0, 0.0, 0.0, 0.851929, 0.0, 0.0, 0.0, 1.8878760000000003)",2
2025/07/05/17:44:43.663005,7004,1751712283,661044608,base_link,0,1,-7.2870511,112.7959383,53.485278122061075,"(0.851929, 0.0, 0.0, 0.0, 0.851929, 0.0, 0.0, 0.0, 1.8878760000000003)",2
2025/07/05/17:44:43.761584,7005,1751712283,760044608,base_link,0,1,-7.2870511,112.7959384,53.48527843427904,"(0.8464, 0.0, 0.0, 0.0, 0.8464, 0.0, 0.0, 0.0, 1.879641)",2
2025/07/05/17:44:43.861705,7006,1751712283,860044608,base_link,0,1,-7.2870512,112.7959384,53.48527818042625,"(0.8408890000000001, 0.0, 0.0, 0.0, 0.8408890000000001, 0.0, 0.0, 0.0, 1.874161)",2
2025/07/05/17:44:43.981739,7007,1751712283,980048192,base_link,0,1,-7.2870514,112.7959385,53.47527798493894,"(0.8408890000000001, 0.0, 0.0, 0.0, 0.8408890000000001, 0.0, 0.0, 0.0, 1.874161)",2
2025/07/05/17:44:44.061766,7008,1751712284,60051264,base_link,0,1,-7.2870514,112.7959386,53.47527829715682,"(0.835396, 0.0, 0.0, 0.0, 0.835396, 0.0, 0.0, 0.0, 1.868689)",2
2025/07/05/17:44:44.161498,7009,1751712284,160051264,base_link,0,1,-7.2870515,112.7959387,53.475278355522136,"(0.835396, 0.0, 0.0, 0.0, 0.835396, 0.0, 0.0, 0.0, 1.868689)",2
2025/07/05/17:44:44.261723,7010,1751712284,261054592,base_link,0,1,-7.2870516,112.7959387,53.475278101669716,"(0.835396, 0.0, 0.0, 0.0, 0.835396, 0.0, 0.0, 0.0, 1.868689)",2
2025/07/05/17:44:44.425441,7011,1751712284,424054592,base_link,0,1,-7.2870517,112.7959388,53.475278160035145,"(0.831744, 0.0, 0.0, 0.0, 0.831744, 0.0, 0.0, 0.0, 1.863225)",2
2025/07/05/17:44:44.581378,7012,1751712284,580057920,base_link,0,1,-7.2870518,112.7959389,53.46527821840052,"(0.8281000000000001, 0.0, 0.0, 0.0, 0.8281000000000001, 0.0, 0.0, 0.0, 1.8604960000000004)",2
2025/07/05/17:44:44.662009,7013,1751712284,660057920,base_link,0,1,-7.2870518,112.795939,53.46527853061817,"(0.8244640000000001, 0.0, 0.0, 0.0, 0.8244640000000001, 0.0, 0.0, 0.0, 1.8550440000000004)",2
2025/07/05/17:44:44.761409,7014,1751712284,760057920,base_link,0,1,-7.2870519,112.7959391,53.465278588983516,"(0.8244640000000001, 0.0, 0.0, 0.0, 0.8244640000000001, 0.0, 0.0, 0.0, 1.8550440000000004)",2
2025/07/05/17:44:44.841350,7015,1751712284,840057920,base_link,0,1,-7.2870519,112.7959391,53.465278588983516,"(0.8244640000000001, 0.0, 0.0, 0.0, 0.8244640000000001, 0.0, 0.0, 0.0, 1.8550440000000004)",2
2025/07/05/17:44:44.941766,7016,1751712284,940062016,base_link,0,1,-7.2870519,112.7959392,53.465278901201025,"(0.820836, 0.0, 0.0, 0.0, 0.820836, 0.0, 0.0, 0.0, 1.8523209999999999)",2
2025/07/05/17:44:45.041589,7017,1751712285,40065344,base_link,0,1,-7.287052,112.7959393,53.46527895956634,"(0.820836, 0.0, 0.0, 0.0, 0.820836, 0.0, 0.0, 0.0, 1.8523209999999999)",2
2025/07/05/17:44:45.141448,7018,1751712285,140069184,base_link,0,1,-7.287052,112.7959393,53.46527895956634,"(0.817216, 0.0, 0.0, 0.0, 0.817216, 0.0, 0.0, 0.0, 1.846881)",2
2025/07/05/17:44:45.241539,7019,1751712285,240073024,base_link,0,1,-7.287052,112.7959394,53.45527927178371,"(0.817216, 0.0, 0.0, 0.0, 0.817216, 0.0, 0.0, 0.0, 1.846881)",2
2025/07/05/17:44:45.341546,7020,1751712285,340077632,base_link,0,1,-7.287052,112.7959395,53.455279584001104,"(0.815409, 0.0, 0.0, 0.0, 0.815409, 0.0, 0.0, 0.0, 1.8496000000000004)",2
2025/07/05/17:44:45.502781,7021,1751712285,501086848,base_link,0,1,-7.2870521,112.7959395,53.455279330149,"(0.815409, 0.0, 0.0, 0.0, 0.815409, 0.0, 0.0, 0.0, 1.8496000000000004)",2
2025/07/05/17:44:45.625213,7022,1751712285,623086848,base_link,0,1,-7.2870521,112.7959396,53.455279642366335,"(0.811801, 0.0, 0.0, 0.0, 0.811801, 0.0, 0.0, 0.0, 1.8523209999999999)",2
2025/07/05/17:44:45.702480,7023,1751712285,701086848,base_link,0,1,-7.2870521,112.7959397,53.455279954583645,"(0.81, 0.0, 0.0, 0.0, 0.81, 0.0, 0.0, 0.0, 1.857769)",2
2025/07/05/17:44:45.781956,7024,1751712285,780086848,base_link,0,1,-7.2870521,112.7959397,53.455279954583645,"(0.81, 0.0, 0.0, 0.0, 0.81, 0.0, 0.0, 0.0, 1.857769)",2
2025/07/05/17:44:45.861622,7025,1751712285,860086848,base_link,0,1,-7.2870521,112.7959397,53.455279954583645,"(0.81, 0.0, 0.0, 0.0, 0.81, 0.0, 0.0, 0.0, 1.863225)",2
2025/07/05/17:44:45.981838,7026,1751712285,980086848,base_link,0,1,-7.2870522,112.7959398,53.45528001294882,"(0.81, 0.0, 0.0, 0.0, 0.81, 0.0, 0.0, 0.0, 1.863225)",2
2025/07/05/17:44:46.061738,7027,1751712286,61090432,base_link,0,1,-7.2870521,112.7959398,53.465280266800924,"(0.811801, 0.0, 0.0, 0.0, 0.811801, 0.0, 0.0, 0.0, 1.874161)",2
2025/07/05/17:44:46.161662,7028,1751712286,160090432,base_link,0,1,-7.2870521,112.7959399,53.46528057901809,"(0.811801, 0.0, 0.0, 0.0, 0.811801, 0.0, 0.0, 0.0, 1.874161)",2
2025/07/05/17:44:46.261551,7029,1751712286,260090432,base_link,0,1,-7.2870521,112.7959399,53.46528057901809,"(0.813604, 0.0, 0.0, 0.0, 0.813604, 0.0, 0.0, 0.0, 1.8823840000000003)",2
2025/07/05/17:44:46.361880,7030,1751712286,360094272,base_link,0,1,-7.2870521,112.79594,53.4752808912354,"(0.813604, 0.0, 0.0, 0.0, 0.813604, 0.0, 0.0, 0.0, 1.8823840000000003)",2
2025/07/05/17:44:46.561276,7031,1751712286,560098112,base_link,0,1,-7.2870521,112.79594,53.4752808912354,"(0.813604, 0.0, 0.0, 0.0, 0.813604, 0.0, 0.0, 0.0, 1.8823840000000003)",2
2025/07/05/17:44:46.661976,7032,1751712286,660098112,base_link,0,1,-7.287052,112.7959401,53.475281457304874,"(0.815409, 0.0, 0.0, 0.0, 0.815409, 0.0, 0.0, 0.0, 1.8933759999999997)",2
2025/07/05/17:44:46.761989,7033,1751712286,760098112,base_link,0,1,-7.287052,112.7959401,53.48528145730488,"(0.817216, 0.0, 0.0, 0.0, 0.817216, 0.0, 0.0, 0.0, 1.9043999999999996)",2
2025/07/05/17:44:46.861760,7034,1751712286,860101952,base_link,0,1,-7.287052,112.7959402,53.485281769522075,"(0.817216, 0.0, 0.0, 0.0, 0.817216, 0.0, 0.0, 0.0, 1.9154559999999998)",2
2025/07/05/17:44:46.982000,7035,1751712286,980101952,base_link,0,1,-7.287052,112.7959402,53.495281769522066,"(0.817216, 0.0, 0.0, 0.0, 0.817216, 0.0, 0.0, 0.0, 1.9154559999999998)",2
