time,.header.seq,.header.stamp.secs,.header.stamp.nsecs,.header.frame_id,.twist.linear.x,.twist.linear.y,.twist.linear.z,.twist.angular.x,.twist.angular.y,.twist.angular.z
2025/07/05/17:47:55.695014,9375,1751712475,585147008,map,-0.23387776458286388,-0.26038661876855823,0.0,0.0,0.0,0.0
2025/07/05/17:47:55.776124,9376,1751712475,585147008,map,-0.23387776458286388,-0.26038661876855823,0.0,0.0,0.0,0.0
2025/07/05/17:47:55.875211,9377,1751712475,785147008,map,-0.24724220827331325,-0.2752658541267616,0.0,0.0,0.0,0.0
2025/07/05/17:47:55.996339,9378,1751712475,785147008,map,-0.24724220827331325,-0.2752658541267616,0.0,0.0,0.0,0.0
2025/07/05/17:47:56.096265,9379,1751712475,985147008,map,-0.29401776118988604,-0.32734317788047324,0.0,0.0,0.0,0.0
2025/07/05/17:47:56.196217,9380,1751712475,985147008,map,-0.29401776118988604,-0.32734317788047324,0.0,0.0,0.0,0.0
2025/07/05/17:47:56.315215,9381,1751712476,185147008,map,-0.3207466485707848,-0.3571016485968799,0.0,0.0,0.0,0.0
2025/07/05/17:47:56.475301,9382,1751712476,385147008,map,-0.32625826375382355,-0.43029704313687833,0.0,0.0,0.0,0.0
2025/07/05/17:47:56.615884,9383,1751712476,585147008,map,-0.4453425103565424,-0.355766845657845,0.0,0.0,0.0,0.0
2025/07/05/17:47:56.695635,9384,1751712476,585147008,map,-0.4453425103565424,-0.355766845657845,0.0,0.0,0.0,0.0
2025/07/05/17:47:56.774276,9385,1751712476,585147008,map,-0.4453425103565424,-0.355766845657845,0.0,0.0,0.0,0.0
2025/07/05/17:47:56.874593,9386,1751712476,785147008,map,-0.2890819804068784,-0.23093637349719764,0.0,0.0,0.0,0.0
2025/07/05/17:47:56.995634,9387,1751712476,785147008,map,-0.2890819804068784,-0.23093637349719764,0.0,0.0,0.0,0.0
2025/07/05/17:47:57.074520,9388,1751712476,985147008,map,-0.32131831627556345,-0.34300807516126636,0.0,0.0,0.0,0.0
2025/07/05/17:47:57.154521,9389,1751712476,985147008,map,-0.32131831627556345,-0.34300807516126636,0.0,0.0,0.0,0.0
2025/07/05/17:47:57.254458,9390,1751712477,185147008,map,-0.29121008570842877,-0.4186844706717573,0.0,0.0,0.0,0.0
2025/07/05/17:47:57.334656,9391,1751712477,185147008,map,-0.29121008570842877,-0.4186844706717573,0.0,0.0,0.0,0.0
2025/07/05/17:47:57.496574,9392,1751712477,385147008,map,-0.19414005713895255,-0.27912298044783823,0.0,0.0,0.0,0.0
2025/07/05/17:47:57.596503,9393,1751712477,585147008,map,-0.2632307252210103,-0.3272760078276758,0.0,0.0,0.0,0.0
2025/07/05/17:47:57.675230,9394,1751712477,585147008,map,-0.2632307252210103,-0.3272760078276758,0.0,0.0,0.0,0.0
2025/07/05/17:47:57.796327,9395,1751712477,785147008,map,-0.3016067267424164,-0.38617791545313074,0.0,0.0,0.0,0.0
2025/07/05/17:47:57.896427,9396,1751712477,785147008,map,-0.3016067267424164,-0.38617791545313074,0.0,0.0,0.0,0.0
2025/07/05/17:47:58.017840,9397,1751712477,985147008,map,-0.24620957285095219,-0.31524727792092305,0.0,0.0,0.0,0.0
2025/07/05/17:47:58.095922,9398,1751712477,985147008,map,-0.24620957285095219,-0.31524727792092305,0.0,0.0,0.0,0.0
2025/07/05/17:47:58.195921,9399,1751712478,185147008,map,-0.2646752908147736,-0.33889082376499224,0.0,0.0,0.0,0.0
2025/07/05/17:47:58.274203,9400,1751712478,185147008,map,-0.2646752908147736,-0.33889082376499224,0.0,0.0,0.0,0.0
2025/07/05/17:47:58.396123,9401,1751712478,185147008,map,-0.2646752908147736,-0.33889082376499224,0.0,0.0,0.0,0.0
2025/07/05/17:47:58.554211,9402,1751712478,385147008,map,-0.24620957285095219,-0.31524727792092305,0.0,0.0,0.0,0.0
2025/07/05/17:47:58.637474,9403,1751712478,585147008,map,-0.23389909420840457,-0.29948491402487687,0.0,0.0,0.0,0.0
2025/07/05/17:47:58.734152,9404,1751712478,585147008,map,-0.23389909420840457,-0.29948491402487687,0.0,0.0,0.0,0.0
2025/07/05/17:47:58.838052,9405,1751712478,785147008,map,-0.18465717963821413,-0.23643545844069228,0.0,0.0,0.0,0.0
2025/07/05/17:47:58.934636,9406,1751712478,785147008,map,-0.18465717963821413,-0.23643545844069228,0.0,0.0,0.0,0.0
2025/07/05/17:47:59.054496,9407,1751712478,985147008,map,-0.27698576945732123,-0.3546531876610384,0.0,0.0,0.0,0.0
2025/07/05/17:47:59.174467,9408,1751712478,985147008,map,-0.27698576945732123,-0.3546531876610384,0.0,0.0,0.0,0.0
2025/07/05/17:47:59.274726,9409,1751712479,185147008,map,-0.24005433352967837,-0.3073660959729,0.0,0.0,0.0,0.0
2025/07/05/17:47:59.415751,9410,1751712479,386147008,map,-0.24005433352967837,-0.3073660959729,0.0,0.0,0.0,0.0
2025/07/05/17:47:59.595999,9411,1751712479,386147008,map,-0.24005433352967837,-0.3073660959729,0.0,0.0,0.0,0.0
2025/07/05/17:47:59.674583,9412,1751712479,586147008,map,-0.1354152650680237,-0.17338600285650768,0.0,0.0,0.0,0.0
2025/07/05/17:47:59.774457,9413,1751712479,586147008,map,-0.1354152650680237,-0.17338600285650768,0.0,0.0,0.0,0.0
2025/07/05/17:47:59.895741,9414,1751712479,786147008,map,-0.24005433352967837,-0.3073660959729,0.0,0.0,0.0,0.0
2025/07/05/17:47:59.996498,9415,1751712479,986147008,map,-0.1415705043892975,-0.18126718480453075,0.0,0.0,0.0,0.0
2025/07/05/17:48:00.074799,9416,1751712479,986147008,map,-0.1415705043892975,-0.18126718480453075,0.0,0.0,0.0,0.0
2025/07/05/17:48:00.174389,9417,1751712479,986147008,map,-0.1415705043892975,-0.18126718480453075,0.0,0.0,0.0,0.0
2025/07/05/17:48:00.256277,9418,1751712480,186147008,map,-0.17234670099566654,-0.22067309454464615,0.0,0.0,0.0,0.0
2025/07/05/17:48:00.355141,9419,1751712480,186147008,map,-0.17234670099566654,-0.22067309454464615,0.0,0.0,0.0,0.0
2025/07/05/17:48:00.534418,9420,1751712480,386147008,map,-0.16619146167439272,-0.21279191259662306,0.0,0.0,0.0,0.0
2025/07/05/17:48:00.634195,9421,1751712480,586147008,map,-0.22774385488713075,-0.2916037320768538,0.0,0.0,0.0,0.0
2025/07/05/17:48:00.715433,9422,1751712480,586147008,map,-0.22774385488713075,-0.2916037320768538,0.0,0.0,0.0,0.0
2025/07/05/17:48:00.796423,9423,1751712480,784147008,map,-0.3077619660636902,-0.3940590974011538,0.0,0.0,0.0,0.0
2025/07/05/17:48:00.895654,9424,1751712480,784147008,map,-0.3077619660636902,-0.3940590974011538,0.0,0.0,0.0,0.0
2025/07/05/17:48:00.974233,9425,1751712480,784147008,map,-0.3077619660636902,-0.3940590974011538,0.0,0.0,0.0,0.0
2025/07/05/17:48:01.095849,9426,1751712480,984147008,map,-0.18465717963821413,-0.23643545844069228,0.0,0.0,0.0,0.0
2025/07/05/17:48:01.174807,9427,1751712480,984147008,map,-0.18465717963821413,-0.23643545844069228,0.0,0.0,0.0,0.0
2025/07/05/17:48:01.274439,9428,1751712481,184147008,map,-0.20927813692330938,-0.2679601862327846,0.0,0.0,0.0,0.0
2025/07/05/17:48:01.396404,9429,1751712481,184147008,map,-0.20927813692330938,-0.2679601862327846,0.0,0.0,0.0,0.0
2025/07/05/17:48:01.574611,9430,1751712481,384147008,map,-0.25236481217222595,-0.3231284598689461,0.0,0.0,0.0,0.0
2025/07/05/17:48:01.675531,9431,1751712481,584147008,map,-0.2646752908147736,-0.33889082376499224,0.0,0.0,0.0,0.0
2025/07/05/17:48:01.796132,9432,1751712481,784147008,map,-0.19696765828076174,-0.25219782233673843,0.0,0.0,0.0,0.0
2025/07/05/17:48:01.874749,9433,1751712481,784147008,map,-0.19696765828076174,-0.25219782233673843,0.0,0.0,0.0,0.0
2025/07/05/17:48:01.996845,9434,1751712481,984147008,map,-0.25236481217222595,-0.3231284598689461,0.0,0.0,0.0,0.0
2025/07/05/17:48:02.095355,9435,1751712481,984147008,map,-0.25236481217222595,-0.3231284598689461,0.0,0.0,0.0,0.0
2025/07/05/17:48:02.174773,9436,1751712481,984147008,map,-0.25236481217222595,-0.3231284598689461,0.0,0.0,0.0,0.0
2025/07/05/17:48:02.295629,9437,1751712482,184147008,map,-0.27698576945732123,-0.3546531876610384,0.0,0.0,0.0,0.0
2025/07/05/17:48:02.418166,9438,1751712482,384147008,map,-0.09309054238422401,-0.4912577235205682,0.0,0.0,0.0,0.0
2025/07/05/17:48:02.595976,9439,1751712482,584147008,map,-0.061439757973587854,-0.324230097523575,0.0,0.0,0.0,0.0
2025/07/05/17:48:02.695395,9440,1751712482,584147008,map,-0.061439757973587854,-0.324230097523575,0.0,0.0,0.0,0.0
2025/07/05/17:48:02.774373,9441,1751712482,584147008,map,-0.061439757973587854,-0.324230097523575,0.0,0.0,0.0,0.0
2025/07/05/17:48:02.875395,9442,1751712482,784147008,map,0.03491520297168749,-0.5188264918076619,0.0,0.0,0.0,0.0
2025/07/05/17:48:02.996369,9443,1751712482,984147008,map,0.022157724962801672,-0.32925527364717005,0.0,0.0,0.0,0.0
2025/07/05/17:48:03.074929,9444,1751712482,984147008,map,0.022157724962801672,-0.32925527364717005,0.0,0.0,0.0,0.0
2025/07/05/17:48:03.174282,9445,1751712482,984147008,map,0.022157724962801672,-0.32925527364717005,0.0,0.0,0.0,0.0
2025/07/05/17:48:03.274728,9446,1751712483,184147008,map,0.034243756760693495,-0.5088490592728991,0.0,0.0,0.0,0.0
2025/07/05/17:48:03.374551,9447,1751712483,184147008,map,0.034243756760693495,-0.5088490592728991,0.0,0.0,0.0,0.0
2025/07/05/17:48:03.554407,9448,1751712483,384147008,map,0.022157724962801672,-0.32925527364717005,0.0,0.0,0.0,0.0
2025/07/05/17:48:03.654608,9449,1751712483,584147008,map,0.02350061738478965,-0.3492101387166955,0.0,0.0,0.0,0.0
2025/07/05/17:48:03.775260,9450,1751712483,584147008,map,0.02350061738478965,-0.3492101387166955,0.0,0.0,0.0,0.0
2025/07/05/17:48:03.854253,9451,1751712483,784147008,map,0.03021507949472955,-0.4489844640643228,0.0,0.0,0.0,0.0
2025/07/05/17:48:03.975119,9452,1751712483,784147008,map,0.03021507949472955,-0.4489844640643228,0.0,0.0,0.0,0.0
2025/07/05/17:48:04.097275,9453,1751712483,984147008,map,0.014771816641867781,-0.21950351576478003,0.0,0.0,0.0,0.0
2025/07/05/17:48:04.195989,9454,1751712484,182147008,map,0.03491520297168749,-0.5188264918076619,0.0,0.0,0.0,0.0
2025/07/05/17:48:04.275218,9455,1751712484,182147008,map,0.03491520297168749,-0.5188264918076619,0.0,0.0,0.0,0.0
2025/07/05/17:48:04.396388,9456,1751712484,382147008,map,0.251427794946204,-0.6318101486431582,0.0,0.0,0.0,0.0
2025/07/05/17:48:04.574205,9457,1751712484,382147008,map,0.251427794946204,-0.6318101486431582,0.0,0.0,0.0,0.0
2025/07/05/17:48:04.695708,9458,1751712484,582147008,map,0.1848733786369147,-0.4645662857670281,0.0,0.0,0.0,0.0
2025/07/05/17:48:04.775471,9459,1751712484,582147008,map,0.1848733786369147,-0.4645662857670281,0.0,0.0,0.0,0.0
2025/07/05/17:48:04.917097,9460,1751712484,782147008,map,0.14050376776405515,-0.3530703771829413,0.0,0.0,0.0,0.0
2025/07/05/17:48:04.996210,9461,1751712484,982147008,map,0.18802727640345057,-0.38671144711309025,0.0,0.0,0.0,0.0
2025/07/05/17:48:05.095426,9462,1751712484,982147008,map,0.18802727640345057,-0.38671144711309025,0.0,0.0,0.0,0.0
2025/07/05/17:48:05.174217,9463,1751712484,982147008,map,0.18802727640345057,-0.38671144711309025,0.0,0.0,0.0,0.0
2025/07/05/17:48:05.274581,9464,1751712485,182147008,map,0.2011454584781099,-0.41369131551632915,0.0,0.0,0.0,0.0
2025/07/05/17:48:05.418331,9465,1751712485,382147008,map,0.14911693709354373,-0.413961518829758,0.0,0.0,0.0,0.0
2025/07/05/17:48:05.596026,9466,1751712485,582147008,map,0.3100827461404148,-0.5598648859734098,0.0,0.0,0.0,0.0
2025/07/05/17:48:05.695890,9467,1751712485,582147008,map,0.3100827461404148,-0.5598648859734098,0.0,0.0,0.0,0.0
2025/07/05/17:48:05.774118,9468,1751712485,582147008,map,0.3100827461404148,-0.5598648859734098,0.0,0.0,0.0,0.0
2025/07/05/17:48:05.894866,9469,1751712485,782147008,map,0.35618432823091994,-0.62572575807832,0.0,0.0,0.0,0.0
2025/07/05/17:48:06.017898,9470,1751712485,982147008,map,0.4132440170481227,-0.6732973951931872,0.0,0.0,0.0,0.0
2025/07/05/17:48:06.095238,9471,1751712485,982147008,map,0.4132440170481227,-0.6732973951931872,0.0,0.0,0.0,0.0
2025/07/05/17:48:06.196388,9472,1751712486,182147008,map,0.30498713790539816,-0.4211684291495193,0.0,0.0,0.0,0.0
2025/07/05/17:48:06.274495,9473,1751712486,182147008,map,0.30498713790539816,-0.4211684291495193,0.0,0.0,0.0,0.0
2025/07/05/17:48:06.374334,9474,1751712486,182147008,map,0.30498713790539816,-0.4211684291495193,0.0,0.0,0.0,0.0
2025/07/05/17:48:06.553984,9475,1751712486,382147008,map,0.31671741244022117,-0.43736721488603925,0.0,0.0,0.0,0.0
2025/07/05/17:48:06.654014,9476,1751712486,582147008,map,0.46328476630817983,-0.5247544428652083,0.0,0.0,0.0,0.0
2025/07/05/17:48:06.734107,9477,1751712486,582147008,map,0.46328476630817983,-0.5247544428652083,0.0,0.0,0.0,0.0
2025/07/05/17:48:06.833871,9478,1751712486,782147008,map,0.3884730520916411,-0.45726216528224267,0.0,0.0,0.0,0.0
2025/07/05/17:48:06.915109,9479,1751712486,782147008,map,0.3884730520916411,-0.45726216528224267,0.0,0.0,0.0,0.0
2025/07/05/17:48:07.019392,9480,1751712486,982147008,map,0.32155820640748656,-0.328938170317767,0.0,0.0,0.0,0.0
2025/07/05/17:48:07.095358,9481,1751712486,982147008,map,0.32155820640748656,-0.328938170317767,0.0,0.0,0.0,0.0
2025/07/05/17:48:07.196441,9482,1751712487,182147008,map,0.3734268217595837,-0.469630076539542,0.0,0.0,0.0,0.0
2025/07/05/17:48:07.274207,9483,1751712487,182147008,map,0.3734268217595837,-0.469630076539542,0.0,0.0,0.0,0.0
2025/07/05/17:48:07.396274,9484,1751712487,382147008,map,0.4977078199684503,-0.5202758171799383,0.0,0.0,0.0,0.0
2025/07/05/17:48:07.554225,9485,1751712487,382147008,map,0.4977078199684503,-0.5202758171799383,0.0,0.0,0.0,0.0
2025/07/05/17:48:07.654936,9486,1751712487,582147008,map,0.38533674499054704,-0.4063441804186326,0.0,0.0,0.0,0.0
2025/07/05/17:48:07.753959,9487,1751712487,582147008,map,0.38533674499054704,-0.4063441804186326,0.0,0.0,0.0,0.0
2025/07/05/17:48:07.854252,9488,1751712487,782147008,map,0.36275808500545487,-0.3584781328940096,0.0,0.0,0.0,0.0
2025/07/05/17:48:07.995621,9489,1751712487,982147008,map,0.5291659836776612,-0.6264051099076803,0.0,0.0,0.0,0.0
2025/07/05/17:48:08.094641,9490,1751712487,982147008,map,0.5291659836776612,-0.6264051099076803,0.0,0.0,0.0,0.0
2025/07/05/17:48:08.175484,9491,1751712487,982147008,map,0.5291659836776612,-0.6264051099076803,0.0,0.0,0.0,0.0
2025/07/05/17:48:08.275840,9492,1751712488,182147008,map,0.5743780195118772,-0.6129354702589935,0.0,0.0,0.0,0.0
2025/07/05/17:48:08.418408,9493,1751712488,382147008,map,0.42074558286283603,-0.4136099061935199,0.0,0.0,0.0,0.0
2025/07/05/17:48:08.595709,9494,1751712488,582147008,map,0.6606277408397809,-0.5506096512348174,0.0,0.0,0.0,0.0
2025/07/05/17:48:08.695199,9495,1751712488,582147008,map,0.6606277408397809,-0.5506096512348174,0.0,0.0,0.0,0.0
2025/07/05/17:48:08.775989,9496,1751712488,582147008,map,0.6606277408397809,-0.5506096512348174,0.0,0.0,0.0,0.0
2025/07/05/17:48:08.854847,9497,1751712488,782147008,map,0.4446346232427879,-0.34044096670897894,0.0,0.0,0.0,0.0
2025/07/05/17:48:08.955134,9498,1751712488,782147008,map,0.4446346232427879,-0.34044096670897894,0.0,0.0,0.0,0.0
2025/07/05/17:48:09.054094,9499,1751712488,982147008,map,0.246137023580829,-0.1884583922853276,0.0,0.0,0.0,0.0
2025/07/05/17:48:09.154807,9500,1751712488,982147008,map,0.246137023580829,-0.1884583922853276,0.0,0.0,0.0,0.0
2025/07/05/17:48:09.255052,9501,1751712489,182147008,map,0.5119523723762847,-0.5062655117804232,0.0,0.0,0.0,0.0
2025/07/05/17:48:09.354018,9502,1751712489,182147008,map,0.5119523723762847,-0.5062655117804232,0.0,0.0,0.0,0.0
2025/07/05/17:48:09.516505,9503,1751712489,382147008,map,0.3825246667859695,-0.3522426426489033,0.0,0.0,0.0,0.0
2025/07/05/17:48:09.617387,9504,1751712489,582147008,map,0.5919992068298964,-0.44400105755817015,0.0,0.0,0.0,0.0
2025/07/05/17:48:09.695268,9505,1751712489,582147008,map,0.5919992068298964,-0.44400105755817015,0.0,0.0,0.0,0.0
2025/07/05/17:48:09.796291,9506,1751712489,782147008,map,0.6598738330604735,-0.5669801799376044,0.0,0.0,0.0,0.0
2025/07/05/17:48:09.894672,9507,1751712489,782147008,map,0.6598738330604735,-0.5669801799376044,0.0,0.0,0.0,0.0
2025/07/05/17:48:09.975391,9508,1751712489,782147008,map,0.6598738330604735,-0.5669801799376044,0.0,0.0,0.0,0.0
2025/07/05/17:48:10.094864,9509,1751712489,982147008,map,0.5346712751900943,-0.35174796017404064,0.0,0.0,0.0,0.0
2025/07/05/17:48:10.195407,9510,1751712490,182147008,map,0.8794138501534265,-0.4546771163785643,0.0,0.0,0.0,0.0
2025/07/05/17:48:10.275047,9511,1751712490,182147008,map,0.8794138501534265,-0.4546771163785643,0.0,0.0,0.0,0.0
2025/07/05/17:48:10.396190,9512,1751712490,382147008,map,0.9402562314407463,-0.30986806746879514,0.0,0.0,0.0,0.0
2025/07/05/17:48:10.554898,9513,1751712490,382147008,map,0.9402562314407463,-0.30986806746879514,0.0,0.0,0.0,0.0
2025/07/05/17:48:10.634499,9514,1751712490,582147008,map,1.099021174110582,-0.42959569231615646,0.0,0.0,0.0,0.0
2025/07/05/17:48:10.733875,9515,1751712490,582147008,map,1.099021174110582,-0.42959569231615646,0.0,0.0,0.0,0.0
2025/07/05/17:48:10.833878,9516,1751712490,782147008,map,0.7351309010424455,-0.2892793776481866,0.0,0.0,0.0,0.0
2025/07/05/17:48:10.933837,9517,1751712490,782147008,map,0.7351309010424455,-0.2892793776481866,0.0,0.0,0.0,0.0
2025/07/05/17:48:11.034073,9518,1751712490,982147008,map,0.8982966143822908,-0.3091329691076542,0.0,0.0,0.0,0.0
2025/07/05/17:48:11.114652,9519,1751712490,982147008,map,0.8982966143822908,-0.3091329691076542,0.0,0.0,0.0,0.0
2025/07/05/17:48:11.217977,9520,1751712491,181147008,map,1.0713466783501102,-0.3265215073899199,0.0,0.0,0.0,0.0
2025/07/05/17:48:11.294858,9521,1751712491,181147008,map,1.0713466783501102,-0.3265215073899199,0.0,0.0,0.0,0.0
2025/07/05/17:48:11.419005,9522,1751712491,381147008,map,0.7333648554051674,-0.1570859282576193,0.0,0.0,0.0,0.0
2025/07/05/17:48:11.575870,9523,1751712491,381147008,map,0.7333648554051674,-0.1570859282576193,0.0,0.0,0.0,0.0
2025/07/05/17:48:11.653928,9524,1751712491,581147008,map,0.935684994851146,-0.40607091795696365,0.0,0.0,0.0,0.0
2025/07/05/17:48:11.754384,9525,1751712491,581147008,map,0.935684994851146,-0.40607091795696365,0.0,0.0,0.0,0.0
2025/07/05/17:48:11.833521,9526,1751712491,781147008,map,0.9491015915006974,-0.49407101616148613,0.0,0.0,0.0,0.0
2025/07/05/17:48:11.933885,9527,1751712491,781147008,map,0.9491015915006974,-0.49407101616148613,0.0,0.0,0.0,0.0
2025/07/05/17:48:12.033859,9528,1751712491,981147008,map,0.9810704872236029,-0.519230872636482,0.0,0.0,0.0,0.0
2025/07/05/17:48:12.116178,9529,1751712491,981147008,map,0.9810704872236029,-0.519230872636482,0.0,0.0,0.0,0.0
2025/07/05/17:48:12.217513,9530,1751712492,181147008,map,0.9057403297537917,-0.39966793098457715,0.0,0.0,0.0,0.0
2025/07/05/17:48:12.295044,9531,1751712492,181147008,map,0.9057403297537917,-0.39966793098457715,0.0,0.0,0.0,0.0
2025/07/05/17:48:12.437782,9532,1751712492,381147008,map,0.9949668985864165,-0.22459045108224748,0.0,0.0,0.0,0.0
2025/07/05/17:48:12.555909,9533,1751712492,381147008,map,0.9949668985864165,-0.22459045108224748,0.0,0.0,0.0,0.0
2025/07/05/17:48:12.654209,9534,1751712492,581147008,map,1.170687479386273,-0.26361112572919737,0.0,0.0,0.0,0.0
2025/07/05/17:48:12.734074,9535,1751712492,581147008,map,1.170687479386273,-0.26361112572919737,0.0,0.0,0.0,0.0
2025/07/05/17:48:12.833605,9536,1751712492,781147008,map,0.7458085372973511,-0.28942982861893446,0.0,0.0,0.0,0.0
2025/07/05/17:48:12.915927,9537,1751712492,781147008,map,0.7458085372973511,-0.28942982861893446,0.0,0.0,0.0,0.0
2025/07/05/17:48:13.033835,9538,1751712492,981147008,map,0.7610923429221955,-0.3051859196378546,0.0,0.0,0.0,0.0
2025/07/05/17:48:13.114868,9539,1751712492,981147008,map,0.7610923429221955,-0.3051859196378546,0.0,0.0,0.0,0.0
2025/07/05/17:48:13.195470,9540,1751712493,181147008,map,0.9322654496673001,-0.4609567564930867,0.0,0.0,0.0,0.0
2025/07/05/17:48:13.274022,9541,1751712493,181147008,map,0.9322654496673001,-0.4609567564930867,0.0,0.0,0.0,0.0
2025/07/05/17:48:13.395881,9542,1751712493,381147008,map,1.0611061924512868,-0.5604048967858263,0.0,0.0,0.0,0.0
2025/07/05/17:48:13.574211,9543,1751712493,381147008,map,1.0611061924512868,-0.5604048967858263,0.0,0.0,0.0,0.0
2025/07/05/17:48:13.694994,9544,1751712493,581147008,map,1.1178043452191846,-0.5367620010853134,0.0,0.0,0.0,0.0
2025/07/05/17:48:13.795681,9545,1751712493,781147008,map,1.1099760814343256,-0.5063132416238978,0.0,0.0,0.0,0.0
2025/07/05/17:48:13.874285,9546,1751712493,781147008,map,1.1099760814343256,-0.5063132416238978,0.0,0.0,0.0,0.0
2025/07/05/17:48:13.995934,9547,1751712493,981147008,map,1.2042814800315,-0.5876275324158493,0.0,0.0,0.0,0.0
2025/07/05/17:48:14.095346,9548,1751712493,981147008,map,1.2042814800315,-0.5876275324158493,0.0,0.0,0.0,0.0
2025/07/05/17:48:14.173783,9549,1751712493,981147008,map,1.2042814800315,-0.5876275324158493,0.0,0.0,0.0,0.0
2025/07/05/17:48:14.254598,9550,1751712494,181147008,map,1.3430754242958778,-0.35811786419061464,0.0,0.0,0.0,0.0
2025/07/05/17:48:14.354047,9551,1751712494,181147008,map,1.3430754242958778,-0.35811786419061464,0.0,0.0,0.0,0.0
2025/07/05/17:48:14.515267,9552,1751712494,381147008,map,1.290532507155545,-0.22500188438060573,0.0,0.0,0.0,0.0
2025/07/05/17:48:14.617559,9553,1751712494,581147008,map,1.365175188160694,-0.11487691513273746,0.0,0.0,0.0,0.0
2025/07/05/17:48:14.695518,9554,1751712494,581147008,map,1.365175188160694,-0.11487691513273746,0.0,0.0,0.0,0.0
2025/07/05/17:48:14.796220,9555,1751712494,781147008,map,1.3175799470312173,-0.07989419992223916,0.0,0.0,0.0,0.0
2025/07/05/17:48:14.874629,9556,1751712494,781147008,map,1.3175799470312173,-0.07989419992223916,0.0,0.0,0.0,0.0
2025/07/05/17:48:14.995583,9557,1751712494,981147008,map,1.2878105464110416,-0.3323311549531495,0.0,0.0,0.0,0.0
2025/07/05/17:48:15.074213,9558,1751712494,981147008,map,1.2878105464110416,-0.3323311549531495,0.0,0.0,0.0,0.0
2025/07/05/17:48:15.174019,9559,1751712494,981147008,map,1.2878105464110416,-0.3323311549531495,0.0,0.0,0.0,0.0
2025/07/05/17:48:15.294947,9560,1751712495,181147008,map,1.444544218265462,-0.5041745744043682,0.0,0.0,0.0,0.0
2025/07/05/17:48:15.374054,9561,1751712495,181147008,map,1.444544218265462,-0.5041745744043682,0.0,0.0,0.0,0.0
2025/07/05/17:48:15.554131,9562,1751712495,381147008,map,1.1611270300762884,-0.3404174202743127,0.0,0.0,0.0,0.0
2025/07/05/17:48:15.654667,9563,1751712495,581147008,map,1.429742360389267,-0.3416676497834224,0.0,0.0,0.0,0.0
2025/07/05/17:48:15.733869,9564,1751712495,581147008,map,1.429742360389267,-0.3416676497834224,0.0,0.0,0.0,0.0
2025/07/05/17:48:15.833934,9565,1751712495,781147008,map,1.4679252288359221,-0.30853771657125795,0.0,0.0,0.0,0.0
2025/07/05/17:48:15.914517,9566,1751712495,781147008,map,1.4679252288359221,-0.30853771657125795,0.0,0.0,0.0,0.0
2025/07/05/17:48:16.017809,9567,1751712495,981147008,map,1.3264995654524327,-0.1897337683558387,0.0,0.0,0.0,0.0
2025/07/05/17:48:16.095270,9568,1751712495,981147008,map,1.3264995654524327,-0.1897337683558387,0.0,0.0,0.0,0.0
2025/07/05/17:48:16.195861,9569,1751712496,181147008,map,1.4592310348154995,-0.24707243276271473,0.0,0.0,0.0,0.0
2025/07/05/17:48:16.273997,9570,1751712496,181147008,map,1.4592310348154995,-0.24707243276271473,0.0,0.0,0.0,0.0
2025/07/05/17:48:16.396374,9571,1751712496,381147008,map,1.374091228206806,-0.2680919554278181,0.0,0.0,0.0,0.0
2025/07/05/17:48:16.515278,9572,1751712496,381147008,map,1.374091228206806,-0.2680919554278181,0.0,0.0,0.0,0.0
2025/07/05/17:48:16.617890,9573,1751712496,581147008,map,1.3260624203662632,-0.3441779442270637,0.0,0.0,0.0,0.0
2025/07/05/17:48:16.694446,9574,1751712496,581147008,map,1.3260624203662632,-0.3441779442270637,0.0,0.0,0.0,0.0
2025/07/05/17:48:16.795169,9575,1751712496,781147008,map,1.2828616386238574,-0.4515152446455285,0.0,0.0,0.0,0.0
2025/07/05/17:48:16.874001,9576,1751712496,781147008,map,1.2828616386238574,-0.4515152446455285,0.0,0.0,0.0,0.0
2025/07/05/17:48:16.995598,9577,1751712496,981147008,map,1.3024837625375694,-0.5902847180183278,0.0,0.0,0.0,0.0
2025/07/05/17:48:17.095575,9578,1751712496,981147008,map,1.3024837625375694,-0.5902847180183278,0.0,0.0,0.0,0.0
2025/07/05/17:48:17.194867,9579,1751712496,981147008,map,1.3024837625375694,-0.5902847180183278,0.0,0.0,0.0,0.0
2025/07/05/17:48:17.273981,9580,1751712497,181147008,map,1.2680810099026156,-0.5185272917835307,0.0,0.0,0.0,0.0
2025/07/05/17:48:17.354062,9581,1751712497,181147008,map,1.2680810099026156,-0.5185272917835307,0.0,0.0,0.0,0.0
2025/07/05/17:48:17.515173,9582,1751712497,381147008,map,1.4504977897085551,-0.5173549671652884,0.0,0.0,0.0,0.0
2025/07/05/17:48:17.617499,9583,1751712497,581147008,map,1.4087561459145108,-0.4536585955849328,0.0,0.0,0.0,0.0
2025/07/05/17:48:17.694690,9584,1751712497,581147008,map,1.4087561459145108,-0.4536585955849328,0.0,0.0,0.0,0.0
2025/07/05/17:48:17.774459,9585,1751712497,581147008,map,1.4087561459145108,-0.4536585955849328,0.0,0.0,0.0,0.0
2025/07/05/17:48:17.894688,9586,1751712497,781147008,map,1.2545538435443218,-0.5504495014514681,0.0,0.0,0.0,0.0
2025/07/05/17:48:17.996183,9587,1751712497,981147008,map,1.3353483482888984,-0.7049431102735252,0.0,0.0,0.0,0.0
2025/07/05/17:48:18.073872,9588,1751712497,981147008,map,1.3353483482888984,-0.7049431102735252,0.0,0.0,0.0,0.0
2025/07/05/17:48:18.195359,9589,1751712498,181147008,map,1.3056784712421199,-0.6753545215180252,0.0,0.0,0.0,0.0
2025/07/05/17:48:18.294788,9590,1751712498,181147008,map,1.3056784712421199,-0.6753545215180252,0.0,0.0,0.0,0.0
2025/07/05/17:48:18.373507,9591,1751712498,181147008,map,1.3056784712421199,-0.6753545215180252,0.0,0.0,0.0,0.0
2025/07/05/17:48:18.554161,9592,1751712498,381147008,map,1.2675152868291109,-0.617660908310148,0.0,0.0,0.0,0.0
2025/07/05/17:48:18.653828,9593,1751712498,581147008,map,1.37767266799816,-0.5675544201667644,0.0,0.0,0.0,0.0
2025/07/05/17:48:18.773637,9594,1751712498,581147008,map,1.37767266799816,-0.5675544201667644,0.0,0.0,0.0,0.0
2025/07/05/17:48:18.853789,9595,1751712498,781147008,map,1.4810010873346326,-0.45731365528883566,0.0,0.0,0.0,0.0
2025/07/05/17:48:18.953711,9596,1751712498,781147008,map,1.4810010873346326,-0.45731365528883566,0.0,0.0,0.0,0.0
2025/07/05/17:48:19.074582,9597,1751712498,981147008,map,1.4043826256143672,-0.360845452891533,0.0,0.0,0.0,0.0
2025/07/05/17:48:19.154103,9598,1751712498,981147008,map,1.4043826256143672,-0.360845452891533,0.0,0.0,0.0,0.0
2025/07/05/17:48:19.253800,9599,1751712499,181147008,map,1.3863939506861709,-0.30710228507907766,0.0,0.0,0.0,0.0
2025/07/05/17:48:19.353832,9600,1751712499,181147008,map,1.3863939506861709,-0.30710228507907766,0.0,0.0,0.0,0.0
2025/07/05/17:48:19.515131,9601,1751712499,381147008,map,1.3316517988937235,-0.3985015514437932,0.0,0.0,0.0,0.0
2025/07/05/17:48:19.617275,9602,1751712499,581147008,map,1.50178159582451,-0.5519529313653366,0.0,0.0,0.0,0.0
2025/07/05/17:48:19.694723,9603,1751712499,581147008,map,1.50178159582451,-0.5519529313653366,0.0,0.0,0.0,0.0
2025/07/05/17:48:19.795609,9604,1751712499,781147008,map,1.3570678371524085,-0.4816294066670807,0.0,0.0,0.0,0.0
2025/07/05/17:48:19.873789,9605,1751712499,781147008,map,1.3570678371524085,-0.4816294066670807,0.0,0.0,0.0,0.0
2025/07/05/17:48:19.996656,9606,1751712499,981147008,map,1.476335119021896,-0.40166480595467197,0.0,0.0,0.0,0.0
2025/07/05/17:48:20.095072,9607,1751712499,981147008,map,1.476335119021896,-0.40166480595467197,0.0,0.0,0.0,0.0
2025/07/05/17:48:20.173679,9608,1751712499,981147008,map,1.476335119021896,-0.40166480595467197,0.0,0.0,0.0,0.0
2025/07/05/17:48:20.294672,9609,1751712500,181147008,map,1.3925698556125345,-0.2777574431753083,0.0,0.0,0.0,0.0
2025/07/05/17:48:20.417897,9610,1751712500,381147008,map,1.2946427697223601,-0.3456878632605084,0.0,0.0,0.0,0.0
2025/07/05/17:48:20.574021,9611,1751712500,381147008,map,1.2946427697223601,-0.3456878632605084,0.0,0.0,0.0,0.0
2025/07/05/17:48:20.653895,9612,1751712500,581147008,map,1.4590481705659413,-0.49272551787803703,0.0,0.0,0.0,0.0
2025/07/05/17:48:20.753639,9613,1751712500,581147008,map,1.4590481705659413,-0.49272551787803703,0.0,0.0,0.0,0.0
2025/07/05/17:48:20.853888,9614,1751712500,781147008,map,1.4180958284011556,-0.4235613550257394,0.0,0.0,0.0,0.0
2025/07/05/17:48:20.954051,9615,1751712500,781147008,map,1.4180958284011556,-0.4235613550257394,0.0,0.0,0.0,0.0
2025/07/05/17:48:21.053619,9616,1751712500,981147008,map,1.4140045877420182,-0.36358083811516373,0.0,0.0,0.0,0.0
2025/07/05/17:48:21.153880,9617,1751712500,981147008,map,1.4140045877420182,-0.36358083811516373,0.0,0.0,0.0,0.0
2025/07/05/17:48:21.253871,9618,1751712501,181147008,map,1.289009207373449,-0.28435059927222495,0.0,0.0,0.0,0.0
2025/07/05/17:48:21.353795,9619,1751712501,181147008,map,1.289009207373449,-0.28435059927222495,0.0,0.0,0.0,0.0
2025/07/05/17:48:21.534158,9620,1751712501,381147008,map,1.4896641371167512,-0.17578611602798744,0.0,0.0,0.0,0.0
2025/07/05/17:48:21.633909,9621,1751712501,581147008,map,1.524855201831596,-0.12536591820396253,0.0,0.0,0.0,0.0
2025/07/05/17:48:21.714933,9622,1751712501,581147008,map,1.524855201831596,-0.12536591820396253,0.0,0.0,0.0,0.0
2025/07/05/17:48:21.817407,9623,1751712501,781147008,map,1.2894322195540053,-0.038269454869792996,0.0,0.0,0.0,0.0
2025/07/05/17:48:21.914595,9624,1751712501,781147008,map,1.2894322195540053,-0.038269454869792996,0.0,0.0,0.0,0.0
2025/07/05/17:48:22.017130,9625,1751712501,981147008,map,1.2892757704077888,0.04322022488838248,0.0,0.0,0.0,0.0
2025/07/05/17:48:22.094499,9626,1751712501,981147008,map,1.2892757704077888,0.04322022488838248,0.0,0.0,0.0,0.0
2025/07/05/17:48:22.173671,9627,1751712501,981147008,map,1.2892757704077888,0.04322022488838248,0.0,0.0,0.0,0.0
2025/07/05/17:48:22.253534,9628,1751712502,181147008,map,1.3489160384140282,0.17327873876908437,0.0,0.0,0.0,0.0
2025/07/05/17:48:22.395141,9629,1751712502,381147008,map,1.4134328084039336,0.2170430743593735,0.0,0.0,0.0,0.0
2025/07/05/17:48:22.533703,9630,1751712502,381147008,map,1.4134328084039336,0.2170430743593735,0.0,0.0,0.0,0.0
2025/07/05/17:48:22.633702,9631,1751712502,581147008,map,1.3146612933740678,0.2593562871881527,0.0,0.0,0.0,0.0
2025/07/05/17:48:22.734016,9632,1751712502,581147008,map,1.3146612933740678,0.2593562871881527,0.0,0.0,0.0,0.0
2025/07/05/17:48:22.833821,9633,1751712502,781147008,map,1.3230084469245234,0.3557367697699536,0.0,0.0,0.0,0.0
2025/07/05/17:48:22.933917,9634,1751712502,781147008,map,1.3230084469245234,0.3557367697699536,0.0,0.0,0.0,0.0
2025/07/05/17:48:23.017113,9635,1751712502,981147008,map,1.3286236047424522,0.40848416973142493,0.0,0.0,0.0,0.0
2025/07/05/17:48:23.095232,9636,1751712502,981147008,map,1.3286236047424522,0.40848416973142493,0.0,0.0,0.0,0.0
2025/07/05/17:48:23.195607,9637,1751712503,181147008,map,1.243235700120612,0.47250925276190264,0.0,0.0,0.0,0.0
2025/07/05/17:48:23.274078,9638,1751712503,181147008,map,1.243235700120612,0.47250925276190264,0.0,0.0,0.0,0.0
2025/07/05/17:48:23.353622,9639,1751712503,181147008,map,1.243235700120612,0.47250925276190264,0.0,0.0,0.0,0.0
2025/07/05/17:48:23.533560,9640,1751712503,381147008,map,1.2130593504969251,0.6148878045399649,0.0,0.0,0.0,0.0
2025/07/05/17:48:23.633890,9641,1751712503,581147008,map,1.0779597136900299,0.6714930049235872,0.0,0.0,0.0,0.0
2025/07/05/17:48:23.714916,9642,1751712503,581147008,map,1.0779597136900299,0.6714930049235872,0.0,0.0,0.0,0.0
2025/07/05/17:48:23.817209,9643,1751712503,781147008,map,1.0959995300085539,0.8385612859064201,0.0,0.0,0.0,0.0
2025/07/05/17:48:23.895086,9644,1751712503,781147008,map,1.0959995300085539,0.8385612859064201,0.0,0.0,0.0,0.0
2025/07/05/17:48:24.017192,9645,1751712503,981147008,map,1.0143399985017012,0.7304891288989652,0.0,0.0,0.0,0.0
2025/07/05/17:48:24.094675,9646,1751712503,981147008,map,1.0143399985017012,0.7304891288989652,0.0,0.0,0.0,0.0
2025/07/05/17:48:24.174158,9647,1751712503,981147008,map,1.0143399985017012,0.7304891288989652,0.0,0.0,0.0,0.0
2025/07/05/17:48:24.253544,9648,1751712504,181147008,map,0.9283854044483779,0.99383124362601,0.0,0.0,0.0,0.0
2025/07/05/17:48:24.354297,9649,1751712504,181147008,map,0.9283854044483779,0.99383124362601,0.0,0.0,0.0,0.0
2025/07/05/17:48:24.533859,9650,1751712504,381147008,map,0.7963697567878645,0.9373874388285975,0.0,0.0,0.0,0.0
2025/07/05/17:48:24.653977,9651,1751712504,581147008,map,0.8089158627286595,1.0557249296222708,0.0,0.0,0.0,0.0
2025/07/05/17:48:24.753663,9652,1751712504,581147008,map,0.8089158627286595,1.0557249296222708,0.0,0.0,0.0,0.0
2025/07/05/17:48:24.853495,9653,1751712504,781147008,map,0.762607865806821,1.0404466555328848,0.0,0.0,0.0,0.0
2025/07/05/17:48:24.953446,9654,1751712504,781147008,map,0.762607865806821,1.0404466555328848,0.0,0.0,0.0,0.0
2025/07/05/17:48:25.053648,9655,1751712504,981147008,map,0.5688907222549798,1.1242612446100806,0.0,0.0,0.0,0.0
2025/07/05/17:48:25.153512,9656,1751712504,981147008,map,0.5688907222549798,1.1242612446100806,0.0,0.0,0.0,0.0
2025/07/05/17:48:25.253743,9657,1751712505,181147008,map,0.43394897702218377,1.193561177879626,0.0,0.0,0.0,0.0
2025/07/05/17:48:25.353767,9658,1751712505,181147008,map,0.43394897702218377,1.193561177879626,0.0,0.0,0.0,0.0
2025/07/05/17:48:25.514514,9659,1751712505,381147008,map,0.4192790771006939,1.251640945121879,0.0,0.0,0.0,0.0
2025/07/05/17:48:25.614508,9660,1751712505,581147008,map,0.3729496396992117,1.2870542203995248,0.0,0.0,0.0,0.0
2025/07/05/17:48:25.694495,9661,1751712505,581147008,map,0.3729496396992117,1.2870542203995248,0.0,0.0,0.0,0.0
2025/07/05/17:48:25.794492,9662,1751712505,581147008,map,0.3729496396992117,1.2870542203995248,0.0,0.0,0.0,0.0
2025/07/05/17:48:25.873734,9663,1751712505,781147008,map,0.508333094448403,1.2181943461896838,0.0,0.0,0.0,0.0
2025/07/05/17:48:25.995481,9664,1751712505,981147008,map,0.6322236664466668,1.3160141471825952,0.0,0.0,0.0,0.0
2025/07/05/17:48:26.094500,9665,1751712505,981147008,map,0.6322236664466668,1.3160141471825952,0.0,0.0,0.0,0.0
2025/07/05/17:48:26.173377,9666,1751712505,981147008,map,0.6322236664466668,1.3160141471825952,0.0,0.0,0.0,0.0
2025/07/05/17:48:26.253740,9667,1751712506,181147008,map,0.4756359621302769,1.306089748649918,0.0,0.0,0.0,0.0
2025/07/05/17:48:26.353505,9668,1751712506,181147008,map,0.4756359621302769,1.306089748649918,0.0,0.0,0.0,0.0
2025/07/05/17:48:26.514515,9669,1751712506,381147008,map,0.3824092431007149,1.4504355107315658,0.0,0.0,0.0,0.0
2025/07/05/17:48:26.615305,9670,1751712506,581147008,map,0.22919088443678393,1.3608348681934501,0.0,0.0,0.0,0.0
2025/07/05/17:48:26.694577,9671,1751712506,581147008,map,0.22919088443678393,1.3608348681934501,0.0,0.0,0.0,0.0
2025/07/05/17:48:26.773535,9672,1751712506,581147008,map,0.22919088443678393,1.3608348681934501,0.0,0.0,0.0,0.0
2025/07/05/17:48:26.873378,9673,1751712506,781147008,map,0.26043218527273765,1.3348314788294688,0.0,0.0,0.0,0.0
2025/07/05/17:48:26.953660,9674,1751712506,781147008,map,0.26043218527273765,1.3348314788294688,0.0,0.0,0.0,0.0
2025/07/05/17:48:27.053646,9675,1751712506,981147008,map,0.45262634233378163,1.3670147746917523,0.0,0.0,0.0,0.0
2025/07/05/17:48:27.133575,9676,1751712506,981147008,map,0.45262634233378163,1.3670147746917523,0.0,0.0,0.0,0.0
2025/07/05/17:48:27.236441,9677,1751712507,181147008,map,0.47048123527773317,1.3609729634535501,0.0,0.0,0.0,0.0
2025/07/05/17:48:27.314572,9678,1751712507,181147008,map,0.47048123527773317,1.3609729634535501,0.0,0.0,0.0,0.0
2025/07/05/17:48:27.495156,9679,1751712507,381147008,map,0.3768061102703421,1.3587189390241583,0.0,0.0,0.0,0.0
2025/07/05/17:48:27.594855,9680,1751712507,381147008,map,0.3768061102703421,1.3587189390241583,0.0,0.0,0.0,0.0
2025/07/05/17:48:27.673456,9681,1751712507,581147008,map,0.2535637388365133,1.3870131327234245,0.0,0.0,0.0,0.0
2025/07/05/17:48:27.795272,9682,1751712507,781147008,map,0.3005594088040267,1.4287281203151891,0.0,0.0,0.0,0.0
2025/07/05/17:48:27.894460,9683,1751712507,781147008,map,0.3005594088040267,1.4287281203151891,0.0,0.0,0.0,0.0
2025/07/05/17:48:27.994158,9684,1751712507,781147008,map,0.3005594088040267,1.4287281203151891,0.0,0.0,0.0,0.0
2025/07/05/17:48:28.094858,9685,1751712507,981147008,map,0.3746411701253504,1.3904114476107812,0.0,0.0,0.0,0.0
2025/07/05/17:48:28.195578,9686,1751712508,181147008,map,0.4034450102575479,1.4343403095842657,0.0,0.0,0.0,0.0
2025/07/05/17:48:28.273496,9687,1751712508,181147008,map,0.4034450102575479,1.4343403095842657,0.0,0.0,0.0,0.0
2025/07/05/17:48:28.395277,9688,1751712508,181147008,map,0.4034450102575479,1.4343403095842657,0.0,0.0,0.0,0.0
2025/07/05/17:48:28.553371,9689,1751712508,381147008,map,0.3766449853435387,1.4105809282049597,0.0,0.0,0.0,0.0
2025/07/05/17:48:28.633123,9690,1751712508,581147008,map,0.29906308368843904,1.429042081946771,0.0,0.0,0.0,0.0
2025/07/05/17:48:28.733352,9691,1751712508,581147008,map,0.29906308368843904,1.429042081946771,0.0,0.0,0.0,0.0
2025/07/05/17:48:28.853583,9692,1751712508,781147008,map,0.23314532212778535,1.4007295451906234,0.0,0.0,0.0,0.0
2025/07/05/17:48:28.994893,9693,1751712508,981147008,map,0.3013074478642716,1.4285705519369771,0.0,0.0,0.0,0.0
2025/07/05/17:48:29.094506,9694,1751712508,981147008,map,0.3013074478642716,1.4285705519369771,0.0,0.0,0.0,0.0
2025/07/05/17:48:29.175204,9695,1751712508,981147008,map,0.3013074478642716,1.4285705519369771,0.0,0.0,0.0,0.0
2025/07/05/17:48:29.295022,9696,1751712509,181147008,map,0.3901777089490958,1.5207436849907465,0.0,0.0,0.0,0.0
2025/07/05/17:48:29.418252,9697,1751712509,381147008,map,0.34102551904672346,1.5120190459643401,0.0,0.0,0.0,0.0
2025/07/05/17:48:29.575104,9698,1751712509,381147008,map,0.34102551904672346,1.5120190459643401,0.0,0.0,0.0,0.0
2025/07/05/17:48:29.654627,9699,1751712509,581147008,map,0.2363232817891043,1.4306122138736366,0.0,0.0,0.0,0.0
2025/07/05/17:48:29.753839,9700,1751712509,581147008,map,0.2363232817891043,1.4306122138736366,0.0,0.0,0.0,0.0
2025/07/05/17:48:29.853743,9701,1751712509,781147008,map,0.15776759593078166,1.4313313332957611,0.0,0.0,0.0,0.0
2025/07/05/17:48:29.935049,9702,1751712509,781147008,map,0.15776759593078166,1.4313313332957611,0.0,0.0,0.0,0.0
2025/07/05/17:48:30.036204,9703,1751712509,981147008,map,0.22188466140890065,1.331640791291502,0.0,0.0,0.0,0.0
2025/07/05/17:48:30.114356,9704,1751712509,981147008,map,0.22188466140890065,1.331640791291502,0.0,0.0,0.0,0.0
2025/07/05/17:48:30.195162,9705,1751712510,181147008,map,0.3160881578459237,1.4048801644516056,0.0,0.0,0.0,0.0
2025/07/05/17:48:30.294743,9706,1751712510,181147008,map,0.3160881578459237,1.4048801644516056,0.0,0.0,0.0,0.0
2025/07/05/17:48:30.375682,9707,1751712510,181147008,map,0.3160881578459237,1.4048801644516056,0.0,0.0,0.0,0.0
2025/07/05/17:48:30.555073,9708,1751712510,381147008,map,0.3769984813699784,1.4001329026362925,0.0,0.0,0.0,0.0
2025/07/05/17:48:30.655231,9709,1751712510,581147008,map,0.2605283139513932,1.46704635156141,0.0,0.0,0.0,0.0
2025/07/05/17:48:30.733333,9710,1751712510,581147008,map,0.2605283139513932,1.46704635156141,0.0,0.0,0.0,0.0
2025/07/05/17:48:30.833807,9711,1751712510,781147008,map,0.2379530975255809,1.4404785050037996,0.0,0.0,0.0,0.0
2025/07/05/17:48:30.914316,9712,1751712510,781147008,map,0.2379530975255809,1.4404785050037996,0.0,0.0,0.0,0.0
2025/07/05/17:48:31.016848,9713,1751712510,981147008,map,0.2071942488765925,1.3946937094690233,0.0,0.0,0.0,0.0
2025/07/05/17:48:31.094576,9714,1751712510,981147008,map,0.2071942488765925,1.3946937094690233,0.0,0.0,0.0,0.0
2025/07/05/17:48:31.195491,9715,1751712511,181147008,map,0.2706996525704553,1.3633861148252298,0.0,0.0,0.0,0.0
2025/07/05/17:48:31.274976,9716,1751712511,181147008,map,0.2706996525704553,1.3633861148252298,0.0,0.0,0.0,0.0
2025/07/05/17:48:31.395614,9717,1751712511,381147008,map,0.3952263566704444,1.384700735535663,0.0,0.0,0.0,0.0
2025/07/05/17:48:31.575024,9718,1751712511,381147008,map,0.3952263566704444,1.384700735535663,0.0,0.0,0.0,0.0
2025/07/05/17:48:31.675897,9719,1751712511,581147008,map,0.37443412565640044,1.3593745199700953,0.0,0.0,0.0,0.0
2025/07/05/17:48:31.794822,9720,1751712511,781147008,map,0.3448903588230463,1.408385827957279,0.0,0.0,0.0,0.0
2025/07/05/17:48:31.875426,9721,1751712511,781147008,map,0.3448903588230463,1.408385827957279,0.0,0.0,0.0,0.0
2025/07/05/17:48:31.995139,9722,1751712511,981147008,map,0.28833152875532814,1.349542488966396,0.0,0.0,0.0,0.0
2025/07/05/17:48:32.093859,9723,1751712511,981147008,map,0.28833152875532814,1.349542488966396,0.0,0.0,0.0,0.0
2025/07/05/17:48:32.175077,9724,1751712511,981147008,map,0.28833152875532814,1.349542488966396,0.0,0.0,0.0,0.0
2025/07/05/17:48:32.274951,9725,1751712512,181147008,map,0.21035817248745914,1.3942200110698941,0.0,0.0,0.0,0.0
2025/07/05/17:48:32.354103,9726,1751712512,181147008,map,0.21035817248745914,1.3942200110698941,0.0,0.0,0.0,0.0
2025/07/05/17:48:32.533328,9727,1751712512,381147008,map,0.08727882214574559,1.3872571525152975,0.0,0.0,0.0,0.0
2025/07/05/17:48:32.633903,9728,1751712512,581147008,map,0.02789174434228505,1.3097030390884585,0.0,0.0,0.0,0.0
2025/07/05/17:48:32.714834,9729,1751712512,581147008,map,0.02789174434228505,1.3097030390884585,0.0,0.0,0.0,0.0
2025/07/05/17:48:32.817038,9730,1751712512,781147008,map,-0.11114346444840154,1.315312559930303,0.0,0.0,0.0,0.0
2025/07/05/17:48:32.894203,9731,1751712512,781147008,map,-0.11114346444840154,1.315312559930303,0.0,0.0,0.0,0.0
2025/07/05/17:48:32.995157,9732,1751712512,981147008,map,-0.3177548118443361,1.465957666356628,0.0,0.0,0.0,0.0
2025/07/05/17:48:33.075128,9733,1751712512,981147008,map,-0.3177548118443361,1.465957666356628,0.0,0.0,0.0,0.0
2025/07/05/17:48:33.195017,9734,1751712513,181147008,map,-0.2547531059553402,1.254392623944396,0.0,0.0,0.0,0.0
2025/07/05/17:48:33.294281,9735,1751712513,181147008,map,-0.2547531059553402,1.254392623944396,0.0,0.0,0.0,0.0
2025/07/05/17:48:33.374894,9736,1751712513,181147008,map,-0.2547531059553402,1.254392623944396,0.0,0.0,0.0,0.0
2025/07/05/17:48:33.555776,9737,1751712513,381147008,map,-0.3500594418875897,1.2208023538416648,0.0,0.0,0.0,0.0
2025/07/05/17:48:33.655297,9738,1751712513,581147008,map,-0.4310297732908787,1.2582183175175974,0.0,0.0,0.0,0.0
2025/07/05/17:48:33.774978,9739,1751712513,581147008,map,-0.4310297732908787,1.2582183175175974,0.0,0.0,0.0,0.0
2025/07/05/17:48:33.854009,9740,1751712513,781147008,map,-0.5189443548877288,1.2137119742880347,0.0,0.0,0.0,0.0
2025/07/05/17:48:33.975056,9741,1751712513,781147008,map,-0.5189443548877288,1.2137119742880347,0.0,0.0,0.0,0.0
2025/07/05/17:48:34.075207,9742,1751712513,981147008,map,-0.5806282221210994,1.174295902946311,0.0,0.0,0.0,0.0
2025/07/05/17:48:34.194172,9743,1751712513,981147008,map,-0.5806282221210994,1.174295902946311,0.0,0.0,0.0,0.0
2025/07/05/17:48:34.274813,9744,1751712514,181147008,map,-0.7096240466817915,1.1130290707663295,0.0,0.0,0.0,0.0
2025/07/05/17:48:34.394596,9745,1751712514,181147008,map,-0.7096240466817915,1.1130290707663295,0.0,0.0,0.0,0.0
2025/07/05/17:48:34.595049,9746,1751712514,381147008,map,-0.8608468214906783,1.0528735678747931,0.0,0.0,0.0,0.0
2025/07/05/17:48:34.675430,9747,1751712514,581147008,map,-0.9025661187598186,0.9356144511853357,0.0,0.0,0.0,0.0
2025/07/05/17:48:34.775950,9748,1751712514,581147008,map,-0.9025661187598186,0.9356144511853357,0.0,0.0,0.0,0.0
2025/07/05/17:48:34.853385,9749,1751712514,781147008,map,-0.9251285574428659,0.8990201066737505,0.0,0.0,0.0,0.0
2025/07/05/17:48:34.995090,9750,1751712514,981147008,map,-0.9730408249241889,0.8620855833563477,0.0,0.0,0.0,0.0
2025/07/05/17:48:35.094154,9751,1751712514,981147008,map,-0.9730408249241889,0.8620855833563477,0.0,0.0,0.0,0.0
2025/07/05/17:48:35.175370,9752,1751712514,981147008,map,-0.9730408249241889,0.8620855833563477,0.0,0.0,0.0,0.0
2025/07/05/17:48:35.274917,9753,1751712515,181147008,map,-1.0629419049823494,0.7484347043212881,0.0,0.0,0.0,0.0
2025/07/05/17:48:35.418095,9754,1751712515,381147008,map,-1.2533257443818642,0.7291601871123012,0.0,0.0,0.0,0.0
2025/07/05/17:48:35.574602,9755,1751712515,381147008,map,-1.2533257443818642,0.7291601871123012,0.0,0.0,0.0,0.0
2025/07/05/17:48:35.675620,9756,1751712515,581147008,map,-1.2315511618107307,0.6226409365297461,0.0,0.0,0.0,0.0
2025/07/05/17:48:35.774650,9757,1751712515,581147008,map,-1.2315511618107307,0.6226409365297461,0.0,0.0,0.0,0.0
2025/07/05/17:48:35.874803,9758,1751712515,781147008,map,-1.2265173820200594,0.5396805644107077,0.0,0.0,0.0,0.0
2025/07/05/17:48:35.994348,9759,1751712515,781147008,map,-1.2265173820200594,0.5396805644107077,0.0,0.0,0.0,0.0
2025/07/05/17:48:36.114668,9760,1751712515,981147008,map,-1.262674367885519,0.5315575610269363,0.0,0.0,0.0,0.0
2025/07/05/17:48:36.214866,9761,1751712516,181147008,map,-1.2881068288251623,0.5976460470328434,0.0,0.0,0.0,0.0
2025/07/05/17:48:36.294454,9762,1751712516,181147008,map,-1.2881068288251623,0.5976460470328434,0.0,0.0,0.0,0.0
2025/07/05/17:48:36.436338,9763,1751712516,381147008,map,-1.3741799926150942,0.5759595019585836,0.0,0.0,0.0,0.0
2025/07/05/17:48:36.594354,9764,1751712516,381147008,map,-1.3741799926150942,0.5759595019585836,0.0,0.0,0.0,0.0
2025/07/05/17:48:36.674479,9765,1751712516,581147008,map,-1.4182747685220412,0.4567238563659123,0.0,0.0,0.0,0.0
2025/07/05/17:48:36.794873,9766,1751712516,781147008,map,-1.3511967425709601,0.32614009699150204,0.0,0.0,0.0,0.0
2025/07/05/17:48:36.894878,9767,1751712516,781147008,map,-1.3511967425709601,0.32614009699150204,0.0,0.0,0.0,0.0
2025/07/05/17:48:36.995167,9768,1751712516,781147008,map,-1.3511967425709601,0.32614009699150204,0.0,0.0,0.0,0.0
2025/07/05/17:48:37.094242,9769,1751712516,981147008,map,-1.3486727808410033,0.1751620113454851,0.0,0.0,0.0,0.0
2025/07/05/17:48:37.195398,9770,1751712516,981147008,map,-1.3486727808410033,0.1751620113454851,0.0,0.0,0.0,0.0
2025/07/05/17:48:37.274722,9771,1751712517,181147008,map,-1.3275227579514635,0.24532290378385116,0.0,0.0,0.0,0.0
2025/07/05/17:48:37.394190,9772,1751712517,181147008,map,-1.3275227579514635,0.24532290378385116,0.0,0.0,0.0,0.0
2025/07/05/17:48:37.553430,9773,1751712517,381147008,map,-1.4164466279704329,0.35394766578011216,0.0,0.0,0.0,0.0
2025/07/05/17:48:37.655358,9774,1751712517,581147008,map,-1.3219333870424057,0.3960960997316094,0.0,0.0,0.0,0.0
2025/07/05/17:48:37.753078,9775,1751712517,581147008,map,-1.3219333870424057,0.3960960997316094,0.0,0.0,0.0,0.0
2025/07/05/17:48:37.853267,9776,1751712517,781147008,map,-1.39635386182884,0.42637529543312525,0.0,0.0,0.0,0.0
2025/07/05/17:48:37.994595,9777,1751712517,781147008,map,-1.39635386182884,0.42637529543312525,0.0,0.0,0.0,0.0
2025/07/05/17:48:38.075089,9778,1751712517,981147008,map,-1.4318028005232528,0.33292753027313626,0.0,0.0,0.0,0.0
2025/07/05/17:48:38.174920,9779,1751712517,981147008,map,-1.4318028005232528,0.33292753027313626,0.0,0.0,0.0,0.0
2025/07/05/17:48:38.294916,9780,1751712518,181147008,map,-1.4240788657322234,0.2729457531723544,0.0,0.0,0.0,0.0
2025/07/05/17:48:38.418784,9781,1751712518,381147008,map,-1.273559703361167,0.1282407188634574,0.0,0.0,0.0,0.0
2025/07/05/17:48:38.594456,9782,1751712518,381147008,map,-1.273559703361167,0.1282407188634574,0.0,0.0,0.0,0.0
2025/07/05/17:48:38.675349,9783,1751712518,581147008,map,-1.2897915618531595,0.02318894073448945,0.0,0.0,0.0,0.0
2025/07/05/17:48:38.774646,9784,1751712518,581147008,map,-1.2897915618531595,0.02318894073448945,0.0,0.0,0.0,0.0
2025/07/05/17:48:38.874668,9785,1751712518,781147008,map,-1.3799453309772463,-0.01228346506885261,0.0,0.0,0.0,0.0
2025/07/05/17:48:38.995023,9786,1751712518,981147008,map,-1.5266007585277919,0.10193195800322366,0.0,0.0,0.0,0.0
2025/07/05/17:48:39.075361,9787,1751712518,981147008,map,-1.5266007585277919,0.10193195800322366,0.0,0.0,0.0,0.0
2025/07/05/17:48:39.193981,9788,1751712518,981147008,map,-1.5266007585277919,0.10193195800322366,0.0,0.0,0.0,0.0
2025/07/05/17:48:39.274824,9789,1751712519,181147008,map,-1.5995550387337747,0.18309472428607249,0.0,0.0,0.0,0.0
2025/07/05/17:48:39.375110,9790,1751712519,181147008,map,-1.5995550387337747,0.18309472428607249,0.0,0.0,0.0,0.0
2025/07/05/17:48:39.553789,9791,1751712519,384147008,map,-1.3596420090391335,0.16814757582561055,0.0,0.0,0.0,0.0
2025/07/05/17:48:39.654679,9792,1751712519,584147008,map,-1.4181814872015444,0.07184197490893196,0.0,0.0,0.0,0.0
2025/07/05/17:48:39.753940,9793,1751712519,584147008,map,-1.4181814872015444,0.07184197490893196,0.0,0.0,0.0,0.0
2025/07/05/17:48:39.855547,9794,1751712519,784147008,map,-1.499814948722491,-0.023560975967731154,0.0,0.0,0.0,0.0
2025/07/05/17:48:39.953531,9795,1751712519,784147008,map,-1.499814948722491,-0.023560975967731154,0.0,0.0,0.0,0.0
2025/07/05/17:48:40.053710,9796,1751712519,984147008,map,-1.4394385656581101,-0.040207159761939504,0.0,0.0,0.0,0.0
2025/07/05/17:48:40.155697,9797,1751712519,984147008,map,-1.4394385656581101,-0.040207159761939504,0.0,0.0,0.0,0.0
2025/07/05/17:48:40.254938,9798,1751712520,184147008,map,-1.377029540396496,0.09049665670849182,0.0,0.0,0.0,0.0
2025/07/05/17:48:40.332969,9799,1751712520,184147008,map,-1.377029540396496,0.09049665670849182,0.0,0.0,0.0,0.0
2025/07/05/17:48:40.516478,9800,1751712520,384147008,map,-1.4593840931247486,0.17634644519937093,0.0,0.0,0.0,0.0
2025/07/05/17:48:40.594270,9801,1751712520,384147008,map,-1.4593840931247486,0.17634644519937093,0.0,0.0,0.0,0.0
2025/07/05/17:48:40.674281,9802,1751712520,584147008,map,-1.5199521998806758,0.17505801917619876,0.0,0.0,0.0,0.0
2025/07/05/17:48:40.775631,9803,1751712520,584147008,map,-1.5199521998806758,0.17505801917619876,0.0,0.0,0.0,0.0
2025/07/05/17:48:40.874892,9804,1751712520,784147008,map,-1.2279850747954342,0.07037510980205866,0.0,0.0,0.0,0.0
2025/07/05/17:48:40.995152,9805,1751712520,984147008,map,-1.3599983221675969,-0.0021362821259289042,0.0,0.0,0.0,0.0
2025/07/05/17:48:41.093975,9806,1751712520,984147008,map,-1.3599983221675969,-0.0021362821259289042,0.0,0.0,0.0,0.0
2025/07/05/17:48:41.175083,9807,1751712520,984147008,map,-1.3599983221675969,-0.0021362821259289042,0.0,0.0,0.0,0.0
2025/07/05/17:48:41.275052,9808,1751712521,184147008,map,-1.2787025198075577,0.05761827694233006,0.0,0.0,0.0,0.0
2025/07/05/17:48:41.418561,9809,1751712521,384147008,map,-1.308827182383456,0.17138088182228378,0.0,0.0,0.0,0.0
2025/07/05/17:48:41.594701,9810,1751712521,584147008,map,-1.3956769309479786,0.2616981169585131,0.0,0.0,0.0,0.0
2025/07/05/17:48:41.675273,9811,1751712521,584147008,map,-1.3956769309479786,0.2616981169585131,0.0,0.0,0.0,0.0
2025/07/05/17:48:41.775345,9812,1751712521,584147008,map,-1.3956769309479786,0.2616981169585131,0.0,0.0,0.0,0.0
2025/07/05/17:48:41.894042,9813,1751712521,784147008,map,-1.4333812545325433,0.4420612843879368,0.0,0.0,0.0,0.0
2025/07/05/17:48:41.994945,9814,1751712521,984147008,map,-1.2941098532667126,0.44964395656786954,0.0,0.0,0.0,0.0
2025/07/05/17:48:42.074338,9815,1751712521,984147008,map,-1.2941098532667126,0.44964395656786954,0.0,0.0,0.0,0.0
2025/07/05/17:48:42.153955,9816,1751712521,984147008,map,-1.2941098532667126,0.44964395656786954,0.0,0.0,0.0,0.0
2025/07/05/17:48:42.253470,9817,1751712522,184147008,map,-1.1262690368980564,0.44228730088566265,0.0,0.0,0.0,0.0
2025/07/05/17:48:42.354032,9818,1751712522,184147008,map,-1.1262690368980564,0.44228730088566265,0.0,0.0,0.0,0.0
2025/07/05/17:48:42.533887,9819,1751712522,384147008,map,-1.0957834737942242,0.3144178407143313,0.0,0.0,0.0,0.0
2025/07/05/17:48:42.616888,9820,1751712522,584147008,map,-0.9372078877548836,0.2079456061811104,0.0,0.0,0.0,0.0
2025/07/05/17:48:42.694008,9821,1751712522,584147008,map,-0.9372078877548836,0.2079456061811104,0.0,0.0,0.0,0.0
2025/07/05/17:48:42.795381,9822,1751712522,784147008,map,-0.9269033984157996,0.2082068442804928,0.0,0.0,0.0,0.0
2025/07/05/17:48:42.893886,9823,1751712522,784147008,map,-0.9269033984157996,0.2082068442804928,0.0,0.0,0.0,0.0
2025/07/05/17:48:43.014205,9824,1751712522,984147008,map,-1.0179105879313233,0.2132088998548322,0.0,0.0,0.0,0.0
2025/07/05/17:48:43.094121,9825,1751712522,984147008,map,-1.0179105879313233,0.2132088998548322,0.0,0.0,0.0,0.0
2025/07/05/17:48:43.195074,9826,1751712523,184147008,map,-0.7897769066751033,0.1798678339300978,0.0,0.0,0.0,0.0
2025/07/05/17:48:43.275579,9827,1751712523,184147008,map,-0.7897769066751033,0.1798678339300978,0.0,0.0,0.0,0.0
2025/07/05/17:48:43.454098,9828,1751712523,384147008,map,-0.7669322194959665,0.1895124552608371,0.0,0.0,0.0,0.0
2025/07/05/17:48:43.594696,9829,1751712523,384147008,map,-0.7669322194959665,0.1895124552608371,0.0,0.0,0.0,0.0
2025/07/05/17:48:43.694110,9830,1751712523,584147008,map,-0.6269281597435802,0.12868986953341774,0.0,0.0,0.0,0.0
2025/07/05/17:48:43.794665,9831,1751712523,584147008,map,-0.6269281597435802,0.12868986953341774,0.0,0.0,0.0,0.0
2025/07/05/17:48:43.933946,9832,1751712523,784147008,map,-0.657910101306479,0.23906965219136125,0.0,0.0,0.0,0.0
2025/07/05/17:48:44.035686,9833,1751712523,984147008,map,-0.5515189211386332,0.14396832855207423,0.0,0.0,0.0,0.0
2025/07/05/17:48:44.115443,9834,1751712523,984147008,map,-0.5515189211386332,0.14396832855207423,0.0,0.0,0.0,0.0
2025/07/05/17:48:44.216319,9835,1751712524,184147008,map,-0.5329565446341861,0.20213194089898004,0.0,0.0,0.0,0.0
2025/07/05/17:48:44.294036,9836,1751712524,184147008,map,-0.5329565446341861,0.20213194089898004,0.0,0.0,0.0,0.0
2025/07/05/17:48:44.475822,9837,1751712524,384147008,map,-0.544010693772093,0.20112773319859714,0.0,0.0,0.0,0.0
2025/07/05/17:48:44.595671,9838,1751712524,584147008,map,-0.7580975576726017,0.18354316399919796,0.0,0.0,0.0,0.0
2025/07/05/17:48:44.693827,9839,1751712524,584147008,map,-0.7580975576726017,0.18354316399919796,0.0,0.0,0.0,0.0
2025/07/05/17:48:44.774667,9840,1751712524,584147008,map,-0.7580975576726017,0.18354316399919796,0.0,0.0,0.0,0.0
2025/07/05/17:48:44.894188,9841,1751712524,784147008,map,-0.7468656618395776,0.06849586239277361,0.0,0.0,0.0,0.0
2025/07/05/17:48:44.995280,9842,1751712524,984147008,map,-0.748209379770919,0.051795019285804315,0.0,0.0,0.0,0.0
2025/07/05/17:48:45.074387,9843,1751712524,984147008,map,-0.748209379770919,0.051795019285804315,0.0,0.0,0.0,0.0
2025/07/05/17:48:45.174753,9844,1751712524,984147008,map,-0.748209379770919,0.051795019285804315,0.0,0.0,0.0,0.0
2025/07/05/17:48:45.252893,9845,1751712525,184147008,map,-0.7052689007726165,0.14489919807571439,0.0,0.0,0.0,0.0
2025/07/05/17:48:45.352759,9846,1751712525,184147008,map,-0.7052689007726165,0.14489919807571439,0.0,0.0,0.0,0.0
2025/07/05/17:48:45.532919,9847,1751712525,384147008,map,-0.7025095487771955,0.10286074993339832,0.0,0.0,0.0,0.0
2025/07/05/17:48:45.632751,9848,1751712525,584147008,map,-0.2176790151140606,0.031872345049785394,0.0,0.0,0.0,0.0
2025/07/05/17:48:45.715317,9849,1751712525,584147008,map,-0.2176790151140606,0.031872345049785394,0.0,0.0,0.0,0.0
2025/07/05/17:48:45.816830,9850,1751712525,784147008,map,-0.45751352871313195,0.04776370007085118,0.0,0.0,0.0,0.0
2025/07/05/17:48:45.914345,9851,1751712525,784147008,map,-0.45751352871313195,0.04776370007085118,0.0,0.0,0.0,0.0
2025/07/05/17:48:46.014681,9852,1751712525,984147008,map,-0.5345333737058087,0.12951475743978474,0.0,0.0,0.0,0.0
2025/07/05/17:48:46.093821,9853,1751712525,984147008,map,-0.5345333737058087,0.12951475743978474,0.0,0.0,0.0,0.0
2025/07/05/17:48:46.194272,9854,1751712526,184147008,map,-0.5389046388087844,0.03437717659107065,0.0,0.0,0.0,0.0
2025/07/05/17:48:46.274457,9855,1751712526,184147008,map,-0.5389046388087844,0.03437717659107065,0.0,0.0,0.0,0.0
2025/07/05/17:48:46.394078,9856,1751712526,184147008,map,-0.5389046388087844,0.03437717659107065,0.0,0.0,0.0,0.0
2025/07/05/17:48:46.574692,9857,1751712526,384147008,map,-0.4578280446076474,0.0446484218168796,0.0,0.0,0.0,0.0
2025/07/05/17:48:46.676202,9858,1751712526,584147008,map,-0.39999961008976603,-0.0005585051791657492,0.0,0.0,0.0,0.0
2025/07/05/17:48:46.794592,9859,1751712526,784147008,map,-0.44991092975877156,-0.008952948318724861,0.0,0.0,0.0,0.0
2025/07/05/17:48:46.874424,9860,1751712526,784147008,map,-0.44991092975877156,-0.008952948318724861,0.0,0.0,0.0,0.0
2025/07/05/17:48:46.994223,9861,1751712526,784147008,map,-0.44991092975877156,-0.008952948318724861,0.0,0.0,0.0,0.0
2025/07/05/17:48:47.094359,9862,1751712526,984147008,map,-0.4889113540383124,-0.032644875438941096,0.0,0.0,0.0,0.0
2025/07/05/17:48:47.174204,9863,1751712526,984147008,map,-0.4889113540383124,-0.032644875438941096,0.0,0.0,0.0,0.0
2025/07/05/17:48:47.293823,9864,1751712527,184147008,map,-0.47842008583468165,-0.03891299872710641,0.0,0.0,0.0,0.0
2025/07/05/17:48:47.418717,9865,1751712527,384147008,map,-0.38971773960794825,-0.014835209296516438,0.0,0.0,0.0,0.0
2025/07/05/17:48:47.594230,9866,1751712527,384147008,map,-0.38971773960794825,-0.014835209296516438,0.0,0.0,0.0,0.0
2025/07/05/17:48:47.672804,9867,1751712527,584147008,map,-0.43968155237819806,-0.01673715920632624,0.0,0.0,0.0,0.0
2025/07/05/17:48:47.774946,9868,1751712527,584147008,map,-0.43968155237819806,-0.01673715920632624,0.0,0.0,0.0,0.0
2025/07/05/17:48:47.875473,9869,1751712527,784147008,map,-0.3797249770538983,-0.014454819314554479,0.0,0.0,0.0,0.0
2025/07/05/17:48:47.994282,9870,1751712527,784147008,map,-0.3797249770538983,-0.014454819314554479,0.0,0.0,0.0,0.0
2025/07/05/17:48:48.094426,9871,1751712527,984147008,map,-0.5081284902046626,-0.04365131661622741,0.0,0.0,0.0,0.0
2025/07/05/17:48:48.194439,9872,1751712528,184147008,map,-0.38856884545062437,-0.03338041858887979,0.0,0.0,0.0,0.0
2025/07/05/17:48:48.293750,9873,1751712528,184147008,map,-0.38856884545062437,-0.03338041858887979,0.0,0.0,0.0,0.0
2025/07/05/17:48:48.374591,9874,1751712528,184147008,map,-0.38856884545062437,-0.03338041858887979,0.0,0.0,0.0,0.0
2025/07/05/17:48:48.553119,9875,1751712528,384147008,map,-0.6160390125224052,-0.06997095862155879,0.0,0.0,0.0,0.0
2025/07/05/17:48:48.653308,9876,1751712528,584147008,map,-0.5365501076808046,-0.06094244783168025,0.0,0.0,0.0,0.0
2025/07/05/17:48:48.774618,9877,1751712528,584147008,map,-0.5365501076808046,-0.06094244783168025,0.0,0.0,0.0,0.0
2025/07/05/17:48:48.854931,9878,1751712528,784147008,map,-0.43802552338081896,-0.041637013184901595,0.0,0.0,0.0,0.0
2025/07/05/17:48:48.953382,9879,1751712528,784147008,map,-0.43802552338081896,-0.041637013184901595,0.0,0.0,0.0,0.0
2025/07/05/17:48:49.054801,9880,1751712528,984147008,map,-0.6002244341684088,-0.15534036380546268,0.0,0.0,0.0,0.0
2025/07/05/17:48:49.132144,9881,1751712528,984147008,map,-0.6002244341684088,-0.15534036380546268,0.0,0.0,0.0,0.0
2025/07/05/17:48:49.232803,9882,1751712529,184147008,map,-0.2904311778234236,-0.07516469216393355,0.0,0.0,0.0,0.0
2025/07/05/17:48:49.314928,9883,1751712529,184147008,map,-0.2904311778234236,-0.07516469216393355,0.0,0.0,0.0,0.0
2025/07/05/17:48:49.454416,9884,1751712529,384147008,map,-0.38724157043123153,-0.10021958955191142,0.0,0.0,0.0,0.0
2025/07/05/17:48:49.574868,9885,1751712529,384147008,map,-0.38724157043123153,-0.10021958955191142,0.0,0.0,0.0,0.0
2025/07/05/17:48:49.675047,9886,1751712529,584147008,map,-0.5719114303585731,-0.09652624423031779,0.0,0.0,0.0,0.0
2025/07/05/17:48:49.794275,9887,1751712529,784147008,map,-0.5526973336750258,-0.1758569229473698,0.0,0.0,0.0,0.0
2025/07/05/17:48:49.874546,9888,1751712529,784147008,map,-0.5526973336750258,-0.1758569229473698,0.0,0.0,0.0,0.0
2025/07/05/17:48:49.994333,9889,1751712529,784147008,map,-0.5526973336750258,-0.1758569229473698,0.0,0.0,0.0,0.0
2025/07/05/17:48:50.074316,9890,1751712529,984147008,map,-0.5557101921610696,-0.19820742248540293,0.0,0.0,0.0,0.0
2025/07/05/17:48:50.174237,9891,1751712529,984147008,map,-0.5557101921610696,-0.19820742248540293,0.0,0.0,0.0,0.0
2025/07/05/17:48:50.254580,9892,1751712530,184147008,map,-0.5086161080796231,-0.18141018329172473,0.0,0.0,0.0,0.0
2025/07/05/17:48:50.353313,9893,1751712530,184147008,map,-0.5086161080796231,-0.18141018329172473,0.0,0.0,0.0,0.0
2025/07/05/17:48:50.532436,9894,1751712530,384147008,map,-0.6914987729102751,-0.2903953289286586,0.0,0.0,0.0,0.0
2025/07/05/17:48:50.636264,9895,1751712530,584147008,map,-0.470219165578987,-0.19746882367148785,0.0,0.0,0.0,0.0
2025/07/05/17:48:50.714820,9896,1751712530,584147008,map,-0.470219165578987,-0.19746882367148785,0.0,0.0,0.0,0.0
2025/07/05/17:48:50.814294,9897,1751712530,784147008,map,-0.5752281896314668,-0.28055753394500976,0.0,0.0,0.0,0.0
2025/07/05/17:48:50.894121,9898,1751712530,784147008,map,-0.5752281896314668,-0.28055753394500976,0.0,0.0,0.0,0.0
2025/07/05/17:48:51.015350,9899,1751712530,984147008,map,-0.5866031780649907,-0.38196428037717445,0.0,0.0,0.0,0.0
2025/07/05/17:48:51.094208,9900,1751712530,984147008,map,-0.5866031780649907,-0.38196428037717445,0.0,0.0,0.0,0.0
2025/07/05/17:48:51.194413,9901,1751712530,984147008,map,-0.5866031780649907,-0.38196428037717445,0.0,0.0,0.0,0.0
2025/07/05/17:48:51.274576,9902,1751712531,184147008,map,-0.8181343541835056,-0.46287814649725917,0.0,0.0,0.0,0.0
2025/07/05/17:48:51.374863,9903,1751712531,184147008,map,-0.8181343541835056,-0.46287814649725917,0.0,0.0,0.0,0.0
2025/07/05/17:48:51.554151,9904,1751712531,384147008,map,-0.5774077405612825,-0.5094117206542412,0.0,0.0,0.0,0.0
2025/07/05/17:48:51.652469,9905,1751712531,584147008,map,-0.44992810952827206,-0.3969441979123957,0.0,0.0,0.0,0.0
