time,.header.seq,.header.stamp.secs,.header.stamp.nsecs,.header.frame_id,.twist.linear.x,.twist.linear.y,.twist.linear.z,.twist.angular.x,.twist.angular.y,.twist.angular.z
2025/07/05/17:47:55.695113,9375,1751712475,701147008,base_link,0.3926897555394554,-0.004277950345770168,0.03515482195932933,-0.046640023589134216,-0.000605750363320097,0.12363143265247345
2025/07/05/17:47:55.795355,9376,1751712475,802147008,base_link,0.39583526827552945,-0.00892219445753239,0.03668306770606149,-0.03872371464967728,-0.0002930655609816163,0.12222576886415482
2025/07/05/17:47:55.915914,9377,1751712475,921147008,base_link,0.40405442476933545,-0.008027832803171259,0.027482904188723414,-0.025098377838730812,0.0005679568275809439,0.12265577912330627
2025/07/05/17:47:56.017312,9378,1751712476,22147008,base_link,0.40839004706075865,-0.010597735094341726,0.029825762963436,-0.010159546509385109,0.001160605344921366,0.12768229842185974
2025/07/05/17:47:56.115740,9379,1751712476,121147008,base_link,0.41086086352773016,-0.004917493604592464,0.029876634959290632,-0.00668156985193491,0.0032095455098897384,0.1341768056154251
2025/07/05/17:47:56.217495,9380,1751712476,222147008,base_link,0.41302744019599386,-0.00606977377478114,0.029195964545317046,-0.0063181594014167786,0.0056870463304221795,0.13647058606147766
2025/07/05/17:47:56.334720,9381,1751712476,340147008,base_link,0.4266398349574822,-0.004978460767135035,0.028191070747909473,-0.00874190591275692,0.004538189154118316,0.1364307850599289
2025/07/05/17:47:56.515756,9382,1751712476,521147008,base_link,0.44431270122786526,-0.003116513092385481,0.03001093447922082,-0.008926964364945889,-0.00021360185928641115,0.1333889216184616
2025/07/05/17:47:56.637639,9383,1751712476,643147008,base_link,0.4556040210934926,0.005274786527422303,0.029742295026236806,-0.022939128801226616,-0.0006613305304199293,0.13370747864246368
2025/07/05/17:47:56.715610,9384,1751712476,721147008,base_link,0.4687643642045923,-0.006109822158356478,0.029711587261492242,-0.02783142402768135,0.0009863199666142624,0.13148047029972076
2025/07/05/17:47:56.795501,9385,1751712476,802147008,base_link,0.4745440649219846,-0.008878359515773518,0.028946240972582526,-0.02949996292591095,0.0012434386881068505,0.12749828398227692
2025/07/05/17:47:56.895881,9386,1751712476,902147008,base_link,0.478445594056225,-0.007254799275665658,0.0318724821745591,-0.028254985809326172,0.000779621768742815,0.12514011561870575
2025/07/05/17:47:57.016448,9387,1751712477,22147008,base_link,0.48830450084319854,-0.024318333897892747,0.03300258823157673,-0.02602347545325756,-0.00027053616940973606,0.12916982173919678
2025/07/05/17:47:57.095850,9388,1751712477,101147008,base_link,0.48987907789466834,-0.014899656271184388,0.029353620146833265,-0.02552325837314129,0.0013869233662262726,0.13566140830516815
2025/07/05/17:47:57.195875,9389,1751712477,201147008,base_link,0.4939906870108227,-0.020659848479824456,0.036912147924047234,-0.014210646972060204,0.003630972933024185,0.13874681293964386
2025/07/05/17:47:57.275673,9390,1751712477,281147008,base_link,0.49847044275307567,-0.01348956892733385,0.03703818548762439,-0.0005368003621697426,0.003835814539343136,0.14132153987884521
2025/07/05/17:47:57.355195,9391,1751712477,360147008,base_link,0.5069685545467608,-0.01511852932764837,0.036817938577012266,0.001711416058242321,0.0038651991635561167,0.14357389509677887
2025/07/05/17:47:57.515809,9392,1751712477,521147008,base_link,0.5098028857432435,-0.010834756668280224,0.03506503789157045,-0.004260946065187454,0.0018200534395873722,0.1432838886976242
2025/07/05/17:47:57.617728,9393,1751712477,624147008,base_link,0.5116627471801773,-0.022874473718646145,0.041422721219719585,-0.027323447167873383,0.00018581235781313688,0.1388052999973297
2025/07/05/17:47:57.715932,9394,1751712477,721147008,base_link,0.5124944047993414,-0.016252056117586768,0.03954540006664307,-0.03292972967028618,0.00010619545355440833,0.13441014289855957
2025/07/05/17:47:57.796637,9395,1751712477,802147008,base_link,0.507353138885413,-0.016251879891264052,0.04831064818198681,-0.032550208270549774,0.0028169534634798926,0.1300327032804489
2025/07/05/17:47:57.934314,9396,1751712477,940147008,base_link,0.5012411880239807,-0.01777556969988096,0.04683948333821161,-0.026570577174425125,0.005167103838175551,0.12983784079551697
2025/07/05/17:47:58.018144,9397,1751712478,24147008,base_link,0.5095565406199636,-0.025620708063787686,0.0470191550474007,-0.013039537705481052,0.004919264465570466,0.13416951894760132
2025/07/05/17:47:58.115561,9398,1751712478,121147008,base_link,0.5076657510956508,-0.027736767755786474,0.04819920624219403,-0.0033521847799420357,0.002924633445218222,0.13399870693683624
2025/07/05/17:47:58.196140,9399,1751712478,202147008,base_link,0.5040376658210923,-0.02546949071142655,0.0542227329738078,-0.004325168207287788,-0.0003624600358307195,0.13609442114830017
2025/07/05/17:47:58.315562,9400,1751712478,321147008,base_link,0.498459531702624,-0.022143906056722416,0.05220534556542754,-0.013115858659148216,-0.001247555483132584,0.13643309473991394
2025/07/05/17:47:58.454536,9401,1751712478,460147008,base_link,0.5014943004571061,-0.011811620623415082,0.05641342014828704,-0.022838184610009193,-0.00018208683468399803,0.13298045098781586
2025/07/05/17:47:58.574067,9402,1751712478,580147008,base_link,0.4939023549273455,-0.010573630776519084,0.059924762770593325,-0.024402473121881485,0.0013328912900760917,0.1203421801328659
2025/07/05/17:47:58.654396,9403,1751712478,660147008,base_link,0.488135419016447,-0.009437602683632543,0.05837825609672523,-0.022527214139699936,0.0025667999871075296,0.11663629114627838
2025/07/05/17:47:58.754480,9404,1751712478,760147008,base_link,0.49952374790269843,-0.007035421641615098,0.053553313375585984,-0.018071794882416725,0.0027475415263325115,0.11503317952156067
2025/07/05/17:47:58.854679,9405,1751712478,861147008,base_link,0.47906849965451814,-0.0063581016836852505,0.05271223849468889,-0.012294641695916653,0.005363145843148245,0.11603750288486481
2025/07/05/17:47:58.974769,9406,1751712478,980147008,base_link,0.4806682594265615,0.0021738972452505596,0.04573282420618893,-0.009573924355208874,0.005985382944345489,0.12043215334415436
2025/07/05/17:47:59.095742,9407,1751712479,101147008,base_link,0.4801001981460081,0.012723777328338598,0.04176154081808743,-0.012463532388210297,0.004535558633506314,0.12452378869056702
2025/07/05/17:47:59.195535,9408,1751712479,201147008,base_link,0.4658588034997938,0.02306187184630263,0.040960912661931165,-0.017811473459005356,0.00010397541336716757,0.12542136013507843
2025/07/05/17:47:59.295559,9409,1751712479,302147008,base_link,0.4712329279911643,0.031417672929446826,0.043926316844080035,-0.02406497672200203,-0.004479805007576928,0.12105415761470795
2025/07/05/17:47:59.476130,9410,1751712479,481147008,base_link,0.4677761392574971,0.05045658455894896,0.03398076375463266,-0.025671105831861496,-0.0037895210552960495,0.11488471925258636
2025/07/05/17:47:59.596307,9411,1751712479,602147008,base_link,0.468642973071256,0.05034827454764103,0.03875910189573592,-0.01597622036933899,0.003644504584372057,0.110415980219841
2025/07/05/17:47:59.695639,9412,1751712479,702147008,base_link,0.45205585077379545,0.05626282941745429,0.031212720348762064,-0.011506679467856884,0.007488313596695675,0.11373395472764969
2025/07/05/17:47:59.796827,9413,1751712479,802147008,base_link,0.4484616472334407,0.05719718878894063,0.03937816565630035,-0.009087320417165756,0.007062216289341464,0.11663620918989182
2025/07/05/17:47:59.934807,9414,1751712479,940147008,base_link,0.44915128860587505,0.06171840048278511,0.03256974360384966,-0.00938842911273241,0.003487240988761201,0.11718102544546127
2025/07/05/17:48:00.018835,9415,1751712480,24147008,base_link,0.44116875873097955,0.05794023961467442,0.03201262219123984,-0.014832676388323307,-0.0010438361205160475,0.11704608052968979
2025/07/05/17:48:00.114816,9416,1751712480,121147008,base_link,0.4429542588604783,0.05811927990040235,0.026512917344328125,-0.019702427089214325,-0.0023941250983625507,0.11534325778484344
2025/07/05/17:48:00.200328,9417,1751712480,202147008,base_link,0.42803372043392335,0.05803921478247847,0.022878881084436267,-0.020446058362722397,-0.002493509091436849,0.1118403971195221
2025/07/05/17:48:00.295877,9418,1751712480,301147008,base_link,0.421817485878628,0.04880775122998649,0.02070243137795187,-0.020870478823781013,-0.0005022236146032675,0.11098196357488632
2025/07/05/17:48:00.375561,9419,1751712480,381147008,base_link,0.41272262465690523,0.04115308798298027,0.017643826345584916,-0.020080283284187317,0.0018739847000688453,0.11296550184488297
2025/07/05/17:48:00.554604,9420,1751712480,560147008,base_link,0.4022310960960292,0.027287420511971736,0.003337577266479,-0.012677807360887527,0.0036956197582185407,0.11378375440835953
2025/07/05/17:48:00.655218,9421,1751712480,660147008,base_link,0.3832965581953045,0.018549213164557682,0.002507138058778176,-0.013769090175628662,0.0030079255811870237,0.11298943310976028
2025/07/05/17:48:00.734947,9422,1751712480,740147008,base_link,0.37640937657623935,0.007470614462805812,0.0019308190225499344,-0.01580028235912323,0.001568623469211175,0.11310072243213654
2025/07/05/17:48:00.818700,9423,1751712480,824147008,base_link,0.3773845676588222,0.0026000747531797486,-0.001820042825774984,-0.02163987047970295,0.0014013248728588364,0.11511196196079254
2025/07/05/17:48:00.916272,9424,1751712480,921147008,base_link,0.3788142515626851,-0.0008248058652626806,0.0018796609476805365,-0.02415548637509346,0.0021224985830485964,0.11673387140035629
2025/07/05/17:48:00.996777,9425,1751712481,2147008,base_link,0.37886220669446824,-0.005211841986651343,0.0009180486812193148,-0.02066871151328087,0.0024774738121777916,0.11708241701126099
2025/07/05/17:48:01.116220,9426,1751712481,121147008,base_link,0.37915866249435365,-0.010831080547241271,0.0009730753803897652,-0.011231789365410805,0.0019950547721237087,0.11604873836040497
2025/07/05/17:48:01.196102,9427,1751712481,202147008,base_link,0.3728435207608296,-0.01383970236780318,0.0013199569795549065,-0.0012432467192411423,0.0009578798199072618,0.11209362000226974
2025/07/05/17:48:01.295560,9428,1751712481,302147008,base_link,0.37746589675569947,-0.02369866552805902,-0.008589065342195883,-0.0005293544381856918,0.00016216700896622095,0.10975966602563858
2025/07/05/17:48:01.454639,9429,1751712481,461147008,base_link,0.374780806559828,-0.027617606670641573,-0.009817795405696474,-0.010453630238771439,0.0011594936950132387,0.11085394024848938
2025/07/05/17:48:01.596890,9430,1751712481,602147008,base_link,0.37478643770624404,-0.03291206118442715,-0.009255736889489809,-0.030933544039726257,-0.00101515511050819,0.11066032946109772
2025/07/05/17:48:01.695952,9431,1751712481,702147008,base_link,0.3695674041994538,-0.02875400890976944,-0.00988480115794553,-0.034905802458524704,-0.0001920212525874241,0.11044248193502426
2025/07/05/17:48:01.796389,9432,1751712481,802147008,base_link,0.3680340734701701,-0.027394759534818718,-0.005562724728074106,-0.027358606457710266,0.0018361298134550587,0.10927966237068176
2025/07/05/17:48:01.915536,9433,1751712481,922147008,base_link,0.37687455144183934,-0.025377614570474112,-0.008454539758677243,-0.013682256452739239,0.003679430810734643,0.11014334112405777
2025/07/05/17:48:02.018827,9434,1751712482,24147008,base_link,0.36997339626475306,-0.026520942371113482,-0.002735577543692365,0.006496189162135124,0.005208419635891928,0.10990957915782928
2025/07/05/17:48:02.095585,9435,1751712482,102147008,base_link,0.37381634604019714,-0.033331190170184585,-0.006727716934067457,0.009447438642382622,0.005096132867038264,0.11094564944505692
2025/07/05/17:48:02.196095,9436,1751712482,202147008,base_link,0.37291676334540275,-0.04164009398365067,0.004858598871120522,-6.836187094449997e-05,0.0023685963824391504,0.11207669228315353
2025/07/05/17:48:02.295747,9437,1751712482,302147008,base_link,0.38242758287055,-0.04362082827231143,-0.007061788545000655,-0.0173146054148674,-0.0006284494884312018,0.10993160307407379
2025/07/05/17:48:02.475101,9438,1751712482,480147008,base_link,0.37896794554873375,-0.03745906619518639,-0.005653942205236913,-0.03515705466270447,-0.0006144081708043679,0.11002983897924423
2025/07/05/17:48:02.596290,9439,1751712482,602147008,base_link,0.3931583827240752,-0.03483666688222829,-0.00493224899373261,-0.022238297387957573,-4.644459113477336e-05,0.10817962884902954
2025/07/05/17:48:02.714605,9440,1751712482,720147008,base_link,0.3956273130368149,-0.03454099597332808,-0.0006832945974507496,-0.008800143375992775,0.0020562137942761317,0.10835350304841995
2025/07/05/17:48:02.796926,9441,1751712482,802147008,base_link,0.3916179292116335,-0.034126433705636894,0.0046290022740356415,-0.0033020786941051483,0.004350313916802419,0.10871339589357376
2025/07/05/17:48:02.895551,9442,1751712482,902147008,base_link,0.39747630846467047,-0.033159401100311646,-0.002376433845128839,-0.006511927582323551,0.005414930172264589,0.1081307902932167
2025/07/05/17:48:03.018067,9443,1751712483,24147008,base_link,0.4047287160818971,-0.03254043609212446,0.0006294218055925144,-0.016482874751091003,0.0018035001121461524,0.10769850015640259
2025/07/05/17:48:03.115886,9444,1751712483,121147008,base_link,0.3966441035564242,-0.032105759043503566,0.005412523774063226,-0.02170567587018013,-0.00015428732149301648,0.10720667243003845
2025/07/05/17:48:03.196707,9445,1751712483,202147008,base_link,0.3949361072782454,-0.03578935573392399,0.005376768114924997,-0.019490016624331474,-0.0014721346087753643,0.10583934187889099
2025/07/05/17:48:03.295868,9446,1751712483,302147008,base_link,0.39999613760192854,-0.04189336821909126,0.016689854549714736,-0.016952039673924446,-0.0021671424619853366,0.10703559219837189
2025/07/05/17:48:03.435023,9447,1751712483,441147008,base_link,0.4103219173859399,-0.04003014814737313,0.01154391228948913,-0.013919525779783726,0.00021884799934924988,0.10930777341127396
2025/07/05/17:48:03.574674,9448,1751712483,581147008,base_link,0.40907937073875605,-0.044000450200114415,0.011673034177107779,-0.006341045722365379,0.005541312042623771,0.10784927010536194
2025/07/05/17:48:03.676683,9449,1751712483,681147008,base_link,0.39631026062979785,-0.04961257558378434,0.014413503120046751,-0.013387732207775116,0.006049639545381082,0.10755021870136261
2025/07/05/17:48:03.796903,9450,1751712483,802147008,base_link,0.3978136653441948,-0.0511787214561244,0.016332879515158417,-0.022787684574723244,0.0016925762174651157,0.10635945200920105
2025/07/05/17:48:03.895523,9451,1751712483,901147008,base_link,0.3924591201108549,-0.055508507577981474,0.015139923210405352,-0.028356250375509262,-0.001568477367982255,0.10739616304636002
2025/07/05/17:48:03.996453,9452,1751712484,2147008,base_link,0.4041616855468949,-0.05569169794088428,0.011105934557348603,-0.017917010933160782,-0.002586661139503108,0.10885459184646606
2025/07/05/17:48:04.114798,9453,1751712484,121147008,base_link,0.41196978231012094,-0.05927049293116294,0.01438721312855707,-0.00598178431391716,-0.003304093377664672,0.11089181900024414
2025/07/05/17:48:04.196343,9454,1751712484,202147008,base_link,0.4260865088179758,-0.058680757341214744,0.017826435875191345,-0.00886022113263607,-0.006009049713611588,0.11792253702878952
2025/07/05/17:48:04.295755,9455,1751712484,302147008,base_link,0.4464463742372636,-0.07590330604051085,0.02403059137838367,-0.026279840618371964,-0.007981103844940647,0.12829793989658356
2025/07/05/17:48:04.454631,9456,1751712484,460147008,base_link,0.4654850697701667,-0.05886096417135922,0.029931381994588127,-0.03492489829659462,-0.0028918858151882718,0.1379726082086563
2025/07/05/17:48:04.598988,9457,1751712484,602147008,base_link,0.491550524135285,-0.05856115002771435,0.03607607304195466,-0.016152620315551758,0.007454398088157195,0.15047211945056915
2025/07/05/17:48:04.716314,9458,1751712484,721147008,base_link,0.5038788018499296,-0.058595361027987555,0.038571234996144524,-0.004191624000668526,0.009720719419419785,0.15478922426700592
2025/07/05/17:48:04.796074,9459,1751712484,802147008,base_link,0.5140338589463975,-0.07342570903353321,0.04189833766784454,-0.0007475614547729492,0.008760535158216972,0.16035546362400055
2025/07/05/17:48:04.934406,9460,1751712484,940147008,base_link,0.5230011138216288,-0.07675350582625666,0.045667177910856255,-0.007753464858978987,0.005199264734983464,0.1639239341020584
2025/07/05/17:48:05.018372,9461,1751712485,24147008,base_link,0.5257963264687445,-0.08317597572308481,0.046657442577726,-0.02822476625442505,-0.002959432546049336,0.1664867252111435
2025/07/05/17:48:05.115391,9462,1751712485,121147008,base_link,0.5307019412632679,-0.07514677327070851,0.04667244981162314,-0.04082110896706581,-0.003828527405858019,0.16914458572864532
2025/07/05/17:48:05.196598,9463,1751712485,202147008,base_link,0.5328445533556094,-0.07428329050987163,0.04985967349608389,-0.03552279248833656,-0.0011559268459677488,0.1705443561077118
2025/07/05/17:48:05.295729,9464,1751712485,302147008,base_link,0.5338913061982097,-0.0802565152601142,0.05028163228755829,-0.02199152670800686,0.0022678482346236914,0.17087185382843018
2025/07/05/17:48:05.474808,9465,1751712485,481147008,base_link,0.5374456807403484,-0.07758398857380477,0.056073252040539645,-0.019242268055677414,0.004714726936072132,0.17345726490020752
2025/07/05/17:48:05.596304,9466,1751712485,602147008,base_link,0.536481531919423,-0.0823411031289378,0.05520558750738376,-0.020308207720518112,0.0031450495589524716,0.17037415504455566
2025/07/05/17:48:05.714897,9467,1751712485,721147008,base_link,0.5411979832680452,-0.07895854943934108,0.057561116936243405,-0.0214579738676548,0.0005388085264712785,0.17309294641017914
2025/07/05/17:48:05.796772,9468,1751712485,802147008,base_link,0.5395328965079841,-0.08559826635404567,0.06129682249477754,-0.011436962522566319,0.0014004657277837608,0.17356333136558533
2025/07/05/17:48:05.934825,9469,1751712485,940147008,base_link,0.5494396401307275,-0.06268344285625817,0.05956683126338778,-0.013627063482999802,0.0033255475573241923,0.17359983921051025
2025/07/05/17:48:06.018113,9470,1751712486,24147008,base_link,0.5609682733088788,0.008332730180595667,0.0691996689522968,0.02271086350083351,0.003733778372406976,0.1336939036846161
2025/07/05/17:48:06.114904,9471,1751712486,121147008,base_link,0.5668233822729615,0.05110414091265282,0.06894628094824615,0.18420769274234772,0.013350449502468113,0.024339575320482254
2025/07/05/17:48:06.217730,9472,1751712486,224147008,base_link,0.5739961857532997,0.09410595966488608,0.07260495447486733,0.19642305374145508,0.01442288514226674,-0.08183146268129349
2025/07/05/17:48:06.295914,9473,1751712486,302147008,base_link,0.5750163756626963,0.12222112982516252,0.06523425869945336,0.09738587588071823,0.008115759119391422,-0.16152329742908478
2025/07/05/17:48:06.434181,9474,1751712486,440147008,base_link,0.5744725631787175,0.10827436841000275,0.06262636981990131,-0.04829833284020424,-0.0057155545800924605,-0.246779203414917
2025/07/05/17:48:06.595387,9475,1751712486,602147008,base_link,0.5656411997283528,0.008232312750349953,0.06668395968569414,-0.2947237193584442,-0.035254687070846585,-0.19938702881336212
2025/07/05/17:48:06.675585,9476,1751712486,681147008,base_link,0.5579041206890152,-0.005184554346895985,0.07208941178208621,-0.3534158170223236,-0.025273742154240615,-0.047693122178316116
2025/07/05/17:48:06.754552,9477,1751712486,760147008,base_link,0.5585815458397463,-0.021173077600734343,0.07504426978308103,-0.20783743262290955,-0.006564048118889324,0.06327102333307266
2025/07/05/17:48:06.833973,9478,1751712486,841147008,base_link,0.55961138104634,-0.03344288466583825,0.06660497347483331,0.1266445517539978,0.011002649553120155,0.1557757407426834
2025/07/05/17:48:06.954623,9479,1751712486,960147008,base_link,0.5610238583167344,-0.044485313881341755,0.06719935182585615,0.288824200630188,0.013147192075848605,0.21017587184906006
2025/07/05/17:48:07.019580,9480,1751712487,24147008,base_link,0.5616760921057984,-0.05646385572956511,0.06718776309582317,0.27713462710380554,0.0030567448120564517,0.24003061652183533
2025/07/05/17:48:07.115850,9481,1751712487,121147008,base_link,0.5586548935622925,-0.05893640839844166,0.07099663713526243,0.14882053434848785,-0.004471868276596041,0.23379264771938324
2025/07/05/17:48:07.217775,9482,1751712487,224147008,base_link,0.5589181093172345,-0.06874595119467797,0.07377769531930709,-0.045997463166713715,-0.004569819197058652,0.21325233578681946
2025/07/05/17:48:07.295446,9483,1751712487,302147008,base_link,0.5599463159889038,-0.06500391401685532,0.07450851516695692,-0.14891453087329865,0.0014542600838467722,0.19795788824558258
2025/07/05/17:48:07.454602,9484,1751712487,460147008,base_link,0.5673127656056517,-0.0526374554704817,0.07355088289103291,-0.16922278702259064,0.007396344561129831,0.18479901552200317
2025/07/05/17:48:07.575086,9485,1751712487,581147008,base_link,0.5703430466112255,-0.05026665897578952,0.06744775556652242,-0.04301312565803528,0.001814049202948833,0.19783444702625275
2025/07/05/17:48:07.674698,9486,1751712487,681147008,base_link,0.5740207987915263,-0.04524529975279112,0.0718951735788384,0.024173157289624214,0.00015209917910399584,0.2067551463842392
2025/07/05/17:48:07.795626,9487,1751712487,802147008,base_link,0.5770449597930747,-0.043826192862753466,0.07157409453120331,0.04144810885190964,0.003880471922457244,0.21071384847164154
2025/07/05/17:48:07.874798,9488,1751712487,881147008,base_link,0.5760055565343071,-0.04725110375922775,0.07434048746656496,0.01809019222855568,0.00654060766100886,0.2077779322862625
2025/07/05/17:48:07.996139,9489,1751712488,2147008,base_link,0.5745399961849215,-0.043190621644425664,0.07287045391533739,-0.032785557210445404,0.006094682496041085,0.20352303981781006
2025/07/05/17:48:08.094947,9490,1751712488,102147008,base_link,0.5824505664407235,-0.04909144442980506,0.07197345912442807,-0.06075752153992653,0.00610534287989142,0.19804486632347107
2025/07/05/17:48:08.196925,9491,1751712488,202147008,base_link,0.5828450800016944,-0.04152648300176728,0.07134641205249811,-0.05756954848766327,0.004457915667444491,0.19230559468269348
2025/07/05/17:48:08.295606,9492,1751712488,302147008,base_link,0.5965890363386115,-0.03440384548772543,0.07437246268830176,-0.035160355269908905,0.0007991921156645052,0.1885143667459488
2025/07/05/17:48:08.474956,9493,1751712488,480147008,base_link,0.5981731327071291,0.10922866312586792,0.08165487706275096,-0.0107862688601017,-0.0001172148622572199,0.18212880194187164
2025/07/05/17:48:08.596142,9494,1751712488,602147008,base_link,0.5968368083546415,0.14949181001814063,0.07275904192881218,0.3257557153701782,0.024261705577373494,-0.09033557027578354
2025/07/05/17:48:08.715818,9495,1751712488,721147008,base_link,0.6016600016954113,0.16763730325515083,0.06705212930404392,0.10907714068889618,0.010093876160681225,-0.18508698046207428
2025/07/05/17:48:08.796624,9496,1751712488,802147008,base_link,0.611946354349494,0.13917710920027282,0.06434446740626695,-0.16616961359977722,-0.015019391663372548,-0.2518559396266937
2025/07/05/17:48:08.895780,9497,1751712488,901147008,base_link,0.6079639727342522,0.07945604453356503,0.06858163239252354,-0.34969931840896606,-0.036017145961523084,-0.23000244796276093
2025/07/05/17:48:08.995522,9498,1751712489,2147008,base_link,0.6008432139462403,0.05062296814057439,0.07650814719896301,-0.4596351981163025,-0.03763943910598756,-0.10736072808504105
2025/07/05/17:48:09.074982,9499,1751712489,81147008,base_link,0.586742525741965,0.04956718721662624,0.07628239130764061,-0.30263572931289673,-0.017079949378967278,0.045307058840990067
2025/07/05/17:48:09.195899,9500,1751712489,202147008,base_link,0.5802093611682956,0.04213707647898532,0.07276061385977081,0.09758203476667404,-0.0011242618784308254,0.14766962826251984
2025/07/05/17:48:09.295377,9501,1751712489,301147008,base_link,0.615385805546136,0.016915270616737945,0.07527336127778474,0.3357658088207245,0.0041810637339949885,0.22654931247234344
2025/07/05/17:48:09.374760,9502,1751712489,381147008,base_link,0.6376344251438726,0.005221688425872527,0.07094809241709457,0.30973246693611145,-0.006420257966965405,0.26224613189697266
2025/07/05/17:48:09.534637,9503,1751712489,540147008,base_link,0.6822697752211104,-0.015025477374011801,0.08449413739814352,-0.036589402705430984,-0.012314116582274407,0.24345584213733673
2025/07/05/17:48:09.618141,9504,1751712489,624147008,base_link,0.7044622060033184,-0.01932999843683858,0.08693132633440132,-0.19704145193099976,-0.0015841473359614335,0.22539398074150085
2025/07/05/17:48:09.715778,9505,1751712489,721147008,base_link,0.7311176177730984,-0.021020652432591838,0.0855628201128033,-0.2194557934999466,0.005786648951470879,0.22104790806770325
2025/07/05/17:48:09.818606,9506,1751712489,824147008,base_link,0.7600074166097304,-0.019550699508132513,0.09070802997253523,-0.1444392055273056,0.004993192851543455,0.23381546139717102
2025/07/05/17:48:09.916778,9507,1751712489,921147008,base_link,0.785385296941339,-0.017542880753708835,0.09288014816313829,-0.055822283029556274,0.0007196711376309704,0.25193148851394653
2025/07/05/17:48:09.995678,9508,1751712490,2147008,base_link,0.8080979575225298,-0.02002360741378674,0.09630984512121689,0.02990376204252243,-0.001979533350095119,0.27469387650489807
2025/07/05/17:48:10.095134,9509,1751712490,102147008,base_link,0.828160967342094,0.023295281032430386,0.09866209726227423,0.07448841631412506,-0.0009342976845800533,0.2806204557418823
2025/07/05/17:48:10.195985,9510,1751712490,202147008,base_link,0.8406303620835143,0.09847475265841352,0.10450940461670229,0.14891795814037323,0.002969714347273138,0.2143380343914032
2025/07/05/17:48:10.295504,9511,1751712490,301147008,base_link,0.8622030909448948,0.10685506516738859,0.09982925444268251,0.2556988298892975,0.01903698779642583,0.08803537487983704
2025/07/05/17:48:10.454453,9512,1751712490,460147008,base_link,0.8948261844556453,0.1561520162157547,0.10288131360750745,0.06334254145622253,0.012780474498867992,0.03206050768494606
2025/07/05/17:48:10.575308,9513,1751712490,580147008,base_link,0.9209255706330826,0.17905759722174946,0.1050838952447698,-0.19087041914463043,-0.005026558414101605,-0.038286782801151276
2025/07/05/17:48:10.654460,9514,1751712490,660147008,base_link,0.9456371445022093,0.2048841843162851,0.10870449718173608,-0.166464701294899,-0.007069637998938566,-0.0415465347468853
2025/07/05/17:48:10.755988,9515,1751712490,760147008,base_link,0.9677274932110255,0.24474210088949247,0.11906447504851395,-0.045206218957901,-0.004154474474489693,-0.03797169402241707
2025/07/05/17:48:10.854186,9516,1751712490,860147008,base_link,0.9859774815248717,0.32669403030876837,0.11509640215676305,0.1270165741443634,-0.0027161575853824707,-0.07370589673519135
2025/07/05/17:48:10.954809,9517,1751712490,960147008,base_link,0.9949028058930443,0.38048830442151776,0.1217858985190289,0.25451692938804626,0.0017956546507775601,-0.14894844591617584
2025/07/05/17:48:11.054880,9518,1751712491,60147008,base_link,1.0029728684146901,0.4053963154468864,0.09626525517002098,0.2708030343055725,0.0057250196114182125,-0.282582551240921
2025/07/05/17:48:11.136326,9519,1751712491,140147008,base_link,1.0012370759586635,0.4388605265132778,0.09481947034241536,0.10390808433294296,-0.009503364562988323,-0.34086868166923523
2025/07/05/17:48:11.218106,9520,1751712491,224147008,base_link,0.9992733170836444,0.42372080687952635,0.08168380917586539,-0.12083938717842102,-0.04206201806664472,-0.3915773928165436
2025/07/05/17:48:11.316486,9521,1751712491,321147008,base_link,1.0035791233934208,0.36317343824365955,0.10377640724758044,-0.27233660221099854,-0.0562289953231812,-0.3764019012451172
2025/07/05/17:48:11.474977,9522,1751712491,481147008,base_link,0.9599793946951494,0.24945070013321963,0.12450839393129667,-0.38540562987327576,-0.04540233686566356,-0.2936719059944153
2025/07/05/17:48:11.595568,9523,1751712491,602147008,base_link,0.9344418403833025,0.2231220202736561,0.14045632808775188,-0.24901381134986877,0.02435875497758389,0.03227558732032776
2025/07/05/17:48:11.675143,9524,1751712491,681147008,base_link,0.9427001506113528,0.186246585589752,0.13985042656756644,0.04944700747728348,0.031440053135156645,0.1290290802717209
2025/07/05/17:48:11.774912,9525,1751712491,780147008,base_link,0.960938790927473,0.14507432923052557,0.12194315966186803,0.2714471220970154,0.010543342679739028,0.24331605434417725
2025/07/05/17:48:11.854335,9526,1751712491,860147008,base_link,0.9794687011906226,0.13046568103224218,0.12933741110894262,0.291506290435791,-0.005468338727951013,0.2949608564376831
2025/07/05/17:48:11.956339,9527,1751712491,960147008,base_link,1.004342880702441,0.14399269091953498,0.1266799147486166,0.19948936998844147,-0.012959889136254751,0.29505589604377747
2025/07/05/17:48:12.054352,9528,1751712492,60147008,base_link,1.0247498009796612,0.20673854837074085,0.1283773106790332,0.11945740878582001,-0.005074889399111244,0.21836523711681366
2025/07/05/17:48:12.134352,9529,1751712492,140147008,base_link,1.0302598653242958,0.2744705332057259,0.13528360453560861,0.1701640635728836,0.009572384878993047,0.09404932707548141
2025/07/05/17:48:12.217893,9530,1751712492,224147008,base_link,1.0291720970462817,0.34105083797730085,0.12695883211867037,0.2801063358783722,0.02397278137505053,-0.10225970298051834
2025/07/05/17:48:12.316848,9531,1751712492,321147008,base_link,1.0273801146845802,0.3716713032489991,0.10624352473746058,0.17742833495140076,0.010431905277073357,-0.2125234305858612
2025/07/05/17:48:12.495531,9532,1751712492,501147008,base_link,1.0229034747928285,0.37890607183972475,0.10783804360314847,-0.03823964297771454,-0.019001845270395317,-0.30952194333076477
2025/07/05/17:48:12.574322,9533,1751712492,581147008,base_link,1.011088972946445,0.36951648022363787,0.11605947567958327,-0.245823472738266,-0.05940961837768559,-0.36746519804000854
2025/07/05/17:48:12.674977,9534,1751712492,681147008,base_link,0.9971132040366476,0.27802804741898424,0.1383948922727178,-0.3099433183670044,-0.05891794338822368,-0.2761567234992981
2025/07/05/17:48:12.754380,9535,1751712492,761147008,base_link,0.9878256663302205,0.20150642905308647,0.15245152727980274,-0.38985151052474976,-0.0369311422109604,-0.1281937211751938
2025/07/05/17:48:12.854561,9536,1751712492,860147008,base_link,0.9781390252826918,0.14934466087073972,0.16147186120406956,-0.41315069794654846,0.001574616180732859,0.10498253256082535
2025/07/05/17:48:12.954237,9537,1751712492,961147008,base_link,0.9726429327456084,0.1295455878286468,0.15242881112496423,-0.13528738915920258,0.021733582019805936,0.2174367904663086
2025/07/05/17:48:13.054522,9538,1751712493,60147008,base_link,0.9672065434993771,0.10368335195452164,0.14242234327866826,0.3041723072528839,0.02364481985569004,0.3248589336872101
2025/07/05/17:48:13.134806,9539,1751712493,140147008,base_link,0.9682838240874869,0.07790522937914376,0.1354275428199346,0.3867832124233246,0.0034493156708777398,0.3641907274723053
2025/07/05/17:48:13.219084,9540,1751712493,223147008,base_link,0.9789549631360341,0.059677015978987925,0.140850173211054,0.29686516523361206,-0.013469616882502986,0.37545377016067505
2025/07/05/17:48:13.295512,9541,1751712493,301147008,base_link,0.9829232407999232,0.0444527168003128,0.14552027615356167,0.11516223102807999,-0.018146285787224724,0.3634425699710846
2025/07/05/17:48:13.454724,9542,1751712493,460147008,base_link,1.0039424462145108,0.04756053007108625,0.15734619173632292,-0.09646009653806686,-0.013853092677891213,0.3390754461288452
2025/07/05/17:48:13.595632,9543,1751712493,602147008,base_link,1.0383058077286893,0.018119724957109735,0.15552831552846968,-0.15534739196300507,-0.0008230060338973591,0.33297035098075867
2025/07/05/17:48:13.695305,9544,1751712493,702147008,base_link,1.0684811911469496,0.003535232804505707,0.15467965379422338,-0.06344655901193619,0.000511472113430544,0.35952478647232056
2025/07/05/17:48:13.795838,9545,1751712493,802147008,base_link,1.0969833028838911,0.008260643441735308,0.15865440644043005,0.0430445596575737,-0.005020222626626445,0.38107308745384216
2025/07/05/17:48:13.914874,9546,1751712493,921147008,base_link,1.1215827890141732,0.05975616631907985,0.17007767560775336,0.14293640851974487,-0.008670660667121367,0.3557499647140503
2025/07/05/17:48:13.996332,9547,1751712494,2147008,base_link,1.1575733971934075,0.11022009999095911,0.17765388593703435,0.18604567646980286,-0.0005083302967249997,0.2859702706336975
2025/07/05/17:48:14.114992,9548,1751712494,121147008,base_link,1.184791999683544,0.13351447873639785,0.19050679435571194,0.23719532787799835,0.018186962231993693,0.15140147507190704
2025/07/05/17:48:14.196769,9549,1751712494,202147008,base_link,1.2123705479523472,0.14556340435210366,0.17570409402778842,0.06906482577323914,0.023344041779637344,0.0641167089343071
2025/07/05/17:48:14.294401,9550,1751712494,301147008,base_link,1.2390729257362587,0.18494871092760182,0.18644660336891536,-0.09356463700532913,0.01348746754229069,0.007122259121388195
2025/07/05/17:48:14.417820,9551,1751712494,424147008,base_link,1.2685252789286465,0.2649144369335345,0.1891597102711089,-0.18135640025138855,-0.007470834534615285,-0.056273698806762695
2025/07/05/17:48:14.534736,9552,1751712494,541147008,base_link,1.276343511063207,0.38055260907618726,0.19445629912382273,0.03543166071176529,-0.008988149464130424,-0.18518948554992676
2025/07/05/17:48:14.617685,9553,1751712494,624147008,base_link,1.2660276648143054,0.43640768012736353,0.18110190521445652,0.28174376487731934,0.005614305846393067,-0.33691513538360596
2025/07/05/17:48:14.714754,9554,1751712494,721147008,base_link,1.280783935434185,0.4414318288030716,0.15499958946286257,0.20444312691688538,-0.016735130921006248,-0.38053441047668457
2025/07/05/17:48:14.817744,9555,1751712494,824147008,base_link,1.290775729889614,0.3788555127765541,0.1607502340354086,-0.09339825809001923,-0.0554607324302197,-0.37220820784568787
2025/07/05/17:48:14.895868,9556,1751712494,902147008,base_link,1.2946411557649022,0.2767940187905814,0.17231892388019768,-0.40271589159965515,-0.07580543309450154,-0.2938587963581085
2025/07/05/17:48:15.017762,9557,1751712495,24147008,base_link,1.2950757772194874,0.16914898491462035,0.21218151064963764,-0.7648402452468872,-0.05791277065873147,-0.05257631465792655
2025/07/05/17:48:15.095443,9558,1751712495,102147008,base_link,1.301135526156943,0.12044567582132926,0.21996043899762197,-0.6597089171409607,-0.022360255941748605,0.12206751853227615
2025/07/05/17:48:15.195813,9559,1751712495,202147008,base_link,1.3147037905325951,0.0773934181304465,0.21646228860490274,-0.12793560326099396,0.01102553959935907,0.2842608392238617
2025/07/05/17:48:15.295279,9560,1751712495,302147008,base_link,1.3376335569295321,0.04481913454762801,0.20962197397748233,0.36085355281829834,0.012826474383473447,0.40693822503089905
2025/07/05/17:48:15.434847,9561,1751712495,441147008,base_link,1.3517101971934897,0.1994952546132785,0.21177291359227438,0.5831683874130249,-0.010524947196245141,0.43090882897377014
2025/07/05/17:48:15.595727,9562,1751712495,602147008,base_link,1.3576203805613374,0.29110225505519427,0.1973200790812933,0.711976945400238,0.015525521710515024,0.01989330910146236
2025/07/05/17:48:15.674269,9563,1751712495,681147008,base_link,1.3704322312953627,0.30574771535223033,0.19484820533664624,0.23605431616306305,0.019117698073387125,-0.18140633404254913
2025/07/05/17:48:15.754930,9564,1751712495,761147008,base_link,1.3681559097537908,0.3707784219788514,0.18060816932701534,-0.2325652688741684,-0.005745420232415234,-0.2837446331977844
2025/07/05/17:48:15.853823,9565,1751712495,860147008,base_link,1.3725401607967245,0.40340197713830706,0.18747340637419338,-0.4333339333534241,-0.03919302672147756,-0.4035224914550781
2025/07/05/17:48:15.954634,9566,1751712495,960147008,base_link,1.3878928929876007,0.40814204278261673,0.20317176090638228,-0.35959121584892273,-0.0667522475123406,-0.445514053106308
2025/07/05/17:48:16.033573,9567,1751712496,40147008,base_link,1.3647196452202102,0.4660280874293181,0.20026253931958718,-0.17412595450878143,-0.07568241655826574,-0.42986616492271423
2025/07/05/17:48:16.114639,9568,1751712496,121147008,base_link,1.3529922372248864,0.47296381142081134,0.20536546780205694,0.024367928504943848,-0.04794603586196904,-0.42040783166885376
2025/07/05/17:48:16.217705,9569,1751712496,224147008,base_link,1.352229802561686,0.4626007625513024,0.1993144397361444,0.1403093785047531,-0.017562365159392405,-0.39567142724990845
2025/07/05/17:48:16.314906,9570,1751712496,321147008,base_link,1.355588797427566,0.4298595533194741,0.2030195189636159,0.11114693433046341,-0.006230856757611082,-0.37462317943573
2025/07/05/17:48:16.454803,9571,1751712496,460147008,base_link,1.3671018063088374,0.24154713058983523,0.2196671515387214,-0.019382530823349953,-0.004530806094408077,-0.338752806186676
2025/07/05/17:48:16.553785,9572,1751712496,560147008,base_link,1.3804870998491185,0.11809200829759248,0.25885029477801735,-0.4734954833984375,-0.021625136956572547,-0.1171863004565239
2025/07/05/17:48:16.618064,9573,1751712496,624147008,base_link,1.3754989819513952,0.0664453709165972,0.270149212694243,-0.6823741793632507,-0.00954540073871611,0.13369478285312653
2025/07/05/17:48:16.714717,9574,1751712496,721147008,base_link,1.3970024150831635,0.01970028905858883,0.25745053584778665,-0.403006911277771,0.01904476806521419,0.2564907670021057
2025/07/05/17:48:16.817761,9575,1751712496,824147008,base_link,1.426169991596464,0.06315784665780792,0.2502354371945669,0.1722634881734848,0.003199358237907336,0.37012970447540283
2025/07/05/17:48:16.914873,9576,1751712496,921147008,base_link,1.4260203522629953,0.1201697397893423,0.2559115864177609,0.6331269145011902,-0.016583956778049424,0.3599463105201721
2025/07/05/17:48:17.017662,9577,1751712497,24147008,base_link,1.4569903338332684,0.1778081217450308,0.25424712411177125,0.8467813730239868,-0.013734792359173268,0.23378442227840424
2025/07/05/17:48:17.114804,9578,1751712497,121147008,base_link,1.4387938938330445,0.2689561290359385,0.24879840076957094,0.6020292043685913,0.004254895262420178,0.005630860105156898
2025/07/05/17:48:17.215714,9579,1751712497,222147008,base_link,1.4177335953907602,0.3376834299241216,0.2149611117813383,0.21259133517742157,0.018242012709379165,-0.24955591559410095
2025/07/05/17:48:17.295002,9580,1751712497,301147008,base_link,1.4093921713795958,0.36432465139645237,0.20921145416184264,-0.12073788791894913,-0.001620273571461488,-0.39900559186935425
2025/07/05/17:48:17.418289,9581,1751712497,424147008,base_link,1.4184742175343865,0.3306838704554589,0.20343312218881676,-0.3519412577152252,-0.04541236907243734,-0.4779994487762451
2025/07/05/17:48:17.533807,9582,1751712497,540147008,base_link,1.413744033986716,0.2659200411910441,0.21489219383784472,-0.40243735909461975,-0.10683773458004003,-0.4653451442718506
2025/07/05/17:48:17.617648,9583,1751712497,624147008,base_link,1.4091841037090533,0.12523881156640898,0.23489082858342356,-0.4190463423728943,-0.08240836858749392,-0.237079456448555
2025/07/05/17:48:17.715040,9584,1751712497,721147008,base_link,1.4056419242065088,0.00480438917963795,0.25570938441131164,-0.5916717052459717,-0.03650753200054169,0.02557925879955292
2025/07/05/17:48:17.795819,9585,1751712497,802147008,base_link,1.3983286087389373,-0.03105537122137264,0.24794260259557238,-0.4653562009334564,0.019069397822022466,0.21986377239227295
2025/07/05/17:48:17.895137,9586,1751712497,902147008,base_link,1.403703169302645,-0.08296882058825096,0.2347606402263994,0.022925637662410736,0.05019078403711323,0.362099289894104
2025/07/05/17:48:18.017587,9587,1751712498,24147008,base_link,1.4159662462512748,-0.13175425835699298,0.23258305799454346,0.4521868824958801,0.005399300716817436,0.47035452723503113
2025/07/05/17:48:18.094674,9588,1751712498,102147008,base_link,1.4198643380224987,-0.15673725968469832,0.24044231788279558,0.4747470021247864,-0.033193662762641844,0.5004004836082458
2025/07/05/17:48:18.195468,9589,1751712498,202147008,base_link,1.415224919648666,-0.18316202216613228,0.23525611281269876,0.26497122645378113,-0.04775752872228617,0.47417810559272766
2025/07/05/17:48:18.295062,9590,1751712498,302147008,base_link,1.3979892820859263,-0.1879165689269221,0.24320051720508912,0.008653572760522366,-0.021917480975389432,0.4100043475627899
2025/07/05/17:48:18.437077,9591,1751712498,444147008,base_link,1.4006933919322497,-0.1708971200580997,0.22860165314018982,-0.1352272629737854,0.007123696152120874,0.3705374300479889
2025/07/05/17:48:18.595861,9592,1751712498,602147008,base_link,1.3986525060674546,0.06341477557624056,0.24812317479615104,0.04120490327477455,0.02118727378547195,0.2839502990245819
2025/07/05/17:48:18.674410,9593,1751712498,681147008,base_link,1.3773673487125808,0.18307744384304142,0.25595860354823974,0.6632214784622192,0.051478642970323556,-0.029487133026123054
2025/07/05/17:48:18.795664,9594,1751712498,802147008,base_link,1.3683781080449464,0.23277912260067984,0.22763598353036182,0.6642754673957825,0.056708190590143176,-0.25195351243019104
2025/07/05/17:48:18.894752,9595,1751712498,901147008,base_link,1.3873254347653865,0.22992072354389564,0.19305263207941842,0.10870593786239624,0.003121697809547141,-0.36799734830856323
2025/07/05/17:48:18.973516,9596,1751712498,980147008,base_link,1.412328391314256,0.19198338151132419,0.19098799494950047,-0.4570668935775757,-0.08721170574426657,-0.42982563376426697
2025/07/05/17:48:19.094448,9597,1751712499,101147008,base_link,1.4312789698700388,0.08221640085904246,0.21553152639018586,-0.7742549180984497,-0.13236925005912786,-0.3601245880126953
2025/07/05/17:48:19.195644,9598,1751712499,202147008,base_link,1.4298408006722323,-0.024849382365626893,0.23605658004415225,-0.8016887307167053,-0.10546508431434633,-0.161111518740654
2025/07/05/17:48:19.274241,9599,1751712499,281147008,base_link,1.4272844893200602,-0.06310809482276902,0.2177390191760059,-0.6324425339698792,-0.03411317244172094,0.1423015296459198
2025/07/05/17:48:19.395591,9600,1751712499,402147008,base_link,1.4479433030027653,-0.09968450392628421,0.20661641213270582,-0.014593051746487617,0.025136940181255382,0.3297572135925293
2025/07/05/17:48:19.533942,9601,1751712499,541147008,base_link,1.4531187845351707,-0.12658400776971926,0.21125122459860107,0.5489109754562378,0.019627554342150744,0.4604710340499878
2025/07/05/17:48:19.617550,9602,1751712499,624147008,base_link,1.4568364574221149,-0.13685781750613465,0.21343141399197005,0.4643062353134155,-0.03340608254075045,0.4653978943824768
2025/07/05/17:48:19.714602,9603,1751712499,721147008,base_link,1.45804125667358,0.0023573486632346703,0.2361930265629268,0.3075734078884125,-0.031594786792993504,0.3510037064552307
2025/07/05/17:48:19.817819,9604,1751712499,824147008,base_link,1.4451928258450784,0.12865621843609373,0.24100322227330462,0.36722782254219055,0.012125066481530673,0.06069677695631981
2025/07/05/17:48:19.915133,9605,1751712499,921147008,base_link,1.4345868236798895,0.18944999479014563,0.22245936884384665,0.42747682332992554,0.04833705350756643,-0.18136495351791382
2025/07/05/17:48:20.017743,9606,1751712500,24147008,base_link,1.4362356533715392,0.22937786104448166,0.19841856599310917,0.076170414686203,0.024139512330293607,-0.3846163749694824
2025/07/05/17:48:20.114833,9607,1751712500,121147008,base_link,1.4351467316745101,0.19657429710408936,0.1766913043805692,-0.24429351091384888,-0.03315804526209837,-0.44180795550346375
2025/07/05/17:48:20.195680,9608,1751712500,202147008,base_link,1.4699703211104467,0.14617017031043555,0.18279110222852038,-0.515916109085083,-0.10494019836187368,-0.4237511456012726
2025/07/05/17:48:20.314675,9609,1751712500,321147008,base_link,1.4639834939579641,-0.014507133078150573,0.20635930454426396,-0.6385647654533386,-0.12306542694568637,-0.27743422985076904
2025/07/05/17:48:20.474035,9610,1751712500,481147008,base_link,1.467108881501385,-0.08050112823190188,0.19390063004472585,-0.7197002172470093,-0.07156280428171158,0.024632716551423083
2025/07/05/17:48:20.595576,9611,1751712500,602147008,base_link,1.468563122397549,-0.18237328215387552,0.18511867134538218,0.2333848923444748,0.037875618785619784,0.40351277589797974
2025/07/05/17:48:20.695004,9612,1751712500,701147008,base_link,1.455408598326191,-0.21040919220674342,0.1789693016285674,0.48507896065711975,0.020090507343411505,0.4754927158355713
2025/07/05/17:48:20.773752,9613,1751712500,780147008,base_link,1.4467681204738898,-0.2510838047379061,0.1821716195868743,0.4618639349937439,-0.023511663079261717,0.50779789686203
2025/07/05/17:48:20.894575,9614,1751712500,901147008,base_link,1.4436354115784524,-0.26343738037297487,0.19333580695723027,0.21761174499988556,-0.0386179238557815,0.4664534628391266
2025/07/05/17:48:20.995758,9615,1751712501,2147008,base_link,1.440268064452243,-0.28141333401914637,0.19544961532549707,-0.025973323732614517,-0.02152865193784232,0.40514513850212097
2025/07/05/17:48:21.073800,9616,1751712501,81147008,base_link,1.4382224570865914,-0.30736564898771035,0.20068692523044326,-0.15451215207576752,0.005578617565333889,0.3749527037143707
2025/07/05/17:48:21.195805,9617,1751712501,202147008,base_link,1.4167547011407895,-0.299029903336339,0.19024525403958165,-0.144921213388443,0.02687565609812741,0.373755544424057
2025/07/05/17:48:21.273818,9618,1751712501,281147008,base_link,1.4039646168404725,-0.3114703150893301,0.19218030125359567,-0.051217496395111084,0.026135722175240565,0.38320788741111755
2025/07/05/17:48:21.373565,9619,1751712501,380147008,base_link,1.3926684178675575,-0.3169271867032929,0.19087325320872267,0.020220205187797546,0.012030478566885043,0.3978743851184845
2025/07/05/17:48:21.553828,9620,1751712501,560147008,base_link,1.365843303098591,-0.30802777898514905,0.19439544539081455,0.05359060689806938,0.00043158186599617023,0.39076170325279236
2025/07/05/17:48:21.653919,9621,1751712501,660147008,base_link,1.3499072528939997,-0.3132829436162666,0.20192614627182148,-0.006998049095273018,0.011298868805170104,0.3736124634742737
2025/07/05/17:48:21.733849,9622,1751712501,741147008,base_link,1.3455259439521938,-0.30791878181680843,0.2002098004667765,-0.04481874406337738,0.014537021517753644,0.3608905076980591
2025/07/05/17:48:21.817499,9623,1751712501,824147008,base_link,1.3441907645572624,-0.327456113316197,0.19790219065122502,-0.07377367466688156,0.01505768019706015,0.34634169936180115
2025/07/05/17:48:21.953762,9624,1751712501,960147008,base_link,1.3343314403377962,-0.3082335320081236,0.20301971017933335,-0.07110993564128876,0.01798071898519997,0.3477350175380707
2025/07/05/17:48:22.017418,9625,1751712502,24147008,base_link,1.323268686908954,-0.3177788406664822,0.19417053024958456,-0.06589680910110474,0.01742072030901913,0.35300588607788086
2025/07/05/17:48:22.114771,9626,1751712502,121147008,base_link,1.3207935137383588,-0.3018258063821996,0.19604814247117897,-0.04469963535666466,0.01586093567311768,0.3471395671367645
2025/07/05/17:48:22.195759,9627,1751712502,202147008,base_link,1.3153930027314649,-0.30669882108116314,0.1925572637910745,-0.04071313142776489,0.013881326653063339,0.34541574120521545
2025/07/05/17:48:22.273687,9628,1751712502,281147008,base_link,1.320627876959567,-0.3070323881358876,0.19607799419584318,-0.04985487088561058,0.009617590345442338,0.35219675302505493
2025/07/05/17:48:22.395494,9629,1751712502,402147008,base_link,1.318300911789927,-0.29122770376916673,0.1904151718589816,-0.049189791083335876,0.010735872201621576,0.352800190448761
2025/07/05/17:48:22.553837,9630,1751712502,560147008,base_link,1.311554226767403,-0.3065988379311212,0.1883086059387854,-0.03908355534076691,0.014032244682312055,0.34890618920326233
2025/07/05/17:48:22.634120,9631,1751712502,641147008,base_link,1.3060528735994765,-0.3126985114717164,0.1811154378189658,-0.05482275038957596,0.01210522279143338,0.36669859290122986
2025/07/05/17:48:22.753905,9632,1751712502,760147008,base_link,1.3028421791079763,-0.29775837779728226,0.1820986966095691,-0.04460163787007332,0.008341349661350295,0.3620491623878479
2025/07/05/17:48:22.853692,9633,1751712502,860147008,base_link,1.2985917694442133,-0.3020248746353788,0.1865592899078103,-0.034610915929079056,0.010173611342906995,0.3546546995639801
2025/07/05/17:48:22.953580,9634,1751712502,960147008,base_link,1.3051769504052018,-0.2930185392405265,0.18645675845804954,-0.04869906231760979,0.011388728395104452,0.35915398597717285
2025/07/05/17:48:23.017371,9635,1751712503,24147008,base_link,1.300444499644479,-0.31314365710225667,0.1853781584112868,-0.04548157379031181,0.009086177684366746,0.3521542549133301
2025/07/05/17:48:23.114864,9636,1751712503,121147008,base_link,1.2900320393520137,-0.30155559890503353,0.17882749598851636,-0.04769033193588257,0.00853366591036324,0.3533751666545868
2025/07/05/17:48:23.216885,9637,1751712503,224147008,base_link,1.2998002334876513,-0.30118864257986466,0.18411884705496878,-0.0491957888007164,0.011677001602947755,0.35113435983657837
2025/07/05/17:48:23.294807,9638,1751712503,301147008,base_link,1.2823317838259047,-0.3060054982622168,0.17591993802664807,-0.03733254224061966,0.010541370138526004,0.3368454575538635
2025/07/05/17:48:23.417918,9639,1751712503,424147008,base_link,1.2900624052441814,-0.30079111674552966,0.177399223701338,-0.033502522855997086,0.010203829035162967,0.3359936475753784
2025/07/05/17:48:23.553712,9640,1751712503,561147008,base_link,1.2766541813479881,-0.32155952482332006,0.16994827837926416,-0.07441060245037079,0.007533471100032374,0.358529269695282
2025/07/05/17:48:23.653967,9641,1751712503,660147008,base_link,1.2768968271178105,-0.3293472699635111,0.16666691264392428,-0.05480464547872543,0.004902264103293462,0.3541044592857361
2025/07/05/17:48:23.733717,9642,1751712503,740147008,base_link,1.2675259446315366,-0.318726770018392,0.16327282126243875,-0.04657294228672981,0.005958619061857506,0.3587896525859833
2025/07/05/17:48:23.817425,9643,1751712503,824147008,base_link,1.2582649687460754,-0.3326085105012977,0.16157727053592888,-0.03721894323825836,0.007873620837926908,0.35419920086860657
2025/07/05/17:48:23.933867,9644,1751712503,940147008,base_link,1.2602751404814967,-0.3065044321032031,0.16240292583941213,-0.023399770259857178,0.009372317232191606,0.3604465126991272
2025/07/05/17:48:24.017300,9645,1751712504,24147008,base_link,1.246278782352238,-0.32865489928417163,0.16158815315347766,-0.03074277564883232,0.010836950503289743,0.3588724136352539
2025/07/05/17:48:24.114644,9646,1751712504,121147008,base_link,1.2468822537271476,-0.32072964802561954,0.15783190182075096,-0.04392077401280403,0.014283169060945554,0.3558424711227417
2025/07/05/17:48:24.195499,9647,1751712504,202147008,base_link,1.2411092641774908,-0.3315429331823545,0.1605315498154467,-0.049212295562028885,0.015302505344152494,0.34808772802352905
2025/07/05/17:48:24.295106,9648,1751712504,301147008,base_link,1.2317505612819826,-0.30354349717633833,0.15821397029632714,-0.0585465133190155,0.01299945637583737,0.35884684324264526
2025/07/05/17:48:24.373735,9649,1751712504,381147008,base_link,1.225066587938592,-0.3122648852818965,0.15547791329973187,-0.058785319328308105,0.006760116200894161,0.3542790114879608
2025/07/05/17:48:24.573925,9650,1751712504,581147008,base_link,1.2155465846794709,-0.28544151782772675,0.1535353049105927,-0.04526573047041893,0.01008515059947972,0.36761799454689026
2025/07/05/17:48:24.673645,9651,1751712504,681147008,base_link,1.218302997917274,-0.3057043827072966,0.15781815345687622,-0.016228629276156425,0.012174853123724504,0.35616615414619446
2025/07/05/17:48:24.773960,9652,1751712504,781147008,base_link,1.2162855258479761,-0.29213172260428844,0.15712610942717956,-0.031083548441529274,0.010948991402983709,0.3605247139930725
2025/07/05/17:48:24.894816,9653,1751712504,902147008,base_link,1.2221518631161246,-0.1231577977039739,0.1653063395393483,-0.020814359188079834,0.0066910451278090885,0.3329314887523651
2025/07/05/17:48:24.973831,9654,1751712504,980147008,base_link,1.2160926912962633,-0.028900330908393886,0.17402935328049654,0.2584644556045532,0.02255120128393175,0.1416311413049698
2025/07/05/17:48:25.073748,9655,1751712505,81147008,base_link,1.21077516878913,0.08273340483185283,0.1847842110362312,0.5050361752510071,0.05102277174592017,-0.11101928353309631
2025/07/05/17:48:25.173436,9656,1751712505,181147008,base_link,1.2330191319894608,0.12203236723007249,0.1705662127962742,0.366244375705719,0.05396804213523861,-0.29487356543540955
2025/07/05/17:48:25.273945,9657,1751712505,281147008,base_link,1.2388662965100048,0.17108423262920244,0.14576552207724644,-0.06936565041542053,-0.013595944270491649,-0.39910975098609924
2025/07/05/17:48:25.395467,9658,1751712505,402147008,base_link,1.2615723399148389,0.12702948668718958,0.1376957704236146,-0.37533313035964966,-0.08688645064830786,-0.4568829834461212
2025/07/05/17:48:25.553876,9659,1751712505,560147008,base_link,1.2842874515801297,-0.08855672165939034,0.16502067600643774,-0.6008785963058472,-0.09644883871078495,-0.3733488619327545
2025/07/05/17:48:25.636863,9660,1751712505,643147008,base_link,1.30189608060045,-0.1295054460405641,0.16290840134288465,-0.757577657699585,-0.0544947050511837,0.007713110186159618
2025/07/05/17:48:25.715024,9661,1751712505,721147008,base_link,1.2915250884593308,-0.15146005259384615,0.14578546560145536,-0.4669320583343506,-0.01169363502413032,0.20022885501384735
2025/07/05/17:48:25.814766,9662,1751712505,821147008,base_link,1.312883392180104,-0.19494042254068808,0.1493319823797802,0.14481675624847412,0.016867399215698284,0.35088440775871277
2025/07/05/17:48:25.914996,9663,1751712505,921147008,base_link,1.3192654937576882,-0.22839877417687154,0.14345805352599708,0.4602837562561035,0.009740809909999424,0.43977057933807373
2025/07/05/17:48:25.995665,9664,1751712506,2147008,base_link,1.2973457201832803,-0.2747498296695309,0.14302366775406777,0.4629220962524414,-0.02198345400393003,0.5015038847923279
2025/07/05/17:48:26.115153,9665,1751712506,121147008,base_link,1.3154268712441053,-0.22112291849281737,0.17205147238052326,0.2840563654899597,-0.03051195852458471,0.4797097146511078
2025/07/05/17:48:26.195890,9666,1751712506,202147008,base_link,1.2994688073298206,-0.03665405129694979,0.1815668555369812,0.13527387380599976,-0.020908884704112965,0.33225706219673157
2025/07/05/17:48:26.273794,9667,1751712506,281147008,base_link,1.3012250687595492,0.03871100723686274,0.1914641176857537,0.41927066445350647,0.02787939086556435,0.039976637810468674
2025/07/05/17:48:26.415700,9668,1751712506,422147008,base_link,1.297023550999071,0.10653775055492591,0.16217322389682673,0.4641512632369995,0.0556211322546005,-0.2292371243238449
2025/07/05/17:48:26.533911,9669,1751712506,540147008,base_link,1.3284058046711626,0.09771996305658277,0.14032163630846253,-0.1265612244606018,-0.008082822896540214,-0.39557769894599915
2025/07/05/17:48:26.615575,9670,1751712506,622147008,base_link,1.3628568900049665,0.03706857551434729,0.14465243093527788,-0.5509255528450012,-0.10341658443212513,-0.37632864713668823
2025/07/05/17:48:26.714916,9671,1751712506,721147008,base_link,1.3705396090635267,-0.12508004158823316,0.16783247496546244,-0.7453653216362,-0.12967200577259066,-0.23476085066795346
2025/07/05/17:48:26.794763,9672,1751712506,802147008,base_link,1.3634172441695693,-0.150923580786063,0.16245642857593942,-0.9107232689857483,-0.09994442760944366,0.019736539572477355
2025/07/05/17:48:26.894770,9673,1751712506,901147008,base_link,1.3668245282513216,-0.1819210572917462,0.15105943422363638,-0.4603080749511719,-0.019747063517570464,0.24310682713985443
2025/07/05/17:48:26.995831,9674,1751712507,2147008,base_link,1.3576594895288285,-0.20472518490470737,0.1352704408699138,0.09703413397073746,0.024376634508371398,0.367060124874115
2025/07/05/17:48:27.073696,9675,1751712507,80147008,base_link,1.3660646869548319,-0.16983191162264513,0.14322335239892953,0.5446155667304993,0.025388745591044485,0.47270673513412476
2025/07/05/17:48:27.153989,9676,1751712507,160147008,base_link,1.3727819942294408,-0.10341617979958558,0.1613101442753057,0.7188208699226379,-0.007095455192029423,0.429034948348999
2025/07/05/17:48:27.253657,9677,1751712507,260147008,base_link,1.3571659235519447,0.05151362943615971,0.1947133505710435,0.821868896484375,-0.012243722565472102,0.2001585215330124
2025/07/05/17:48:27.333779,9678,1751712507,340147008,base_link,1.3498903803780644,0.09783338440717884,0.1998629473504398,0.7789504528045654,0.014493168331682672,-0.08133933693170547
2025/07/05/17:48:27.495444,9679,1751712507,502147008,base_link,1.3530147213126107,0.14100920654041044,0.14650942016363053,-0.08819663524627686,-0.0013461597263813494,-0.3878444731235504
2025/07/05/17:48:27.614840,9680,1751712507,622147008,base_link,1.394521835466336,0.0806166407045006,0.14382329891822015,-0.6553322672843933,-0.08359753340482717,-0.4853057265281677
2025/07/05/17:48:27.694670,9681,1751712507,702147008,base_link,1.3987704423193925,-0.04666836936454023,0.15455498690673744,-0.7220176458358765,-0.12761628627777105,-0.3880751430988312
2025/07/05/17:48:27.795583,9682,1751712507,802147008,base_link,1.4008992536759297,-0.1526606963757582,0.1759923477201109,-0.8325172662734985,-0.11155253648757936,-0.08536045998334883
2025/07/05/17:48:27.914789,9683,1751712507,921147008,base_link,1.401728055632326,-0.18642990178210442,0.16509136247672468,-0.5470644235610962,-0.029008477926254245,0.21448267996311188
2025/07/05/17:48:28.014816,9684,1751712508,22147008,base_link,1.3932851724977937,-0.2403099026782709,0.1525104454002416,0.24951957166194916,0.042738836258649875,0.4052334427833557
2025/07/05/17:48:28.114811,9685,1751712508,121147008,base_link,1.4042667040426895,-0.23021270187572965,0.15372393824648,0.594435453414917,0.026455860584974348,0.49494481086730957
2025/07/05/17:48:28.221873,9686,1751712508,224147008,base_link,1.4020636161776492,-0.17797842529862717,0.18398074960861338,0.6316425204277039,-0.025652220472693388,0.44114840030670166
2025/07/05/17:48:28.315879,9687,1751712508,321147008,base_link,1.4046074731969274,-0.020613076059818047,0.2037251715958986,0.5530956387519836,-0.03453300148248669,0.2935512065887451
2025/07/05/17:48:28.453809,9688,1751712508,460147008,base_link,1.3899010617218281,0.07054916282186222,0.19298539845485638,0.537022054195404,0.005121270194649692,-0.03226785361766815
2025/07/05/17:48:28.574872,9689,1751712508,580147008,base_link,1.415178302639874,0.10441876730634693,0.1684015019480456,-0.16477513313293457,0.00271696667186911,-0.3982636332511902
2025/07/05/17:48:28.653538,9690,1751712508,660147008,base_link,1.4252624613066847,0.05885248035569761,0.16580771708073305,-0.4642479121685028,-0.050436161458492335,-0.42633581161499023
2025/07/05/17:48:28.756742,9691,1751712508,760147008,base_link,1.4469232606945357,-0.05433192712991272,0.17245776382214786,-0.6926225423812866,-0.11057671159505848,-0.3223734200000763
2025/07/05/17:48:28.875633,9692,1751712508,881147008,base_link,1.4593124566364033,-0.17862956876231217,0.18810575605517765,-0.7841796875,-0.08882616460323334,-0.00960937701165675
2025/07/05/17:48:28.995317,9693,1751712509,2147008,base_link,1.456025180024341,-0.22695006061197273,0.16292148753223185,-0.2980247139930725,-0.0046788891777395855,0.2811390459537506
2025/07/05/17:48:29.117334,9694,1751712509,121147008,base_link,1.4456350919762078,-0.23638159678777712,0.15454217131822118,0.2966260015964508,0.027520749717950873,0.41979286074638367
2025/07/05/17:48:29.195795,9695,1751712509,203147008,base_link,1.4471854038622276,-0.20906115605013142,0.16961054013203816,0.6046875715255737,0.0073928036727011785,0.4775710999965668
2025/07/05/17:48:29.315806,9696,1751712509,321147008,base_link,1.451008443928392,-0.050239858809104546,0.21350718150697243,0.666007936000824,-0.018694918602704957,0.36806920170783997
2025/07/05/17:48:29.473957,9697,1751712509,481147008,base_link,1.4448777089201528,0.046895367998217405,0.2131434158842146,0.6786566972732544,0.0018423475557938316,0.079909548163414
2025/07/05/17:48:29.594975,9698,1751712509,602147008,base_link,1.4512016202672569,0.11684617766276979,0.17849856438363632,-0.11047585308551788,-0.001296856207773138,-0.39668428897857666
