time,.header.seq,.header.stamp.secs,.header.stamp.nsecs,.header.frame_id,.airspeed,.groundspeed,.heading,.throttle,.altitude,.climb
2025/07/05/17:47:55.854769,9376,1751712475,854364459,,0.3760000169277191,0.39597588777542114,220,0.0,24.3799991607666,-0.0208390224725008
2025/07/05/17:47:55.995034,9377,1751712475,994822738,,0.3760000169277191,0.405537486076355,219,0.0,24.369998931884766,-0.0278098713606596
2025/07/05/17:47:56.095292,9378,1751712476,94737695,,0.44600000977516174,0.4146469831466675,218,0.0,24.35999870300293,-0.028879228979349136
2025/07/05/17:47:56.175211,9379,1751712476,174884829,,0.44600000977516174,0.41855964064598083,217,0.0,24.35999870300293,-0.02551378309726715
2025/07/05/17:47:56.295301,9380,1751712476,294946472,,0.48900002241134644,0.42241141200065613,216,0.0,24.350000381469727,-0.025521455332636833
2025/07/05/17:47:56.416713,9381,1751712476,415960687,,0.5420000553131104,0.43390366435050964,215,0.0,24.350000381469727,-0.03225640207529068
2025/07/05/17:47:56.575031,9382,1751712476,574469571,,0.5420000553131104,0.45539355278015137,214,0.0,24.34000015258789,-0.03268887475132942
2025/07/05/17:47:56.676244,9383,1751712476,674835522,,0.5760000348091125,0.4624180495738983,213,0.0,24.34000015258789,-0.033926256000995636
2025/07/05/17:47:56.755082,9384,1751712476,754129469,,0.5760000348091125,0.47329092025756836,213,0.0,24.34000015258789,-0.0326235368847847
2025/07/05/17:47:56.854867,9385,1751712476,854038876,,0.37400001287460327,0.4755402207374573,212,0.0,24.34000015258789,-0.03372303023934364
2025/07/05/17:47:56.975039,9386,1751712476,974466752,,0.37400001287460327,0.486915647983551,211,0.0,24.34000015258789,-0.03440314903855324
2025/07/05/17:47:57.055023,9387,1751712477,54013042,,0.4790000319480896,0.49071967601776123,211,0.0,24.329999923706055,-0.03509103134274483
2025/07/05/17:47:57.134832,9388,1751712477,134183557,,0.4790000319480896,0.48938554525375366,210,0.0,24.329999923706055,-0.03343742713332176
2025/07/05/17:47:57.237691,9389,1751712477,236948999,,0.5160000324249268,0.4960227310657501,209,0.0,24.34000015258789,-0.02955363504588604
2025/07/05/17:47:57.315716,9390,1751712477,315027327,,0.5160000324249268,0.5035510659217834,208,0.0,24.34000015258789,-0.031870659440755844
2025/07/05/17:47:57.437862,9391,1751712477,437136699,,0.3450000286102295,0.5140559077262878,207,0.0,24.329999923706055,-0.030642345547676086
2025/07/05/17:47:57.575172,9392,1751712477,574248910,,0.3450000286102295,0.5151946544647217,206,0.0,24.329999923706055,-0.03320964798331261
2025/07/05/17:47:57.674705,9393,1751712477,674183100,,0.42100003361701965,0.5071267485618591,206,0.0,24.34000015258789,-0.025076501071453094
2025/07/05/17:47:57.774792,9394,1751712477,774114962,,0.42100003361701965,0.5067397952079773,205,0.0,24.350000381469727,-0.02945435233414173
2025/07/05/17:47:57.855350,9395,1751712477,854419597,,0.492000013589859,0.5093443989753723,204,0.0,24.350000381469727,-0.02040533721446991
2025/07/05/17:47:57.996410,9396,1751712477,995563117,,0.4020000100135803,0.5104652643203735,203,0.0,24.35999870300293,-0.01613745652139187
2025/07/05/17:47:58.075423,9397,1751712478,74598423,,0.4020000100135803,0.506713330745697,202,0.0,24.369998931884766,-0.021952074021100998
2025/07/05/17:47:58.154394,9398,1751712478,153983255,,0.4020000100135803,0.5126064419746399,202,0.0,24.369998931884766,-0.019106101244688034
2025/07/05/17:47:58.254480,9399,1751712478,253945824,,0.43700000643730164,0.5119743943214417,201,0.0,24.3799991607666,-0.01773996278643608
2025/07/05/17:47:58.355093,9400,1751712478,354329606,,0.43700000643730164,0.5011773109436035,200,0.0,24.3799991607666,-0.017759675160050392
2025/07/05/17:47:58.534385,9401,1751712478,533921089,,0.4050000309944153,0.5017154216766357,199,0.0,24.389999389648438,-0.010067103430628777
2025/07/05/17:47:58.614888,9402,1751712478,614671521,,0.3840000033378601,0.4958053231239319,198,0.0,24.389999389648438,-0.008972571231424809
2025/07/05/17:47:58.715760,9403,1751712478,715289979,,0.3840000033378601,0.5021343231201172,198,0.0,24.389999389648438,-0.01231762021780014
2025/07/05/17:47:58.815651,9404,1751712478,815064585,,0.30800002813339233,0.4841254949569702,197,0.0,24.389999389648438,-0.013730337843298912
2025/07/05/17:47:58.915979,9405,1751712478,915129935,,0.30800002813339233,0.48750147223472595,196,0.0,24.389999389648438,-0.009738920256495476
2025/07/05/17:47:59.035197,9406,1751712479,34628183,,0.4580000340938568,0.47300589084625244,196,0.0,24.3799991607666,-0.01546756736934185
2025/07/05/17:47:59.134963,9407,1751712479,134306570,,0.4580000340938568,0.4822239279747009,195,0.0,24.3799991607666,-0.021637756377458572
2025/07/05/17:47:59.254938,9408,1751712479,254068780,,0.39100003242492676,0.475425660610199,194,0.0,24.3799991607666,-0.020965920761227608
2025/07/05/17:47:59.354723,9409,1751712479,353913474,,0.39100003242492676,0.46928712725639343,193,0.0,24.3799991607666,-0.026556191965937614
2025/07/05/17:47:59.554842,9410,1751712479,554301518,,0.398000031709671,0.47064948081970215,192,0.0,24.3799991607666,-0.022271746769547462
2025/07/05/17:47:59.654653,9411,1751712479,654008010,,0.22800001502037048,0.45706725120544434,191,0.0,24.3799991607666,-0.028278810903429985
2025/07/05/17:47:59.755067,9412,1751712479,754279216,,0.22800001502037048,0.4586509168148041,191,0.0,24.3799991607666,-0.020356016233563423
2025/07/05/17:47:59.855137,9413,1751712479,854308466,,0.3930000066757202,0.45963722467422485,190,0.0,24.369998931884766,-0.031041458249092102
2025/07/05/17:47:59.975298,9414,1751712479,974580038,,0.3930000066757202,0.45024943351745605,189,0.0,24.35999870300293,-0.025232968851923943
2025/07/05/17:48:00.054769,9415,1751712480,53950399,,0.23800000548362732,0.43858179450035095,189,0.0,24.35999870300293,-0.026942675933241844
2025/07/05/17:48:00.154990,9416,1751712480,154293418,,0.23800000548362732,0.4383610785007477,188,0.0,24.350000381469727,-0.03056919574737549
2025/07/05/17:48:00.234514,9417,1751712480,234109303,,0.28700000047683716,0.4280489981174469,187,0.0,24.34000015258789,-0.039036497473716736
2025/07/05/17:48:00.334190,9418,1751712480,333677623,,0.28700000047683716,0.4182780683040619,187,0.0,24.34000015258789,-0.03727547079324722
2025/07/05/17:48:00.515771,9419,1751712480,515128856,,0.27300000190734863,0.4039933979511261,186,0.0,24.31999969482422,-0.050028227269649506
2025/07/05/17:48:00.618435,9420,1751712480,617527960,,0.3720000088214874,0.38332825899124146,185,0.0,24.31999969482422,-0.04497867822647095
2025/07/05/17:48:00.695747,9421,1751712480,695040951,,0.3720000088214874,0.37569189071655273,184,0.0,24.309999465942383,-0.050134096294641495
2025/07/05/17:48:00.775560,9422,1751712480,774522471,,0.3720000088214874,0.3728710412979126,184,0.0,24.309999465942383,-0.05128559097647667
2025/07/05/17:48:00.854264,9423,1751712480,853706280,,0.5060000419616699,0.37272879481315613,183,0.0,24.309999465942383,-0.05548223853111267
2025/07/05/17:48:00.956045,9424,1751712480,955389605,,0.5060000419616699,0.37609559297561646,183,0.0,24.299999237060547,-0.04768192023038864
2025/07/05/17:48:01.054949,9425,1751712481,54393527,,0.3070000112056732,0.37342146039009094,182,0.0,24.299999237060547,-0.05902675539255142
2025/07/05/17:48:01.154119,9426,1751712481,153742702,,0.3070000112056732,0.37369927763938904,181,0.0,24.28999900817871,-0.049775365740060806
2025/07/05/17:48:01.254950,9427,1751712481,254246339,,0.3490000069141388,0.3728676736354828,181,0.0,24.28999900817871,-0.05817627161741257
2025/07/05/17:48:01.396259,9428,1751712481,395337278,,0.3490000069141388,0.3622839152812958,180,0.0,24.28999900817871,-0.052249643951654434
2025/07/05/17:48:01.554871,9429,1751712481,554082159,,0.4190000295639038,0.36750149726867676,179,0.0,24.28999900817871,-0.06071270629763603
2025/07/05/17:48:01.675255,9430,1751712481,674892240,,0.4350000321865082,0.3761151134967804,178,0.0,24.28999900817871,-0.05701865255832672
2025/07/05/17:48:01.754859,9431,1751712481,754005631,,0.4350000321865082,0.3675761818885803,177,0.0,24.28999900817871,-0.053691886365413666
2025/07/05/17:48:01.854480,9432,1751712481,853884330,,0.320000022649765,0.3746797740459442,177,0.0,24.28999900817871,-0.05084938555955887
2025/07/05/17:48:01.996447,9433,1751712481,995663425,,0.41100001335144043,0.3799534738063812,176,0.0,24.28999900817871,-0.054348718374967575
2025/07/05/17:48:02.055327,9434,1751712482,54501857,,0.41100001335144043,0.3682445287704468,175,0.0,24.28999900817871,-0.055207058787345886
2025/07/05/17:48:02.154679,9435,1751712482,153793603,,0.41100001335144043,0.371334046125412,175,0.0,24.28999900817871,-0.045869722962379456
2025/07/05/17:48:02.274449,9436,1751712482,273991349,,0.45000001788139343,0.37286698818206787,174,0.0,24.28999900817871,-0.04912954196333885
2025/07/05/17:48:02.354765,9437,1751712482,353998907,,0.45000001788139343,0.375043123960495,173,0.0,24.279998779296875,-0.04816790670156479
2025/07/05/17:48:02.574504,9438,1751712482,573749822,,0.5040000081062317,0.3847191631793976,172,0.0,24.279998779296875,-0.05285777151584625
2025/07/05/17:48:02.654774,9439,1751712482,653893811,,0.33900001645088196,0.38381198048591614,171,0.0,24.279998779296875,-0.054677486419677734
2025/07/05/17:48:02.754653,9440,1751712482,754013711,,0.33900001645088196,0.39070236682891846,171,0.0,24.28999900817871,-0.049376919865608215
2025/07/05/17:48:02.874906,9441,1751712482,874373450,,0.5240000486373901,0.3945775330066681,170,0.0,24.28999900817871,-0.04807903990149498
2025/07/05/17:48:02.996256,9442,1751712482,995543784,,0.33500000834465027,0.393500953912735,169,0.0,24.28999900817871,-0.045645084232091904
2025/07/05/17:48:03.054389,9443,1751712483,53756565,,0.33500000834465027,0.40534478425979614,169,0.0,24.28999900817871,-0.05219719931483269
2025/07/05/17:48:03.155128,9444,1751712483,154223829,,0.33500000834465027,0.3938691318035126,168,0.0,24.28999900817871,-0.049970827996730804
2025/07/05/17:48:03.254710,9445,1751712483,253845362,,0.51500004529953,0.4030856490135193,168,0.0,24.28999900817871,-0.041024524718523026
2025/07/05/17:48:03.354439,9446,1751712483,353749926,,0.51500004529953,0.411617636680603,167,0.0,24.299999237060547,-0.04851970076560974
2025/07/05/17:48:03.534666,9447,1751712483,533963433,,0.3330000042915344,0.4078332483768463,166,0.0,24.299999237060547,-0.04663578048348427
2025/07/05/17:48:03.638371,9448,1751712483,637292183,,0.3540000021457672,0.39897456765174866,165,0.0,24.299999237060547,-0.043590061366558075
2025/07/05/17:48:03.735618,9449,1751712483,735074011,,0.3540000021457672,0.40474003553390503,165,0.0,24.299999237060547,-0.049750566482543945
2025/07/05/17:48:03.834738,9450,1751712483,833824304,,0.453000009059906,0.4050585925579071,164,0.0,24.299999237060547,-0.03895850107073784
2025/07/05/17:48:03.954185,9451,1751712483,953957771,,0.453000009059906,0.40829911828041077,163,0.0,24.309999465942383,-0.04205234348773956
2025/07/05/17:48:04.075413,9452,1751712484,74733441,,0.22700001299381256,0.4136369526386261,162,0.0,24.309999465942383,-0.03551732748746872
2025/07/05/17:48:04.154337,9453,1751712484,153488209,,0.22700001299381256,0.42050743103027344,162,0.0,24.309999465942383,-0.03965865820646286
2025/07/05/17:48:04.254340,9454,1751712484,253721833,,0.5250000357627869,0.45066967606544495,161,0.0,24.309999465942383,-0.03548714146018028
2025/07/05/17:48:04.396310,9455,1751712484,395476282,,0.6850000619888306,0.46666550636291504,160,0.0,24.31999969482422,-0.035768646746873856
2025/07/05/17:48:04.556293,9456,1751712484,555395174,,0.6850000619888306,0.4866751432418823,158,0.0,24.31999969482422,-0.02906838431954384
2025/07/05/17:48:04.675169,9457,1751712484,674634094,,0.5020000338554382,0.5035138130187988,157,0.0,24.31999969482422,-0.02951543591916561
2025/07/05/17:48:04.754312,9458,1751712484,753794514,,0.5020000338554382,0.5137272477149963,157,0.0,24.31999969482422,-0.03126714378595352
2025/07/05/17:48:04.854765,9459,1751712484,854244883,,0.38200002908706665,0.523507833480835,156,0.0,24.31999969482422,-0.02835017815232277
2025/07/05/17:48:04.995737,9460,1751712484,995206053,,0.4320000112056732,0.5367668271064758,154,0.0,24.31999969482422,-0.02848200686275959
2025/07/05/17:48:05.054049,9461,1751712485,53600911,,0.4320000112056732,0.533100426197052,154,0.0,24.31999969482422,-0.024971431121230125
2025/07/05/17:48:05.154225,9462,1751712485,153460413,,0.4320000112056732,0.5345910787582397,153,0.0,24.329999923706055,-0.025160199031233788
2025/07/05/17:48:05.255443,9463,1751712485,254301199,,0.4620000123977661,0.5449613928794861,152,0.0,24.329999923706055,-0.023253798484802246
2025/07/05/17:48:05.354657,9464,1751712485,353926325,,0.4620000123977661,0.5491788983345032,150,0.0,24.329999923706055,-0.023255277425050735
2025/07/05/17:48:05.574148,9465,1751712485,573466212,,0.4490000307559967,0.5463888645172119,148,0.0,24.34000015258789,-0.01651509292423725
2025/07/05/17:48:05.654431,9466,1751712485,653665304,,0.6420000195503235,0.5466566681861877,147,0.0,24.34000015258789,-0.01752261258661747
2025/07/05/17:48:05.755281,9467,1751712485,754388662,,0.6420000195503235,0.5469275712966919,146,0.0,24.350000381469727,-0.0154545484110713
2025/07/05/17:48:05.874841,9468,1751712485,874420140,,0.7240000367164612,0.5529298782348633,145,0.0,24.350000381469727,-0.014073619619011879
2025/07/05/17:48:05.996458,9469,1751712485,995572602,,0.7910000085830688,0.5635973811149597,144,0.0,24.35999870300293,-0.010852494277060032
2025/07/05/17:48:06.095195,9470,1751712486,94401727,,0.7910000085830688,0.5790033340454102,144,0.0,24.35999870300293,-0.006635432597249746
2025/07/05/17:48:06.175006,9471,1751712486,174326023,,0.7910000085830688,0.5827698111534119,145,0.0,24.35999870300293,-0.0019927239045500755
2025/07/05/17:48:06.254261,9472,1751712486,253640933,,0.5230000019073486,0.5881575345993042,145,0.0,24.369998931884766,-0.00028176174964755774
2025/07/05/17:48:06.354362,9473,1751712486,353710439,,0.5230000019073486,0.5916770100593567,147,0.0,24.369998931884766,-0.005820761434733868
2025/07/05/17:48:06.534625,9474,1751712486,534269880,,0.5420000553131104,0.582155704498291,149,0.0,24.369998931884766,-0.009423760697245598
2025/07/05/17:48:06.634589,9475,1751712486,633676907,,0.7010000348091125,0.5677380561828613,149,0.0,24.369998931884766,0.00014132200158201158
2025/07/05/17:48:06.714885,9476,1751712486,714271375,,0.7010000348091125,0.5603500604629517,149,0.0,24.369998931884766,-0.002729058498516679
2025/07/05/17:48:06.819167,9477,1751712486,818138546,,0.6040000319480896,0.5613889694213867,148,0.0,24.369998931884766,0.0017465641722083092
2025/07/05/17:48:06.895639,9478,1751712486,894989381,,0.6040000319480896,0.5639894008636475,147,0.0,24.3799991607666,-0.003951043821871281
2025/07/05/17:48:06.998633,9479,1751712486,996476410,,0.46000000834465027,0.5696169137954712,145,0.0,24.3799991607666,-0.011924606747925282
2025/07/05/17:48:07.094902,9480,1751712487,94504085,,0.46000000834465027,0.5653092861175537,144,0.0,24.3799991607666,-0.009860271587967873
2025/07/05/17:48:07.174928,9481,1751712487,174291107,,0.46000000834465027,0.5675109624862671,143,0.0,24.3799991607666,-0.003231082344427705
2025/07/05/17:48:07.254414,9482,1751712487,253705954,,0.6010000109672546,0.5696032047271729,142,0.0,24.3799991607666,-9.782698180060834e-05
2025/07/05/17:48:07.395911,9483,1751712487,395326993,,0.7270000576972961,0.5721397399902344,140,0.0,24.3799991607666,0.0001958394277608022
2025/07/05/17:48:07.534459,9484,1751712487,533661242,,0.7270000576972961,0.577854573726654,139,0.0,24.369998931884766,-0.006160459015518427
2025/07/05/17:48:07.637104,9485,1751712487,636615385,,0.5660000443458557,0.5783802270889282,138,0.0,24.369998931884766,-0.010002917610108852
2025/07/05/17:48:07.735183,9486,1751712487,734352226,,0.5660000443458557,0.583095371723175,136,0.0,24.3799991607666,-0.004308692179620266
2025/07/05/17:48:07.835147,9487,1751712487,834356029,,0.5120000243186951,0.5822492241859436,135,0.0,24.3799991607666,-0.003397361608222127
2025/07/05/17:48:07.974009,9488,1751712487,973532445,,0.5120000243186951,0.5836219787597656,133,0.0,24.3799991607666,-0.003457031911239028
2025/07/05/17:48:08.058045,9489,1751712488,57209883,,0.8230000138282776,0.5847678780555725,132,0.0,24.3799991607666,-0.0019407517975196242
2025/07/05/17:48:08.153847,9490,1751712488,153381528,,0.8230000138282776,0.5862785577774048,131,0.0,24.369998931884766,-0.007049655541777611
2025/07/05/17:48:08.275375,9491,1751712488,275030687,,0.8450000286102295,0.6001101732254028,130,0.0,24.369998931884766,-0.004735202994197607
2025/07/05/17:48:08.354678,9492,1751712488,354460012,,0.8450000286102295,0.6083652377128601,129,0.0,24.369998931884766,-0.003762420266866684
2025/07/05/17:48:08.574453,9493,1751712488,573894290,,0.5990000367164612,0.6168209314346313,129,0.0,24.369998931884766,0.00517281424254179
2025/07/05/17:48:08.654589,9494,1751712488,654230392,,0.8690000176429749,0.6281068325042725,130,0.0,24.369998931884766,-0.002131453715264797
2025/07/05/17:48:08.754073,9495,1751712488,753596963,,0.8690000176429749,0.6273350715637207,132,0.0,24.369998931884766,-0.01168760284781456
2025/07/05/17:48:08.834247,9496,1751712488,833486473,,0.5649999976158142,0.6280277371406555,132,0.0,24.369998931884766,-0.012895834632217884
2025/07/05/17:48:08.934541,9497,1751712488,934153600,,0.5649999976158142,0.6102754473686218,133,0.0,24.3799991607666,-0.0010792054235935211
2025/07/05/17:48:09.034363,9498,1751712489,33868497,,0.3100000023841858,0.6023905873298645,133,0.0,24.3799991607666,0.0006955636781640351
2025/07/05/17:48:09.134429,9499,1751712489,133660449,,0.3100000023841858,0.5880714654922485,132,0.0,24.3799991607666,-0.0038208013866096735
2025/07/05/17:48:09.233853,9500,1751712489,233343027,,0.7220000624656677,0.592075765132904,130,0.0,24.3799991607666,-0.007614305708557367
2025/07/05/17:48:09.334405,9501,1751712489,333761122,,0.7220000624656677,0.6276811957359314,129,0.0,24.3799991607666,-0.013012965209782124
2025/07/05/17:48:09.495691,9502,1751712489,495244935,,0.5260000228881836,0.6753974556922913,126,0.0,24.3799991607666,-0.007728342432528734
2025/07/05/17:48:09.596145,9503,1751712489,595505101,,0.7410000562667847,0.7006479501724243,125,0.0,24.3799991607666,-0.00388632551766932
2025/07/05/17:48:09.675478,9504,1751712489,674929508,,0.7410000562667847,0.7259597182273865,124,0.0,24.3799991607666,-0.0019254065118730068
2025/07/05/17:48:09.776263,9505,1751712489,775078059,,0.7410000562667847,0.7520673274993896,122,0.0,24.389999389648438,-0.010337955318391323
2025/07/05/17:48:09.855521,9506,1751712489,853991400,,0.8730000257492065,0.7747724056243896,121,0.0,24.3799991607666,-0.00979936495423317
2025/07/05/17:48:09.955006,9507,1751712489,954361334,,0.8730000257492065,0.8027373552322388,120,0.0,24.3799991607666,-0.007674011867493391
2025/07/05/17:48:10.054910,9508,1751712490,54420229,,0.6480000019073486,0.8297135829925537,118,0.0,24.3799991607666,-0.007942317053675652
2025/07/05/17:48:10.154320,9509,1751712490,153777084,,0.6480000019073486,0.8458441495895386,117,0.0,24.3799991607666,-0.007577108684927225
2025/07/05/17:48:10.254206,9510,1751712490,253680813,,0.9980000257492065,0.8668338060379028,116,0.0,24.3799991607666,-0.002851219614967704
2025/07/05/17:48:10.354975,9511,1751712490,354371763,,0.9980000257492065,0.8901543021202087,116,0.0,24.3799991607666,-0.004323077853769064
2025/07/05/17:48:10.515115,9512,1751712490,514902372,,0.9950000643730164,0.930367112159729,116,0.0,24.3799991607666,-0.005394697189331055
2025/07/05/17:48:10.617673,9513,1751712490,617200394,,1.1890000104904175,0.9563664197921753,116,0.0,24.3799991607666,-0.01168878935277462
2025/07/05/17:48:10.714236,9514,1751712490,714010188,,1.1890000104904175,0.9934120178222656,116,0.0,24.3799991607666,0.00026038254145532846
2025/07/05/17:48:10.817344,9515,1751712490,817184049,,0.7930000424385071,1.031313180923462,117,0.0,24.3799991607666,-0.001413866993971169
2025/07/05/17:48:10.915349,9516,1751712490,914292590,,0.7930000424385071,1.0616865158081055,118,0.0,24.3799991607666,0.006015987601131201
2025/07/05/17:48:11.017803,9517,1751712491,17259744,,0.9520000219345093,1.0837427377700806,119,0.0,24.3799991607666,0.0023696229327470064
2025/07/05/17:48:11.094837,9518,1751712491,94423541,,0.9520000219345093,1.087517261505127,121,0.0,24.3799991607666,-0.002044587628915906
2025/07/05/17:48:11.196127,9519,1751712491,195367492,,1.1290000677108765,1.0898854732513428,123,0.0,24.3799991607666,-0.023535603657364845
2025/07/05/17:48:11.279299,9520,1751712491,278547194,,1.1290000677108765,1.0809235572814941,124,0.0,24.369998931884766,-0.014626199379563332
2025/07/05/17:48:11.356645,9521,1751712491,354591093,,1.1290000677108765,1.0575580596923828,126,0.0,24.369998931884766,-0.010518458671867847
2025/07/05/17:48:11.554909,9522,1751712491,554414335,,0.7560000419616699,0.9839789867401123,126,0.0,24.369998931884766,0.003050126601010561
2025/07/05/17:48:11.634045,9523,1751712491,633374591,,1.0260000228881836,0.9653242230415344,125,0.0,24.369998931884766,0.007098102010786533
2025/07/05/17:48:11.734332,9524,1751712491,733428356,,1.0260000228881836,0.9779084920883179,124,0.0,24.369998931884766,-0.008459317497909069
2025/07/05/17:48:11.817733,9525,1751712491,817281030,,1.0780000686645508,0.988533616065979,122,0.0,24.369998931884766,-0.008813709951937199
2025/07/05/17:48:11.916834,9526,1751712491,915381052,,1.0780000686645508,1.0088324546813965,120,0.0,24.3799991607666,-0.0042391386814415455
2025/07/05/17:48:12.018787,9527,1751712492,17911761,,1.1170001029968262,1.0353285074234009,119,0.0,24.3799991607666,-0.003488062648102641
2025/07/05/17:48:12.095064,9528,1751712492,94398948,,1.1170001029968262,1.0699224472045898,119,0.0,24.389999389648438,0.009794636629521847
2025/07/05/17:48:12.196184,9529,1751712492,195204219,,0.9970000386238098,1.0885417461395264,119,0.0,24.389999389648438,0.013069264590740204
2025/07/05/17:48:12.294830,9530,1751712492,294165224,,0.9970000386238098,1.0975059270858765,121,0.0,24.399999618530273,-0.0003136955783702433
2025/07/05/17:48:12.374892,9531,1751712492,373640753,,0.9970000386238098,1.0996880531311035,122,0.0,24.399999618530273,-0.0018821408739313483
2025/07/05/17:48:12.534056,9532,1751712492,533498098,,1.0290000438690186,1.0886210203170776,125,0.0,24.40999984741211,-0.004933082964271307
2025/07/05/17:48:12.635837,9533,1751712492,633763466,,1.2080000638961792,1.0679937601089478,127,0.0,24.40999984741211,0.0002244314964627847
2025/07/05/17:48:12.714692,9534,1751712492,714028395,,1.2080000638961792,1.0282143354415894,127,0.0,24.40999984741211,0.01581680402159691
2025/07/05/17:48:12.817923,9535,1751712492,817062243,,0.8060000538825989,1.0099068880081177,126,0.0,24.420000076293945,0.023792991414666176
2025/07/05/17:48:12.895211,9536,1751712492,894605145,,0.8060000538825989,0.997236430644989,125,0.0,24.420000076293945,0.02093064971268177
2025/07/05/17:48:13.017618,9537,1751712493,17112885,,0.8250000476837158,0.9865583777427673,123,0.0,24.43000030517578,0.013621531426906586
2025/07/05/17:48:13.095695,9538,1751712493,94571223,,0.8250000476837158,0.9809938669204712,121,0.0,24.43000030517578,0.0067903571762144566
2025/07/05/17:48:13.175617,9539,1751712493,175045834,,0.8250000476837158,0.9850651025772095,119,0.0,24.439998626708984,0.00729304039850831
2025/07/05/17:48:13.254462,9540,1751712493,253510874,,1.0430001020431519,0.9918191432952881,118,0.0,24.44999885559082,0.014428657479584217
2025/07/05/17:48:13.354780,9541,1751712493,354309157,,1.0430001020431519,0.9998294711112976,116,0.0,24.459999084472656,0.018826311454176903
2025/07/05/17:48:13.554131,9542,1751712493,553446254,,1.2080000638961792,1.044539451599121,112,0.0,24.479999542236328,0.03146112337708473
2025/07/05/17:48:13.674239,9543,1751712493,673886514,,1.2440000772476196,1.0705403089523315,109,0.0,24.489999771118164,0.026131393387913704
2025/07/05/17:48:13.754309,9544,1751712493,753369760,,1.2440000772476196,1.0936082601547241,107,0.0,24.489999771118164,0.02737872488796711
2025/07/05/17:48:13.853936,9545,1751712493,853228085,,1.224000096321106,1.1226606369018555,105,0.0,24.5,0.024203991517424583
2025/07/05/17:48:13.955137,9546,1751712493,954397419,,1.224000096321106,1.1577749252319336,104,0.0,24.510000228881836,0.03907214477658272
2025/07/05/17:48:14.054371,9547,1751712494,53600121,,1.343000054359436,1.1940579414367676,103,0.0,24.51999855041504,0.040079519152641296
2025/07/05/17:48:14.154444,9548,1751712494,153664660,,1.343000054359436,1.2240046262741089,102,0.0,24.529998779296875,0.05118809640407562
2025/07/05/17:48:14.234168,9549,1751712494,233535848,,1.3920000791549683,1.241762399673462,102,0.0,24.529998779296875,0.0380919985473156
2025/07/05/17:48:14.335088,9550,1751712494,334393398,,1.3920000791549683,1.2840098142623901,102,0.0,24.53999900817871,0.03926829248666763
2025/07/05/17:48:14.515095,9551,1751712494,514235313,,1.3100000619888306,1.3447296619415283,104,0.0,24.53999900817871,0.04570523649454117
2025/07/05/17:48:14.596040,9552,1751712494,594935795,,1.371000051498413,1.3559805154800415,106,0.0,24.549999237060547,0.04095663130283356
2025/07/05/17:48:14.674848,9553,1751712494,674386705,,1.371000051498413,1.3578925132751465,107,0.0,24.549999237060547,0.038336511701345444
2025/07/05/17:48:14.775180,9554,1751712494,774612510,,1.371000051498413,1.3618038892745972,110,0.0,24.549999237060547,0.017312342301011086
2025/07/05/17:48:14.874037,9555,1751712494,873883199,,1.3220000267028809,1.3426260948181152,111,0.0,24.549999237060547,0.027860838919878006
2025/07/05/17:48:14.975248,9556,1751712494,973902143,,1.3220000267028809,1.329675555229187,111,0.0,24.549999237060547,0.044932279735803604
2025/07/05/17:48:15.054204,9557,1751712495,53374880,,1.3340001106262207,1.326530933380127,110,0.0,24.549999237060547,0.06204276904463768
2025/07/05/17:48:15.154110,9558,1751712495,153469387,,1.3340001106262207,1.3370965719223022,109,0.0,24.549999237060547,0.05356194078922272
2025/07/05/17:48:15.254346,9559,1751712495,253478378,,1.5320000648498535,1.3411692380905151,106,0.0,24.549999237060547,0.04265858605504036
2025/07/05/17:48:15.354285,9560,1751712495,353583689,,1.5320000648498535,1.3643125295639038,104,0.0,24.549999237060547,0.030648814514279366
2025/07/05/17:48:15.534816,9561,1751712495,534338988,,1.2170000076293945,1.3997113704681396,102,0.0,24.559999465942383,0.0687519758939743
2025/07/05/17:48:15.634196,9562,1751712495,633393647,,1.4760000705718994,1.4079170227050781,103,0.0,24.56999969482422,0.06236366182565689
2025/07/05/17:48:15.714722,9563,1751712495,714044479,,1.4760000705718994,1.4262768030166626,104,0.0,24.579999923706055,0.04238184913992882
2025/07/05/17:48:15.817679,9564,1751712495,816770449,,1.505000114440918,1.4371336698532104,107,0.0,24.579999923706055,0.031672485172748566
2025/07/05/17:48:15.895426,9565,1751712495,895102413,,1.505000114440918,1.4559189081192017,109,0.0,24.59000015258789,0.03155427426099777
2025/07/05/17:48:15.995925,9566,1751712495,995317042,,1.3440001010894775,1.4646615982055664,111,0.0,24.600000381469727,0.037530120462179184
2025/07/05/17:48:16.094910,9567,1751712496,94116007,,1.3440001010894775,1.4641520977020264,114,0.0,24.60999870300293,0.05936341732740402
2025/07/05/17:48:16.174300,9568,1751712496,173607004,,1.3440001010894775,1.453681468963623,115,0.0,24.619998931884766,0.05136379227042198
2025/07/05/17:48:16.254246,9569,1751712496,253545485,,1.4850000143051147,1.441983699798584,117,0.0,24.6299991607666,0.058176591992378235
2025/07/05/17:48:16.355097,9570,1751712496,354372895,,1.4850000143051147,1.4288748502731323,119,0.0,24.639999389648438,0.06150510162115097
2025/07/05/17:48:16.514921,9571,1751712496,514255421,,1.408000111579895,1.4082057476043701,120,0.0,24.649999618530273,0.07821616530418396
2025/07/05/17:48:16.595798,9572,1751712496,595196305,,1.3700001239776611,1.4063771963119507,119,0.0,24.649999618530273,0.09268784523010254
2025/07/05/17:48:16.675023,9573,1751712496,674482139,,1.3700001239776611,1.4210726022720337,118,0.0,24.670000076293945,0.09605305641889572
2025/07/05/17:48:16.774320,9574,1751712496,773560978,,1.3700001239776611,1.4387308359146118,115,0.0,24.670000076293945,0.0700143426656723
2025/07/05/17:48:16.854309,9575,1751712496,853596774,,1.3630000352859497,1.4594647884368896,114,0.0,24.68000030517578,0.06018824502825737
2025/07/05/17:48:16.974444,9576,1751712496,973575735,,1.3630000352859497,1.4800723791122437,112,0.0,24.68000030517578,0.07490099966526031
2025/07/05/17:48:17.075527,9577,1751712497,74458696,,1.437000036239624,1.479434609413147,112,0.0,24.689998626708984,0.0966540277004242
2025/07/05/17:48:17.174649,9578,1751712497,173890411,,1.437000036239624,1.4735682010650635,113,0.0,24.689998626708984,0.08744797110557556
2025/07/05/17:48:17.254115,9579,1751712497,253328550,,1.377000093460083,1.4714255332946777,115,0.0,24.689998626708984,0.06516292691230774
2025/07/05/17:48:17.334205,9580,1751712497,333412248,,1.377000093460083,1.4629429578781128,117,0.0,24.689998626708984,0.047002844512462616
2025/07/05/17:48:17.495655,9581,1751712497,495033430,,1.5410001277923584,1.4527864456176758,121,0.0,24.68000030517578,0.039837710559368134
2025/07/05/17:48:17.596180,9582,1751712497,595432136,,1.4840000867843628,1.4383491277694702,123,0.0,24.68000030517578,0.07488887012004852
2025/07/05/17:48:17.674626,9583,1751712497,673904561,,1.4840000867843628,1.4342774152755737,122,0.0,24.68000030517578,0.09084190428256989
2025/07/05/17:48:17.754151,9584,1751712497,753314453,,1.4840000867843628,1.4144361019134521,121,0.0,24.68000030517578,0.08807770907878876
2025/07/05/17:48:17.854948,9585,1751712497,854314958,,1.3720000982284546,1.4313017129898071,119,0.0,24.68000030517578,0.07801156491041183
2025/07/05/17:48:17.974068,9586,1751712497,973426481,,1.3720000982284546,1.4309313297271729,116,0.0,24.68000030517578,0.05032188445329666
2025/07/05/17:48:18.054111,9587,1751712498,53463442,,1.5190000534057617,1.4429960250854492,113,0.0,24.68000030517578,0.0528879277408123
2025/07/05/17:48:18.173647,9588,1751712498,173041466,,1.5190000534057617,1.4380390644073486,110,0.0,24.68000030517578,0.06213930994272232
2025/07/05/17:48:18.254141,9589,1751712498,253447859,,1.4760000705718994,1.4284154176712036,108,0.0,24.68000030517578,0.06262040138244629
2025/07/05/17:48:18.354233,9590,1751712498,353497259,,1.4760000705718994,1.438414454460144,106,0.0,24.670000076293945,0.053682178258895874
2025/07/05/17:48:18.534111,9591,1751712498,533247445,,1.4190000295639038,1.418117880821228,103,0.0,24.65999984741211,0.05524379760026932
2025/07/05/17:48:18.634586,9592,1751712498,633498476,,1.4900001287460327,1.413961410522461,103,0.0,24.649999618530273,0.08684645593166351
2025/07/05/17:48:18.734159,9593,1751712498,733277104,,1.4900001287460327,1.403425931930542,104,0.0,24.649999618530273,0.09500052034854889
2025/07/05/17:48:18.834398,9594,1751712498,833535458,,1.558000087738037,1.4161592721939087,106,0.0,24.649999618530273,0.05382588878273964
2025/07/05/17:48:18.934097,9595,1751712498,933316205,,1.558000087738037,1.43002450466156,109,0.0,24.639999389648438,0.0179517213255167
2025/07/05/17:48:19.034160,9596,1751712499,33233650,,1.4570000171661377,1.426756501197815,111,0.0,24.6299991607666,0.013584943488240242
2025/07/05/17:48:19.135077,9597,1751712499,134328540,,1.4570000171661377,1.4500861167907715,111,0.0,24.619998931884766,0.04691491276025772
2025/07/05/17:48:19.234075,9598,1751712499,233352585,,1.4280000925064087,1.4521880149841309,110,0.0,24.619998931884766,0.0633133202791214
2025/07/05/17:48:19.334322,9599,1751712499,333554090,,1.4280000925064087,1.4513442516326904,108,0.0,24.619998931884766,0.04528950899839401
2025/07/05/17:48:19.454166,9600,1751712499,453481792,,1.3980001211166382,1.470859169960022,105,0.0,24.619998931884766,0.02821696549654007
2025/07/05/17:48:19.595639,9601,1751712499,595074783,,1.6010000705718994,1.4651315212249756,101,0.0,24.619998931884766,0.029745545238256454
2025/07/05/17:48:19.674426,9602,1751712499,673762782,,1.6010000705718994,1.477889060974121,100,0.0,24.60999870300293,0.04449953883886337
2025/07/05/17:48:19.774110,9603,1751712499,773523332,,1.6010000705718994,1.4672472476959229,100,0.0,24.60999870300293,0.0630015879869461
2025/07/05/17:48:19.854038,9604,1751712499,853359481,,1.4470000267028809,1.4699684381484985,100,0.0,24.60999870300293,0.06633959710597992
2025/07/05/17:48:19.974426,9605,1751712499,973605753,,1.4470000267028809,1.4592688083648682,103,0.0,24.600000381469727,0.038988664746284485
2025/07/05/17:48:20.054204,9606,1751712500,53594498,,1.5320000648498535,1.4756569862365723,105,0.0,24.600000381469727,0.01085982471704483
2025/07/05/17:48:20.154234,9607,1751712500,153410786,,1.5320000648498535,1.4752305746078491,107,0.0,24.59000015258789,-0.008225924335420132
2025/07/05/17:48:20.273699,9608,1751712500,273308112,,1.4270000457763672,1.4768476486206055,109,0.0,24.579999923706055,0.01080263964831829
2025/07/05/17:48:20.354141,9609,1751712500,353361418,,1.4270000457763672,1.4892668724060059,108,0.0,24.56999969482422,0.04453309625387192
2025/07/05/17:48:20.554156,9610,1751712500,553513371,,1.3420000076293945,1.499508261680603,104,0.0,24.559999465942383,0.02378062903881073
2025/07/05/17:48:20.633883,9611,1751712500,633329749,,1.5480000972747803,1.4899942874908447,102,0.0,24.549999237060547,-0.0002614972472656518
2025/07/05/17:48:20.734100,9612,1751712500,733170075,,1.5480000972747803,1.4781286716461182,99,0.0,24.549999237060547,-0.009133217856287956
2025/07/05/17:48:20.834085,9613,1751712500,833386007,,1.4820001125335693,1.4955285787582397,96,0.0,24.53999900817871,0.006785429082810879
2025/07/05/17:48:20.935146,9614,1751712500,934299433,,1.4820001125335693,1.4805214405059814,94,0.0,24.53999900817871,0.009772761724889278
2025/07/05/17:48:21.034685,9615,1751712501,33359143,,1.4690001010894775,1.4757001399993896,92,0.0,24.53999900817871,0.01567058078944683
2025/07/05/17:48:21.134497,9616,1751712501,133405139,,1.4690001010894775,1.472351312637329,90,0.0,24.549999237060547,0.017997795715928078
2025/07/05/17:48:21.233906,9617,1751712501,233120692,,1.3270000219345093,1.4537678956985474,87,0.0,24.549999237060547,0.009727575816214085
2025/07/05/17:48:21.334150,9618,1751712501,333298015,,1.3270000219345093,1.4507701396942139,85,0.0,24.549999237060547,0.010303705930709839
2025/07/05/17:48:21.495888,9619,1751712501,495306453,,1.5000001192092896,1.4309477806091309,81,0.0,24.559999465942383,0.011452430859208107
2025/07/05/17:48:21.617800,9620,1751712501,616951465,,1.531000018119812,1.4063701629638672,78,0.0,24.559999465942383,0.02530834451317787
2025/07/05/17:48:21.695085,9621,1751712501,694377717,,1.531000018119812,1.4029916524887085,77,0.0,24.549999237060547,0.015164081938564777
2025/07/05/17:48:21.795662,9622,1751712501,795056020,,1.2930001020431519,1.3998786211013794,75,0.0,24.549999237060547,0.024288395419716835
2025/07/05/17:48:21.894764,9623,1751712501,894317635,,1.2930001020431519,1.3982131481170654,73,0.0,24.549999237060547,0.023521991446614265
2025/07/05/17:48:21.995686,9624,1751712501,995215127,,1.2990000247955322,1.386432409286499,71,0.0,24.549999237060547,0.025399448350071907
2025/07/05/17:48:22.074209,9625,1751712502,74047583,,1.2990000247955322,1.3668429851531982,69,0.0,24.549999237060547,0.01580088585615158
2025/07/05/17:48:22.153897,9626,1751712502,152998941,,1.2990000247955322,1.379858374595642,67,0.0,24.549999237060547,0.022134585306048393
2025/07/05/17:48:22.233887,9627,1751712502,233094338,,1.3630000352859497,1.3690317869186401,66,0.0,24.53999900817871,0.024476615712046623
2025/07/05/17:48:22.333666,9628,1751712502,333193925,,1.3630000352859497,1.3635227680206299,64,0.0,24.53999900817871,0.020154468715190887
2025/07/05/17:48:22.514817,9629,1751712502,514262539,,1.4350000619888306,1.3559526205062866,60,0.0,24.529998779296875,0.015113525092601776
2025/07/05/17:48:22.617547,9630,1751712502,616968639,,1.340000033378601,1.357486367225647,58,0.0,24.529998779296875,0.014778131619095802
2025/07/05/17:48:22.715075,9631,1751712502,714389089,,1.340000033378601,1.3596062660217285,55,0.0,24.51999855041504,0.016220688819885254
2025/07/05/17:48:22.817468,9632,1751712502,816913501,,1.374000072479248,1.3463701009750366,53,0.0,24.51999855041504,0.0134945223107934
2025/07/05/17:48:22.914832,9633,1751712502,914006670,,1.374000072479248,1.3460153341293335,51,0.0,24.51999855041504,0.01512193214148283
2025/07/05/17:48:22.996023,9634,1751712502,994944631,,1.3990000486373901,1.3425039052963257,50,0.0,24.51999855041504,0.015342536382377148
2025/07/05/17:48:23.074330,9635,1751712503,73616572,,1.3990000486373901,1.3483343124389648,48,0.0,24.51999855041504,0.01661360263824463
2025/07/05/17:48:23.173962,9636,1751712503,173504823,,1.3990000486373901,1.3399933576583862,46,0.0,24.51999855041504,0.011976800858974457
2025/07/05/17:48:23.254152,9637,1751712503,253429881,,1.3370000123977661,1.335866928100586,44,0.0,24.510000228881836,0.01256764680147171
2025/07/05/17:48:23.333869,9638,1751712503,333238511,,1.3370000123977661,1.3393386602401733,43,0.0,24.510000228881836,0.011449487879872322
2025/07/05/17:48:23.514839,9639,1751712503,514082171,,1.3610000610351562,1.323464274406433,39,0.0,24.5,0.008876508101820946
2025/07/05/17:48:23.617793,9640,1751712503,616825448,,1.2750000953674316,1.3221052885055542,37,0.0,24.489999771118164,0.005384332500398159
2025/07/05/17:48:23.694753,9641,1751712503,694306666,,1.2750000953674316,1.3107928037643433,35,0.0,24.489999771118164,-0.0005883198464289308
2025/07/05/17:48:23.795688,9642,1751712503,795041329,,1.3870000839233398,1.3153406381607056,33,0.0,24.479999542236328,0.004337914288043976
2025/07/05/17:48:23.874316,9643,1751712503,873696435,,1.3870000839233398,1.3076856136322021,31,0.0,24.479999542236328,5.626640631817281e-05
2025/07/05/17:48:23.995838,9644,1751712503,995094893,,1.252000093460083,1.3053346872329712,29,0.0,24.469999313354492,0.002302507171407342
2025/07/05/17:48:24.074203,9645,1751712504,73481467,,1.252000093460083,1.2969350814819336,27,0.0,24.469999313354492,0.0017575290985405445
2025/07/05/17:48:24.173864,9646,1751712504,172993103,,1.252000093460083,1.288985252380371,25,0.0,24.469999313354492,-0.0011851475574076176
2025/07/05/17:48:24.233857,9647,1751712504,233235942,,1.3670001029968262,1.282622218132019,24,0.0,24.469999313354492,-0.0031129310373216867
2025/07/05/17:48:24.334147,9648,1751712504,333340305,,1.3670001029968262,1.2884316444396973,22,0.0,24.469999313354492,-0.000618527177721262
2025/07/05/17:48:24.495091,9649,1751712504,494332647,,1.2360000610351562,1.2691168785095215,18,0.0,24.459999084472656,-0.0002851828176062554
2025/07/05/17:48:24.634414,9650,1751712504,633244146,,1.3380000591278076,1.2593600749969482,15,0.0,24.459999084472656,0.0038260885048657656
2025/07/05/17:48:24.734101,9651,1751712504,733025235,,1.3380000591278076,1.2581294775009155,13,0.0,24.459999084472656,0.0008916479418985546
2025/07/05/17:48:24.833829,9652,1751712504,832998510,,1.2940000295639038,1.2598119974136353,11,0.0,24.459999084472656,0.008287482894957066
2025/07/05/17:48:24.933727,9653,1751712504,933007305,,1.2940000295639038,1.2309356927871704,11,0.0,24.459999084472656,0.019002337008714676
2025/07/05/17:48:25.033842,9654,1751712505,33182505,,1.2670000791549683,1.2241696119308472,11,0.0,24.469999313354492,0.03993583470582962
2025/07/05/17:48:25.133790,9655,1751712505,133200814,,1.2670000791549683,1.2368934154510498,13,0.0,24.469999313354492,0.03560866788029671
2025/07/05/17:48:25.233622,9656,1751712505,233045896,,1.2710000276565552,1.260495662689209,15,0.0,24.469999313354492,-0.0018001231364905834
2025/07/05/17:48:25.334009,9657,1751712505,333529343,,1.2710000276565552,1.2659305334091187,18,0.0,24.469999313354492,-0.012144170701503754
2025/07/05/17:48:25.454190,9658,1751712505,453281106,,1.3290001153945923,1.2857728004455566,20,0.0,24.459999084472656,-0.01657421886920929
2025/07/05/17:48:25.595024,9659,1751712505,594095128,,1.3290001153945923,1.3081388473510742,21,0.0,24.459999084472656,0.020268183201551437
2025/07/05/17:48:25.674147,9660,1751712505,673526077,,1.3440001010894775,1.3130040168762207,20,0.0,24.459999084472656,0.014801698736846447
2025/07/05/17:48:25.773886,9661,1751712505,773050880,,1.3440001010894775,1.3307995796203613,18,0.0,24.459999084472656,0.006721745245158672
2025/07/05/17:48:25.853691,9662,1751712505,853194205,,1.3240001201629639,1.3364635705947876,16,0.0,24.459999084472656,-0.0062600187957286835
2025/07/05/17:48:25.974279,9663,1751712505,973706516,,1.3240001201629639,1.3457231521606445,12,0.0,24.44999885559082,-0.011484581045806408
2025/07/05/17:48:26.053810,9664,1751712506,53240355,,1.4660000801086426,1.352023720741272,10,0.0,24.44999885559082,-0.010926787741482258
2025/07/05/17:48:26.153696,9665,1751712506,152897284,,1.4660000801086426,1.3372012376785278,8,0.0,24.44999885559082,0.00995286088436842
2025/07/05/17:48:26.233704,9666,1751712506,232820961,,1.3940000534057617,1.309627890586853,8,0.0,24.44999885559082,0.028506461530923843
2025/07/05/17:48:26.333618,9667,1751712506,333065431,,1.3940000534057617,1.3133856058120728,9,0.0,24.44999885559082,0.028971649706363678
2025/07/05/17:48:26.473881,9668,1751712506,473400654,,1.50600004196167,1.3252277374267578,12,0.0,24.44999885559082,-0.014143210835754871
2025/07/05/17:48:26.594618,9669,1751712506,594148733,,1.50600004196167,1.3551701307296753,15,0.0,24.439998626708984,-0.0439203605055809
2025/07/05/17:48:26.674663,9670,1751712506,673874592,,1.3840000629425049,1.366875410079956,16,0.0,24.439998626708984,-0.011848408728837967
2025/07/05/17:48:26.753721,9671,1751712506,752892027,,1.3840000629425049,1.384647011756897,16,0.0,24.43000030517578,0.006176549941301346
2025/07/05/17:48:26.854139,9672,1751712506,853044173,,1.3650000095367432,1.3827015161514282,14,0.0,24.439998626708984,0.019341863691806793
2025/07/05/17:48:26.933684,9673,1751712506,932875323,,1.3650000095367432,1.3877973556518555,12,0.0,24.439998626708984,0.010221336968243122
2025/07/05/17:48:27.037107,9674,1751712507,36386303,,1.440000057220459,1.3796002864837646,10,0.0,24.439998626708984,-0.024425983428955078
2025/07/05/17:48:27.114124,9675,1751712507,113532788,,1.440000057220459,1.385840892791748,8,0.0,24.439998626708984,-0.02255650795996189
2025/07/05/17:48:27.215112,9676,1751712507,214182110,,1.4490001201629639,1.385298490524292,7,0.0,24.439998626708984,0.02109786681830883
2025/07/05/17:48:27.294520,9677,1751712507,294172596,,1.4490001201629639,1.3634008169174194,7,0.0,24.44999885559082,0.03971719369292259
2025/07/05/17:48:27.436789,9678,1751712507,436103489,,1.4180001020431519,1.3651312589645386,10,0.0,24.44999885559082,0.010398631915450096
2025/07/05/17:48:27.574179,9679,1751712507,573563528,,1.4180001020431519,1.394467830657959,14,0.0,24.439998626708984,-0.039573218673467636
2025/07/05/17:48:27.653666,9680,1751712507,653056763,,1.4190000295639038,1.4085607528686523,16,0.0,24.439998626708984,-0.0381086990237236
2025/07/05/17:48:27.773574,9681,1751712507,772784224,,1.4190000295639038,1.4042857885360718,16,0.0,24.43000030517578,0.01646468974649906
2025/07/05/17:48:27.854104,9682,1751712507,853297302,,1.468000054359436,1.4194753170013428,15,0.0,24.43000030517578,0.034440405666828156
2025/07/05/17:48:27.994035,9683,1751712507,993537928,,1.468000054359436,1.4327408075332642,12,0.0,24.439998626708984,0.013841408304870129
2025/07/05/17:48:28.074352,9684,1751712508,73604814,,1.4450000524520874,1.430315375328064,9,0.0,24.439998626708984,-0.014852362684905529
2025/07/05/17:48:28.195440,9685,1751712508,194595129,,1.4900001287460327,1.435128092765808,6,0.0,24.439998626708984,-0.01021850947290659
2025/07/05/17:48:28.254502,9686,1751712508,253791170,,1.4900001287460327,1.4193015098571777,6,0.0,24.439998626708984,0.012919283472001553
2025/07/05/17:48:28.354203,9687,1751712508,353526616,,1.4900001287460327,1.4121990203857422,6,0.0,24.44999885559082,0.040402039885520935
2025/07/05/17:48:28.534078,9688,1751712508,532804097,,1.465000033378601,1.4238299131393433,9,0.0,24.44999885559082,0.0032007915433496237
2025/07/05/17:48:28.617792,9689,1751712508,616534259,,1.465000033378601,1.4283026456832886,11,0.0,24.44999885559082,-0.022682828828692436
2025/07/05/17:48:28.716338,9690,1751712508,714147524,,1.465000033378601,1.4611799716949463,13,0.0,24.44999885559082,-0.022809429094195366
2025/07/05/17:48:28.836530,9691,1751712508,835974502,,1.4230000972747803,1.4707129001617432,13,0.0,24.44999885559082,0.03035731427371502
2025/07/05/17:48:28.954143,9692,1751712508,953608911,,1.4230000972747803,1.483569860458374,11,0.0,24.439998626708984,0.03277133032679558
2025/07/05/17:48:29.053968,9693,1751712509,53312046,,1.467000126838684,1.4806500673294067,9,0.0,24.439998626708984,0.007145041599869728
2025/07/05/17:48:29.153849,9694,1751712509,153043664,,1.467000126838684,1.4753663539886475,6,0.0,24.439998626708984,-0.014019731432199478
2025/07/05/17:48:29.275049,9695,1751712509,274448230,,1.5770000219345093,1.4722850322723389,4,0.0,24.439998626708984,0.00542874401435256
2025/07/05/17:48:29.354239,9696,1751712509,353604687,,1.5770000219345093,1.4708030223846436,4,0.0,24.439998626708984,0.03847739100456238
2025/07/05/17:48:29.554059,9697,1751712509,553780251,,1.5560001134872437,1.461783528327942,8,0.0,24.439998626708984,0.005671984050422907
2025/07/05/17:48:29.635868,9698,1751712509,635453936,,1.4500000476837158,1.4815752506256104,10,0.0,24.43000030517578,-0.01589711755514145
2025/07/05/17:48:29.733564,9699,1751712509,732823075,,1.4500000476837158,1.4809715747833252,12,0.0,24.420000076293945,-0.027476729825139046
2025/07/05/17:48:29.836764,9700,1751712509,836137297,,1.4450000524520874,1.5158435106277466,14,0.0,24.40999984741211,-0.011660026386380196
2025/07/05/17:48:29.934841,9701,1751712509,932791497,,1.4450000524520874,1.5215927362442017,14,0.0,24.40999984741211,0.02629972994327545
2025/07/05/17:48:30.014302,9702,1751712510,13756418,,1.3550000190734863,1.5106409788131714,13,0.0,24.399999618530273,0.019814999774098396
2025/07/05/17:48:30.095361,9703,1751712510,94360046,,1.3550000190734863,1.5168256759643555,11,0.0,24.399999618530273,0.015458119101822376
2025/07/05/17:48:30.173950,9704,1751712510,173383129,,1.3550000190734863,1.5170879364013672,9,0.0,24.399999618530273,-0.008144179359078407
2025/07/05/17:48:30.254885,9705,1751712510,254084772,,1.4420000314712524,1.5227186679840088,7,0.0,24.389999389648438,-0.015947338193655014
2025/07/05/17:48:30.353598,9706,1751712510,352985203,,1.4420000314712524,1.5120465755462646,5,0.0,24.389999389648438,-0.004616712685674429
2025/07/05/17:48:30.533852,9707,1751712510,532894067,,1.4520000219345093,1.4860014915466309,6,0.0,24.3799991607666,0.02409815788269043
2025/07/05/17:48:30.635897,9708,1751712510,635575394,,1.4910000562667847,1.4745758771896362,8,0.0,24.369998931884766,-0.005912409629672766
2025/07/05/17:48:30.715058,9709,1751712510,714462913,,1.4910000562667847,1.4810667037963867,10,0.0,24.369998931884766,-0.03025072067975998
2025/07/05/17:48:30.817508,9710,1751712510,816747727,,1.4630000591278076,1.4862124919891357,13,0.0,24.35999870300293,-0.043254926800727844
2025/07/05/17:48:30.895250,9711,1751712510,894491821,,1.4630000591278076,1.5023460388183594,14,0.0,24.35999870300293,-0.024348458275198936
2025/07/05/17:48:30.995653,9712,1751712510,994934855,,1.4130001068115234,1.5162105560302734,14,0.0,24.35999870300293,0.006822091992944479
2025/07/05/17:48:31.074332,9713,1751712511,73660457,,1.4130001068115234,1.5000351667404175,13,0.0,24.35999870300293,0.006627438589930534
2025/07/05/17:48:31.174182,9714,1751712511,173433926,,1.4130001068115234,1.496824026107788,11,0.0,24.35999870300293,-0.0002928595640696585
2025/07/05/17:48:31.254538,9715,1751712511,254006834,,1.3970000743865967,1.5091118812561035,9,0.0,24.35999870300293,-0.016705164685845375
2025/07/05/17:48:31.395547,9716,1751712511,394601410,,1.4420000314712524,1.51387357711792,5,0.0,24.35999870300293,-0.028516024351119995
2025/07/05/17:48:31.553758,9717,1751712511,553021641,,1.4420000314712524,1.4998655319213867,1,0.0,24.35999870300293,-0.017748868092894554
2025/07/05/17:48:31.654138,9718,1751712511,653573220,,1.4190000295639038,1.4840357303619385,359,0.0,24.35999870300293,-0.013317949138581753
2025/07/05/17:48:31.753703,9719,1751712511,752713347,,1.4190000295639038,1.4761607646942139,357,0.0,24.35999870300293,-0.010972696356475353
2025/07/05/17:48:31.853561,9720,1751712511,852932634,,1.4570000171661377,1.4696969985961914,354,0.0,24.35999870300293,-0.0113769406452775
2025/07/05/17:48:31.973998,9721,1751712511,973387841,,1.4570000171661377,1.4390658140182495,352,0.0,24.35999870300293,-0.016594963148236275
2025/07/05/17:48:32.054482,9722,1751712512,53790550,,1.380000114440918,1.429119348526001,350,0.0,24.35999870300293,-0.01783822849392891
2025/07/05/17:48:32.154087,9723,1751712512,153210585,,1.380000114440918,1.4170681238174438,347,0.0,24.35999870300293,-0.02167569100856781
2025/07/05/17:48:32.233235,9724,1751712512,232687810,,1.4130001068115234,1.3942463397979736,345,0.0,24.35999870300293,-0.02359587326645851
2025/07/05/17:48:32.333367,9725,1751712512,333220663,,1.4130001068115234,1.3778133392333984,343,0.0,24.35999870300293,-0.014621764421463013
2025/07/05/17:48:32.514396,9726,1751712512,513751154,,1.3930000066757202,1.3678876161575317,340,0.0,24.35999870300293,-0.012927014380693436
2025/07/05/17:48:32.617313,9727,1751712512,616265541,,1.312000036239624,1.3569282293319702,338,0.0,24.35999870300293,-0.015585783869028091
2025/07/05/17:48:32.695404,9728,1751712512,694210295,,1.312000036239624,1.3511933088302612,336,0.0,24.35999870300293,-0.01791725866496563
2025/07/05/17:48:32.795614,9729,1751712512,794843428,,1.3250000476837158,1.3572752475738525,334,0.0,24.35999870300293,-0.016564996913075447
2025/07/05/17:48:32.873932,9730,1751712512,873288541,,1.3250000476837158,1.3436287641525269,333,0.0,24.35999870300293,-0.018835250288248062
2025/07/05/17:48:32.973745,9731,1751712512,973037233,,1.3250000476837158,1.3446729183197021,331,0.0,24.35999870300293,-0.018590521067380905
2025/07/05/17:48:33.055640,9732,1751712513,54037188,,1.502000093460083,1.342280387878418,329,0.0,24.35999870300293,-0.01836329884827137
2025/07/05/17:48:33.174927,9733,1751712513,173521862,,1.502000093460083,1.3358701467514038,326,0.0,24.35999870300293,-0.018451403826475143
2025/07/05/17:48:33.254166,9734,1751712513,253579256,,1.2820000648498535,1.3276761770248413,325,0.0,24.35999870300293,-0.01722147688269615
2025/07/05/17:48:33.353785,9735,1751712513,352885835,,1.2820000648498535,1.319482445716858,322,0.0,24.369998931884766,-0.01756429299712181
2025/07/05/17:48:33.533484,9736,1751712513,532870107,,1.2740000486373901,1.309368371963501,319,0.0,24.369998931884766,-0.017123961821198463
2025/07/05/17:48:33.635660,9737,1751712513,635491952,,1.3340001106262207,1.3090901374816895,317,0.0,24.369998931884766,-0.01212358009070158
2025/07/05/17:48:33.734183,9738,1751712513,733524441,,1.3340001106262207,1.3008772134780884,314,0.0,24.369998931884766,-0.013193847611546516
2025/07/05/17:48:33.833601,9739,1751712513,832893950,,1.3230000734329224,1.3029491901397705,312,0.0,24.3799991607666,-0.01212086621671915
2025/07/05/17:48:33.953862,9740,1751712513,952851990,,1.3230000734329224,1.296449899673462,310,0.0,24.3799991607666,-0.00942208431661129
2025/07/05/17:48:34.053635,9741,1751712514,52981713,,1.311000108718872,1.2976500988006592,308,0.0,24.389999389648438,-0.008538632653653622
2025/07/05/17:48:34.154106,9742,1751712514,153464554,,1.311000108718872,1.2909226417541504,306,0.0,24.389999389648438,-0.00893030408769846
2025/07/05/17:48:34.253569,9743,1751712514,252936277,,1.321000099182129,1.2891291379928589,304,0.0,24.399999618530273,-0.011088207364082336
2025/07/05/17:48:34.394562,9744,1751712514,393749061,,1.321000099182129,1.2904937267303467,301,0.0,24.399999618530273,-0.005450950004160404
2025/07/05/17:48:34.575060,9745,1751712514,573378393,,1.3690000772476196,1.289270281791687,297,0.0,24.40999984741211,-0.0010835954453796148
2025/07/05/17:48:34.653695,9746,1751712514,652942941,,1.3030000925064087,1.2930545806884766,295,0.0,24.420000076293945,0.0017262178007513285
2025/07/05/17:48:34.753616,9747,1751712514,752930606,,1.3030000925064087,1.2920265197753906,293,0.0,24.43000030517578,0.004796294029802084
2025/07/05/17:48:34.832991,9748,1751712514,832577691,,1.2940000295639038,1.289792776107788,292,0.0,24.439998626708984,0.00832661334425211
2025/07/05/17:48:34.974867,9749,1751712514,973985533,,1.2940000295639038,1.2899017333984375,289,0.0,24.44999885559082,0.01238142792135477
2025/07/05/17:48:35.053789,9750,1751712515,52750528,,1.3050000667572021,1.2915444374084473,287,0.0,24.459999084472656,0.01575266756117344
2025/07/05/17:48:35.153734,9751,1751712515,152829171,,1.3050000667572021,1.2871230840682983,286,0.0,24.469999313354492,0.027809517458081245
2025/07/05/17:48:35.253436,9752,1751712515,252604543,,1.3050000667572021,1.2932665348052979,286,0.0,24.479999542236328,0.02503879927098751
2025/07/05/17:48:35.353465,9753,1751712515,352634620,,1.3050000667572021,1.3131955862045288,285,0.0,24.489999771118164,0.024689046666026115
2025/07/05/17:48:35.574519,9754,1751712515,573406839,,1.4550000429153442,1.3612077236175537,286,0.0,24.510000228881836,0.026127057150006294
2025/07/05/17:48:35.653795,9755,1751712515,652707963,,1.3860000371932983,1.379801630973816,286,0.0,24.510000228881836,0.02767469733953476
2025/07/05/17:48:35.753505,9756,1751712515,752884245,,1.3860000371932983,1.3967978954315186,286,0.0,24.51999855041504,0.02239343896508217
2025/07/05/17:48:35.853463,9757,1751712515,852804718,,1.340000033378601,1.4148920774459839,286,0.0,24.529998779296875,0.026360200718045235
2025/07/05/17:48:35.973688,9758,1751712515,972984956,,1.340000033378601,1.4328792095184326,284,0.0,24.529998779296875,0.027021007612347603
2025/07/05/17:48:36.094419,9759,1751712516,93780850,,1.3730000257492065,1.4393376111984253,282,0.0,24.53999900817871,0.027538111433386803
2025/07/05/17:48:36.194639,9760,1751712516,193895555,,1.3730000257492065,1.4421013593673706,280,0.0,24.549999237060547,0.022757962346076965
2025/07/05/17:48:36.294358,9761,1751712516,293540372,,1.4280000925064087,1.437853455543518,277,0.0,24.549999237060547,0.022715818136930466
2025/07/05/17:48:36.373461,9762,1751712516,372686426,,1.4280000925064087,1.4359914064407349,276,0.0,24.559999465942383,0.028752028942108154
2025/07/05/17:48:36.573148,9763,1751712516,572617297,,1.496000051498413,1.4101412296295166,275,0.0,24.56999969482422,0.0646170824766159
2025/07/05/17:48:36.654781,9764,1751712516,652872953,,1.4950001239776611,1.3995119333267212,276,0.0,24.579999923706055,0.08830854296684265
2025/07/05/17:48:36.774998,9765,1751712516,774290901,,1.4950001239776611,1.420508861541748,278,0.0,24.59000015258789,0.05888871103525162
2025/07/05/17:48:36.853810,9766,1751712516,852831821,,1.3960000276565552,1.428943157196045,281,0.0,24.579999923706055,0.02484411932528019
2025/07/05/17:48:36.994555,9767,1751712516,994042942,,1.3960000276565552,1.4424996376037598,285,0.0,24.579999923706055,0.0060520232655107975
2025/07/05/17:48:37.074092,9768,1751712517,73661551,,1.3670001029968262,1.4546419382095337,286,0.0,24.56999969482422,0.015532011166214943
2025/07/05/17:48:37.173842,9769,1751712517,173299554,,1.3670001029968262,1.4376105070114136,286,0.0,24.56999969482422,0.0554409958422184
2025/07/05/17:48:37.255412,9770,1751712517,252628388,,1.3560000658035278,1.437270164489746,285,0.0,24.56999969482422,0.0585506409406662
2025/07/05/17:48:37.353315,9771,1751712517,352621941,,1.3560000658035278,1.4266597032546997,283,0.0,24.579999923706055,0.048738744109869
2025/07/05/17:48:37.533651,9772,1751712517,532651643,,1.4660000801086426,1.4487388134002686,278,0.0,24.56999969482422,0.016845067963004112
2025/07/05/17:48:37.636356,9773,1751712517,635519004,,1.3850001096725464,1.450339436531067,276,0.0,24.56999969482422,0.015508878976106644
2025/07/05/17:48:37.732789,9774,1751712517,732479455,,1.3850001096725464,1.4552770853042603,273,0.0,24.559999465942383,0.02684638649225235
2025/07/05/17:48:37.836214,9775,1751712517,835623889,,1.4610000848770142,1.4540858268737793,271,0.0,24.549999237060547,0.028549479320645332
2025/07/05/17:48:37.974915,9776,1751712517,974100875,,1.4610000848770142,1.4325507879257202,268,0.0,24.53999900817871,0.020515024662017822
2025/07/05/17:48:38.053480,9777,1751712518,52445510,,1.4700000286102295,1.4365003108978271,267,0.0,24.53999900817871,0.016449246555566788
2025/07/05/17:48:38.153364,9778,1751712518,152797525,,1.4700000286102295,1.3866935968399048,265,0.0,24.53999900817871,0.030509639531373978
2025/07/05/17:48:38.253142,9779,1751712518,252582645,,1.4500000476837158,1.3703230619430542,266,0.0,24.53999900817871,0.050084590911865234
2025/07/05/17:48:38.353654,9780,1751712518,352645042,,1.4500000476837158,1.3786758184432983,267,0.0,24.53999900817871,0.05490577965974808
2025/07/05/17:48:38.574536,9781,1751712518,573231896,,1.2890000343322754,1.387404441833496,273,0.0,24.53999900817871,-0.02314327284693718
2025/07/05/17:48:38.653319,9782,1751712518,652500014,,1.2990000247955322,1.398768424987793,276,0.0,24.529998779296875,-0.02447795495390892
2025/07/05/17:48:38.754320,9783,1751712518,753561200,,1.2990000247955322,1.4071483612060547,278,0.0,24.529998779296875,-0.010811573825776577
2025/07/05/17:48:38.853271,9784,1751712518,852687427,,1.3880000114440918,1.4020110368728638,278,0.0,24.529998779296875,0.035595446825027466
2025/07/05/17:48:38.994553,9785,1751712518,993996840,,1.5380001068115234,1.3991718292236328,276,0.0,24.53999900817871,0.021755168214440346
2025/07/05/17:48:39.054506,9786,1751712519,52556275,,1.5380001068115234,1.4032163619995117,274,0.0,24.53999900817871,0.014795688912272453
2025/07/05/17:48:39.175342,9787,1751712519,174124086,,1.5380001068115234,1.4059609174728394,271,0.0,24.53999900817871,-0.011181884445250034
2025/07/05/17:48:39.253395,9788,1751712519,252757497,,1.6190000772476196,1.4204877614974976,269,0.0,24.53999900817871,-0.010591110214591026
2025/07/05/17:48:39.353241,9789,1751712519,352641691,,1.6190000772476196,1.42361319065094,269,0.0,24.53999900817871,0.02459532767534256
2025/07/05/17:48:39.533633,9790,1751712519,532467308,,1.3720000982284546,1.4272381067276,271,0.0,24.53999900817871,0.02715054154396057
2025/07/05/17:48:39.635586,9791,1751712519,635313347,,1.4260001182556152,1.424797773361206,273,0.0,24.53999900817871,-0.004793677479028702
2025/07/05/17:48:39.733813,9792,1751712519,732525837,,1.4260001182556152,1.4313966035842896,276,0.0,24.53999900817871,-0.03249647840857506
2025/07/05/17:48:39.836116,9793,1751712519,835462206,,1.5040000677108765,1.4445412158966064,278,0.0,24.529998779296875,-0.025344112887978554
2025/07/05/17:48:39.933467,9794,1751712519,932667569,,1.5040000677108765,1.4302500486373901,279,0.0,24.529998779296875,0.013237287290394306
2025/07/05/17:48:40.036276,9795,1751712520,35496263,,1.4420000314712524,1.4349011182785034,278,0.0,24.529998779296875,0.03132743388414383
2025/07/05/17:48:40.134522,9796,1751712520,133293903,,1.4420000314712524,1.4318021535873413,276,0.0,24.529998779296875,0.0169304758310318
2025/07/05/17:48:40.235482,9797,1751712520,235229124,,1.3870000839233398,1.4421907663345337,274,0.0,24.529998779296875,-0.009219683706760406
2025/07/05/17:48:40.313898,9798,1751712520,313314588,,1.3870000839233398,1.4552857875823975,272,0.0,24.51999855041504,-0.01833682507276535
2025/07/05/17:48:40.453260,9799,1751712520,452564344,,1.474000096321106,1.4522103071212769,270,0.0,24.51999855041504,0.01816348172724247
2025/07/05/17:48:40.573478,9800,1751712520,572814995,,1.474000096321106,1.4474080801010132,271,0.0,24.529998779296875,0.033044639974832535
2025/07/05/17:48:40.654405,9801,1751712520,653780248,,1.533000111579895,1.4468510150909424,273,0.0,24.51999855041504,0.018111800774931908
2025/07/05/17:48:40.753177,9802,1751712520,752539613,,1.533000111579895,1.4459054470062256,276,0.0,24.51999855041504,-0.00920423399657011
2025/07/05/17:48:40.853497,9803,1751712520,852678473,,1.2300000190734863,1.4464777708053589,279,0.0,24.510000228881836,-0.027531305328011513
2025/07/05/17:48:40.994890,9804,1751712520,994223400,,1.3600000143051147,1.4233531951904297,283,0.0,24.5,-0.01484579499810934
2025/07/05/17:48:41.053495,9805,1751712521,53046145,,1.3600000143051147,1.4086835384368896,284,0.0,24.5,-0.008672736585140228
2025/07/05/17:48:41.153419,9806,1751712521,152773936,,1.3600000143051147,1.4060945510864258,286,0.0,24.5,0.007029170170426369
