time,.header.seq,.header.stamp.secs,.header.stamp.nsecs,.header.frame_id,.child_frame_id,.pose.pose.position.x,.pose.pose.position.y,.pose.pose.position.z,.pose.pose.orientation.x,.pose.pose.orientation.y,.pose.pose.orientation.z,.pose.pose.orientation.w,.pose.covariance,.twist.twist.linear.x,.twist.twist.linear.y,.twist.twist.linear.z,.twist.twist.angular.x,.twist.twist.angular.y,.twist.twist.angular.z,.twist.covariance
2025/07/05/17:47:55.655853,9374,1751712475,660147008,map,base_link,-1.314084242774403,4.810798894676856,-3.573,0.06618809411529086,0.01842481451308354,-0.9105145961221028,0.4077288715018199,"(1.846881, 0.0, 0.0, 0.0, 0.0, 0.0, 0.0, 1.846881, 0.0, 0.0, 0.0, 0.0, 0.0, 0.0, 6.0516, 0.0, 0.0, 0.0, 0.0, 0.0, 0.0, 99999.0, 0.0, 0.0, 0.0, 0.0, 0.0, 0.0, 99999.0, 0.0, 0.0, 0.0, 0.0, 0.0, 0.0, 99999.0)",-0.26,-0.28,0.01,0.0,0.0,0.0,"(-1.0, 0.0, 0.0, 0.0, 0.0, 0.0, 0.0, 0.0, 0.0, 0.0, 0.0, 0.0, 0.0, 0.0, 0.0, 0.0, 0.0, 0.0, 0.0, 0.0, 0.0, 0.0, 0.0, 0.0, 0.0, 0.0, 0.0, 0.0, 0.0, 0.0, 0.0, 0.0, 0.0, 0.0, 0.0, 0.0)"
2025/07/05/17:47:55.757519,9375,1751712475,760147008,map,base_link,-1.3361696902909945,4.7776209705684,-3.579,0.06566875218254736,0.01961426291067451,-0.907973633171033,0.41338453907161643,"(1.846881, 0.0, 0.0, 0.0, 0.0, 0.0, 0.0, 1.846881, 0.0, 0.0, 0.0, 0.0, 0.0, 0.0, 6.041764000000001, 0.0, 0.0, 0.0, 0.0, 0.0, 0.0, 99999.0, 0.0, 0.0, 0.0, 0.0, 0.0, 0.0, 99999.0, 0.0, 0.0, 0.0, 0.0, 0.0, 0.0, 99999.0)",-0.26,-0.28,0.01,0.0,0.0,0.0,"(-1.0, 0.0, 0.0, 0.0, 0.0, 0.0, 0.0, 0.0, 0.0, 0.0, 0.0, 0.0, 0.0, 0.0, 0.0, 0.0, 0.0, 0.0, 0.0, 0.0, 0.0, 0.0, 0.0, 0.0, 0.0, 0.0, 0.0, 0.0, 0.0, 0.0, 0.0, 0.0, 0.0, 0.0, 0.0, 0.0)"
2025/07/05/17:47:55.854605,9376,1751712475,860147008,map,base_link,-1.3582551364880429,4.733383731106087,-3.585,0.06522083542692765,0.020469477706613066,-0.905389661227766,0.4190427238963863,"(1.846881, 0.0, 0.0, 0.0, 0.0, 0.0, 0.0, 1.846881, 0.0, 0.0, 0.0, 0.0, 0.0, 0.0, 6.041764000000001, 0.0, 0.0, 0.0, 0.0, 0.0, 0.0, 99999.0, 0.0, 0.0, 0.0, 0.0, 0.0, 0.0, 99999.0, 0.0, 0.0, 0.0, 0.0, 0.0, 0.0, 99999.0)",-0.26,-0.29,0.02,0.0,0.0,0.0,"(-1.0, 0.0, 0.0, 0.0, 0.0, 0.0, 0.0, 0.0, 0.0, 0.0, 0.0, 0.0, 0.0, 0.0, 0.0, 0.0, 0.0, 0.0, 0.0, 0.0, 0.0, 0.0, 0.0, 0.0, 0.0, 0.0, 0.0, 0.0, 0.0, 0.0, 0.0, 0.0, 0.0, 0.0, 0.0, 0.0)"
2025/07/05/17:47:55.974447,9377,1751712475,980147008,map,base_link,-1.3803405828904345,4.6891464918257855,-3.594,0.06535721729792575,0.02050397361573393,-0.9021510541279575,0.42594776293443815,"(1.8523209999999999, 0.0, 0.0, 0.0, 0.0, 0.0, 0.0, 1.8523209999999999, 0.0, 0.0, 0.0, 0.0, 0.0, 0.0, 6.0516, 0.0, 0.0, 0.0, 0.0, 0.0, 0.0, 99999.0, 0.0, 0.0, 0.0, 0.0, 0.0, 0.0, 99999.0, 0.0, 0.0, 0.0, 0.0, 0.0, 0.0, 99999.0)",-0.26,-0.3,0.02,0.0,0.0,0.0,"(-1.0, 0.0, 0.0, 0.0, 0.0, 0.0, 0.0, 0.0, 0.0, 0.0, 0.0, 0.0, 0.0, 0.0, 0.0, 0.0, 0.0, 0.0, 0.0, 0.0, 0.0, 0.0, 0.0, 0.0, 0.0, 0.0, 0.0, 0.0, 0.0, 0.0, 0.0, 0.0, 0.0, 0.0, 0.0, 0.0)"
2025/07/05/17:47:56.074997,9378,1751712476,80147008,map,base_link,-1.402426028726642,4.64490925271647,-3.602,0.06549524966792329,0.020539493014149535,-0.8991760246426217,0.43217008018319547,"(1.8523209999999999, 0.0, 0.0, 0.0, 0.0, 0.0, 0.0, 1.8523209999999999, 0.0, 0.0, 0.0, 0.0, 0.0, 0.0, 6.0516, 0.0, 0.0, 0.0, 0.0, 0.0, 0.0, 99999.0, 0.0, 0.0, 0.0, 0.0, 0.0, 0.0, 99999.0, 0.0, 0.0, 0.0, 0.0, 0.0, 0.0, 99999.0)",-0.26,-0.31,0.02,0.0,0.0,0.0,"(-1.0, 0.0, 0.0, 0.0, 0.0, 0.0, 0.0, 0.0, 0.0, 0.0, 0.0, 0.0, 0.0, 0.0, 0.0, 0.0, 0.0, 0.0, 0.0, 0.0, 0.0, 0.0, 0.0, 0.0, 0.0, 0.0, 0.0, 0.0, 0.0, 0.0, 0.0, 0.0, 0.0, 0.0, 0.0, 0.0)"
2025/07/05/17:47:56.175018,9379,1751712476,180147008,map,base_link,-1.4134687516381534,4.600672021098029,-3.608,0.065845888920196,0.020464541325102635,-0.8961869461762058,0.4382858416194031,"(1.8604960000000004, 0.0, 0.0, 0.0, 0.0, 0.0, 0.0, 1.8604960000000004, 0.0, 0.0, 0.0, 0.0, 0.0, 0.0, 6.076224999999999, 0.0, 0.0, 0.0, 0.0, 0.0, 0.0, 99999.0, 0.0, 0.0, 0.0, 0.0, 0.0, 0.0, 99999.0, 0.0, 0.0, 0.0, 0.0, 0.0, 0.0, 99999.0)",-0.26,-0.32,0.02,0.0,0.0,0.0,"(-1.0, 0.0, 0.0, 0.0, 0.0, 0.0, 0.0, 0.0, 0.0, 0.0, 0.0, 0.0, 0.0, 0.0, 0.0, 0.0, 0.0, 0.0, 0.0, 0.0, 0.0, 0.0, 0.0, 0.0, 0.0, 0.0, 0.0, 0.0, 0.0, 0.0, 0.0, 0.0, 0.0, 0.0, 0.0, 0.0)"
2025/07/05/17:47:56.274878,9380,1751712476,280147008,map,base_link,-1.435554197611256,4.556434782302512,-3.613,0.06587985145266728,0.02053137861705278,-0.8931567598868487,0.4444201952354143,"(1.8604960000000004, 0.0, 0.0, 0.0, 0.0, 0.0, 0.0, 1.8604960000000004, 0.0, 0.0, 0.0, 0.0, 0.0, 0.0, 6.076224999999999, 0.0, 0.0, 0.0, 0.0, 0.0, 0.0, 99999.0, 0.0, 0.0, 0.0, 0.0, 0.0, 0.0, 99999.0, 0.0, 0.0, 0.0, 0.0, 0.0, 0.0, 99999.0)",-0.25,-0.32,0.03,0.0,0.0,0.0,"(-1.0, 0.0, 0.0, 0.0, 0.0, 0.0, 0.0, 0.0, 0.0, 0.0, 0.0, 0.0, 0.0, 0.0, 0.0, 0.0, 0.0, 0.0, 0.0, 0.0, 0.0, 0.0, 0.0, 0.0, 0.0, 0.0, 0.0, 0.0, 0.0, 0.0, 0.0, 0.0, 0.0, 0.0, 0.0, 0.0)"
2025/07/05/17:47:56.416310,9381,1751712476,422147008,map,base_link,-1.4686823705419265,4.490078934760513,-3.616,0.06588219183696523,0.020648980000770704,-0.8888763651776448,0.45291496315783536,"(1.868689, 0.0, 0.0, 0.0, 0.0, 0.0, 0.0, 1.868689, 0.0, 0.0, 0.0, 0.0, 0.0, 0.0, 6.017208999999999, 0.0, 0.0, 0.0, 0.0, 0.0, 0.0, 99999.0, 0.0, 0.0, 0.0, 0.0, 0.0, 0.0, 99999.0, 0.0, 0.0, 0.0, 0.0, 0.0, 0.0, 99999.0)",-0.26,-0.34,0.03,0.0,0.0,0.0,"(-1.0, 0.0, 0.0, 0.0, 0.0, 0.0, 0.0, 0.0, 0.0, 0.0, 0.0, 0.0, 0.0, 0.0, 0.0, 0.0, 0.0, 0.0, 0.0, 0.0, 0.0, 0.0, 0.0, 0.0, 0.0, 0.0, 0.0, 0.0, 0.0, 0.0, 0.0, 0.0, 0.0, 0.0, 0.0, 0.0)"
2025/07/05/17:47:56.574973,9382,1751712476,580147008,map,base_link,-1.512853262953815,4.401604464378686,-3.621,0.06559489774983118,0.021500234496501548,-0.8839312354841489,0.46249391373427895,"(1.868689, 0.0, 0.0, 0.0, 0.0, 0.0, 0.0, 1.868689, 0.0, 0.0, 0.0, 0.0, 0.0, 0.0, 5.982916000000001, 0.0, 0.0, 0.0, 0.0, 0.0, 0.0, 99999.0, 0.0, 0.0, 0.0, 0.0, 0.0, 0.0, 99999.0, 0.0, 0.0, 0.0, 0.0, 0.0, 0.0, 99999.0)",-0.26,-0.37,0.03,0.0,0.0,0.0,"(-1.0, 0.0, 0.0, 0.0, 0.0, 0.0, 0.0, 0.0, 0.0, 0.0, 0.0, 0.0, 0.0, 0.0, 0.0, 0.0, 0.0, 0.0, 0.0, 0.0, 0.0, 0.0, 0.0, 0.0, 0.0, 0.0, 0.0, 0.0, 0.0, 0.0, 0.0, 0.0, 0.0, 0.0, 0.0, 0.0)"
2025/07/05/17:47:56.675080,9383,1751712476,681147008,map,base_link,-1.5349387102558951,4.346307925133564,-3.623,0.06524338290481724,0.022337909994373305,-0.8808650819305215,0.4683172281688495,"(1.8387360000000001, 0.0, 0.0, 0.0, 0.0, 0.0, 0.0, 1.8387360000000001, 0.0, 0.0, 0.0, 0.0, 0.0, 0.0, 5.885476000000001, 0.0, 0.0, 0.0, 0.0, 0.0, 0.0, 99999.0, 0.0, 0.0, 0.0, 0.0, 0.0, 0.0, 99999.0, 0.0, 0.0, 0.0, 0.0, 0.0, 0.0, 99999.0)",-0.26,-0.38,0.03,0.0,0.0,0.0,"(-1.0, 0.0, 0.0, 0.0, 0.0, 0.0, 0.0, 0.0, 0.0, 0.0, 0.0, 0.0, 0.0, 0.0, 0.0, 0.0, 0.0, 0.0, 0.0, 0.0, 0.0, 0.0, 0.0, 0.0, 0.0, 0.0, 0.0, 0.0, 0.0, 0.0, 0.0, 0.0, 0.0, 0.0, 0.0, 0.0)"
2025/07/05/17:47:56.754910,9384,1751712476,760147008,map,base_link,-1.568066882587627,4.313130000873109,-3.625,0.06494008622578197,0.023019457826537207,-0.8783994253296559,0.4729348151097472,"(1.8387360000000001, 0.0, 0.0, 0.0, 0.0, 0.0, 0.0, 1.8387360000000001, 0.0, 0.0, 0.0, 0.0, 0.0, 0.0, 5.885476000000001, 0.0, 0.0, 0.0, 0.0, 0.0, 0.0, 99999.0, 0.0, 0.0, 0.0, 0.0, 0.0, 0.0, 99999.0, 0.0, 0.0, 0.0, 0.0, 0.0, 0.0, 99999.0)",-0.27,-0.38,0.03,0.0,0.0,0.0,"(-1.0, 0.0, 0.0, 0.0, 0.0, 0.0, 0.0, 0.0, 0.0, 0.0, 0.0, 0.0, 0.0, 0.0, 0.0, 0.0, 0.0, 0.0, 0.0, 0.0, 0.0, 0.0, 0.0, 0.0, 0.0, 0.0, 0.0, 0.0, 0.0, 0.0, 0.0, 0.0, 0.0, 0.0, 0.0, 0.0)"
2025/07/05/17:47:56.854669,9385,1751712476,860147008,map,base_link,-1.601195055855819,4.25783346097806,-3.627,0.06447640279092105,0.02397709787237304,-0.8753494105979424,0.4785721488204224,"(1.8387360000000001, 0.0, 0.0, 0.0, 0.0, 0.0, 0.0, 1.8387360000000001, 0.0, 0.0, 0.0, 0.0, 0.0, 0.0, 5.885476000000001, 0.0, 0.0, 0.0, 0.0, 0.0, 0.0, 99999.0, 0.0, 0.0, 0.0, 0.0, 0.0, 0.0, 99999.0, 0.0, 0.0, 0.0, 0.0, 0.0, 0.0, 99999.0)",-0.26,-0.39,0.03,0.0,0.0,0.0,"(-1.0, 0.0, 0.0, 0.0, 0.0, 0.0, 0.0, 0.0, 0.0, 0.0, 0.0, 0.0, 0.0, 0.0, 0.0, 0.0, 0.0, 0.0, 0.0, 0.0, 0.0, 0.0, 0.0, 0.0, 0.0, 0.0, 0.0, 0.0, 0.0, 0.0, 0.0, 0.0, 0.0, 0.0, 0.0, 0.0)"
2025/07/05/17:47:56.974933,9386,1751712476,980147008,map,base_link,-1.634323227114462,4.202536921049334,-3.629,0.06413529808862933,0.02460608410178385,-0.871577853049193,0.4854206940772283,"(1.8117160000000003, 0.0, 0.0, 0.0, 0.0, 0.0, 0.0, 1.8117160000000003, 0.0, 0.0, 0.0, 0.0, 0.0, 0.0, 5.779216, 0.0, 0.0, 0.0, 0.0, 0.0, 0.0, 99999.0, 0.0, 0.0, 0.0, 0.0, 0.0, 0.0, 99999.0, 0.0, 0.0, 0.0, 0.0, 0.0, 0.0, 99999.0)",-0.27,-0.4,0.03,0.0,0.0,0.0,"(-1.0, 0.0, 0.0, 0.0, 0.0, 0.0, 0.0, 0.0, 0.0, 0.0, 0.0, 0.0, 0.0, 0.0, 0.0, 0.0, 0.0, 0.0, 0.0, 0.0, 0.0, 0.0, 0.0, 0.0, 0.0, 0.0, 0.0, 0.0, 0.0, 0.0, 0.0, 0.0, 0.0, 0.0, 0.0, 0.0)"
2025/07/05/17:47:57.054871,9387,1751712477,60147008,map,base_link,-1.6453659469659554,4.158299683438751,-3.63,0.0637980795463648,0.025214364541616654,-0.8688602261091075,0.49028149909270335,"(1.8117160000000003, 0.0, 0.0, 0.0, 0.0, 0.0, 0.0, 1.8117160000000003, 0.0, 0.0, 0.0, 0.0, 0.0, 0.0, 5.779216, 0.0, 0.0, 0.0, 0.0, 0.0, 0.0, 99999.0, 0.0, 0.0, 0.0, 0.0, 0.0, 0.0, 99999.0, 0.0, 0.0, 0.0, 0.0, 0.0, 0.0, 99999.0)",-0.27,-0.4,0.03,0.0,0.0,0.0,"(-1.0, 0.0, 0.0, 0.0, 0.0, 0.0, 0.0, 0.0, 0.0, 0.0, 0.0, 0.0, 0.0, 0.0, 0.0, 0.0, 0.0, 0.0, 0.0, 0.0, 0.0, 0.0, 0.0, 0.0, 0.0, 0.0, 0.0, 0.0, 0.0, 0.0, 0.0, 0.0, 0.0, 0.0, 0.0, 0.0)"
2025/07/05/17:47:57.134692,9388,1751712477,140147008,map,base_link,-1.6674513942633187,4.114062451691197,-3.63,0.06388281001233681,0.02528520569883438,-0.8661682421707348,0.49500729410035393,"(1.787569, 0.0, 0.0, 0.0, 0.0, 0.0, 0.0, 1.787569, 0.0, 0.0, 0.0, 0.0, 0.0, 0.0, 5.645376, 0.0, 0.0, 0.0, 0.0, 0.0, 0.0, 99999.0, 0.0, 0.0, 0.0, 0.0, 0.0, 0.0, 99999.0, 0.0, 0.0, 0.0, 0.0, 0.0, 0.0, 99999.0)",-0.26,-0.41,0.03,0.0,0.0,0.0,"(-1.0, 0.0, 0.0, 0.0, 0.0, 0.0, 0.0, 0.0, 0.0, 0.0, 0.0, 0.0, 0.0, 0.0, 0.0, 0.0, 0.0, 0.0, 0.0, 0.0, 0.0, 0.0, 0.0, 0.0, 0.0, 0.0, 0.0, 0.0, 0.0, 0.0, 0.0, 0.0, 0.0, 0.0, 0.0, 0.0)"
2025/07/05/17:47:57.237500,9389,1751712477,243147008,map,base_link,-1.689536844602097,4.069825226322691,-3.629,0.06416916884463499,0.025035255634927985,-0.8625577487135878,0.5012481260605665,"(1.787569, 0.0, 0.0, 0.0, 0.0, 0.0, 0.0, 1.787569, 0.0, 0.0, 0.0, 0.0, 0.0, 0.0, 5.645376, 0.0, 0.0, 0.0, 0.0, 0.0, 0.0, 99999.0, 0.0, 0.0, 0.0, 0.0, 0.0, 0.0, 99999.0, 0.0, 0.0, 0.0, 0.0, 0.0, 0.0, 99999.0)",-0.26,-0.41,0.02,0.0,0.0,0.0,"(-1.0, 0.0, 0.0, 0.0, 0.0, 0.0, 0.0, 0.0, 0.0, 0.0, 0.0, 0.0, 0.0, 0.0, 0.0, 0.0, 0.0, 0.0, 0.0, 0.0, 0.0, 0.0, 0.0, 0.0, 0.0, 0.0, 0.0, 0.0, 0.0, 0.0, 0.0, 0.0, 0.0, 0.0, 0.0, 0.0)"
2025/07/05/17:47:57.315218,9390,1751712477,321147008,map,base_link,-1.7116222921779685,4.014528686781367,-3.629,0.06458624069180273,0.024750651197513455,-0.859687879832295,0.5061153742458857,"(1.760929, 0.0, 0.0, 0.0, 0.0, 0.0, 0.0, 1.760929, 0.0, 0.0, 0.0, 0.0, 0.0, 0.0, 5.494336, 0.0, 0.0, 0.0, 0.0, 0.0, 0.0, 99999.0, 0.0, 0.0, 0.0, 0.0, 0.0, 0.0, 99999.0, 0.0, 0.0, 0.0, 0.0, 0.0, 0.0, 99999.0)",-0.25,-0.43,0.03,0.0,0.0,0.0,"(-1.0, 0.0, 0.0, 0.0, 0.0, 0.0, 0.0, 0.0, 0.0, 0.0, 0.0, 0.0, 0.0, 0.0, 0.0, 0.0, 0.0, 0.0, 0.0, 0.0, 0.0, 0.0, 0.0, 0.0, 0.0, 0.0, 0.0, 0.0, 0.0, 0.0, 0.0, 0.0, 0.0, 0.0, 0.0, 0.0)"
2025/07/05/17:47:57.437727,9391,1751712477,443147008,map,base_link,-1.7337077363563007,3.9481728331390484,-3.631,0.06485264076140532,0.024420748135433143,-0.8552403472459791,0.513577365631854,"(1.760929, 0.0, 0.0, 0.0, 0.0, 0.0, 0.0, 1.760929, 0.0, 0.0, 0.0, 0.0, 0.0, 0.0, 5.494336, 0.0, 0.0, 0.0, 0.0, 0.0, 0.0, 99999.0, 0.0, 0.0, 0.0, 0.0, 0.0, 0.0, 99999.0, 0.0, 0.0, 0.0, 0.0, 0.0, 0.0, 99999.0)",-0.26,-0.44,0.03,0.0,0.0,0.0,"(-1.0, 0.0, 0.0, 0.0, 0.0, 0.0, 0.0, 0.0, 0.0, 0.0, 0.0, 0.0, 0.0, 0.0, 0.0, 0.0, 0.0, 0.0, 0.0, 0.0, 0.0, 0.0, 0.0, 0.0, 0.0, 0.0, 0.0, 0.0, 0.0, 0.0, 0.0, 0.0, 0.0, 0.0, 0.0, 0.0)"
2025/07/05/17:47:57.574874,9392,1751712477,580147008,map,base_link,-1.7557931810734808,3.8707576782682556,-3.63,0.06426077228286703,0.025167141968035916,-0.8501334278641552,0.522025212933927,"(1.739761, 0.0, 0.0, 0.0, 0.0, 0.0, 0.0, 1.739761, 0.0, 0.0, 0.0, 0.0, 0.0, 0.0, 5.391684000000001, 0.0, 0.0, 0.0, 0.0, 0.0, 0.0, 99999.0, 0.0, 0.0, 0.0, 0.0, 0.0, 0.0, 99999.0, 0.0, 0.0, 0.0, 0.0, 0.0, 0.0, 99999.0)",-0.25,-0.44,0.03,0.0,0.0,0.0,"(-1.0, 0.0, 0.0, 0.0, 0.0, 0.0, 0.0, 0.0, 0.0, 0.0, 0.0, 0.0, 0.0, 0.0, 0.0, 0.0, 0.0, 0.0, 0.0, 0.0, 0.0, 0.0, 0.0, 0.0, 0.0, 0.0, 0.0, 0.0, 0.0, 0.0, 0.0, 0.0, 0.0, 0.0, 0.0, 0.0)"
2025/07/05/17:47:57.654891,9393,1751712477,660147008,map,base_link,-1.7778786315491546,3.8265204527516485,-3.626,0.06357065409744139,0.026105585731781886,-0.847253550188862,0.5267244934722455,"(1.708249, 0.0, 0.0, 0.0, 0.0, 0.0, 0.0, 1.708249, 0.0, 0.0, 0.0, 0.0, 0.0, 0.0, 5.2992040000000005, 0.0, 0.0, 0.0, 0.0, 0.0, 0.0, 99999.0, 0.0, 0.0, 0.0, 0.0, 0.0, 0.0, 99999.0, 0.0, 0.0, 0.0, 0.0, 0.0, 0.0, 99999.0)",-0.24,-0.45,0.02,0.0,0.0,0.0,"(-1.0, 0.0, 0.0, 0.0, 0.0, 0.0, 0.0, 0.0, 0.0, 0.0, 0.0, 0.0, 0.0, 0.0, 0.0, 0.0, 0.0, 0.0, 0.0, 0.0, 0.0, 0.0, 0.0, 0.0, 0.0, 0.0, 0.0, 0.0, 0.0, 0.0, 0.0, 0.0, 0.0, 0.0, 0.0, 0.0)"
2025/07/05/17:47:57.754997,9394,1751712477,760147008,map,base_link,-1.79996408159554,3.7822832269115008,-3.618,0.06324061353264313,0.02709974508394832,-0.8437691655522908,0.5322779573489691,"(1.708249, 0.0, 0.0, 0.0, 0.0, 0.0, 0.0, 1.708249, 0.0, 0.0, 0.0, 0.0, 0.0, 0.0, 5.2992040000000005, 0.0, 0.0, 0.0, 0.0, 0.0, 0.0, 99999.0, 0.0, 0.0, 0.0, 0.0, 0.0, 0.0, 99999.0, 0.0, 0.0, 0.0, 0.0, 0.0, 0.0, 99999.0)",-0.23,-0.45,0.02,0.0,0.0,0.0,"(-1.0, 0.0, 0.0, 0.0, 0.0, 0.0, 0.0, 0.0, 0.0, 0.0, 0.0, 0.0, 0.0, 0.0, 0.0, 0.0, 0.0, 0.0, 0.0, 0.0, 0.0, 0.0, 0.0, 0.0, 0.0, 0.0, 0.0, 0.0, 0.0, 0.0, 0.0, 0.0, 0.0, 0.0, 0.0, 0.0)"
2025/07/05/17:47:57.855082,9395,1751712477,860147008,map,base_link,-1.8220495291714116,3.726986687370176,-3.611,0.06302335135289784,0.02786343669342971,-0.840242514253797,0.5378142832989266,"(1.6926009999999998, 0.0, 0.0, 0.0, 0.0, 0.0, 0.0, 1.6926009999999998, 0.0, 0.0, 0.0, 0.0, 0.0, 0.0, 5.267024999999999, 0.0, 0.0, 0.0, 0.0, 0.0, 0.0, 99999.0, 0.0, 0.0, 0.0, 0.0, 0.0, 0.0, 99999.0, 0.0, 0.0, 0.0, 0.0, 0.0, 0.0, 99999.0)",-0.23,-0.45,0.02,0.0,0.0,0.0,"(-1.0, 0.0, 0.0, 0.0, 0.0, 0.0, 0.0, 0.0, 0.0, 0.0, 0.0, 0.0, 0.0, 0.0, 0.0, 0.0, 0.0, 0.0, 0.0, 0.0, 0.0, 0.0, 0.0, 0.0, 0.0, 0.0, 0.0, 0.0, 0.0, 0.0, 0.0, 0.0, 0.0, 0.0, 0.0, 0.0)"
2025/07/05/17:47:57.996075,9396,1751712478,2147008,map,base_link,-1.855177701813595,3.649571537439895,-3.601,0.06317798418208384,0.028358250901890432,-0.8350684736665656,0.5457700946448663,"(1.6926009999999998, 0.0, 0.0, 0.0, 0.0, 0.0, 0.0, 1.6926009999999998, 0.0, 0.0, 0.0, 0.0, 0.0, 0.0, 5.267024999999999, 0.0, 0.0, 0.0, 0.0, 0.0, 0.0, 99999.0, 0.0, 0.0, 0.0, 0.0, 0.0, 0.0, 99999.0, 0.0, 0.0, 0.0, 0.0, 0.0, 0.0, 99999.0)",-0.22,-0.45,0.01,0.0,0.0,0.0,"(-1.0, 0.0, 0.0, 0.0, 0.0, 0.0, 0.0, 0.0, 0.0, 0.0, 0.0, 0.0, 0.0, 0.0, 0.0, 0.0, 0.0, 0.0, 0.0, 0.0, 0.0, 0.0, 0.0, 0.0, 0.0, 0.0, 0.0, 0.0, 0.0, 0.0, 0.0, 0.0, 0.0, 0.0, 0.0, 0.0)"
2025/07/05/17:47:58.074969,9397,1751712478,80147008,map,base_link,-1.8662204285380495,3.6053343115186776,-3.598,0.06310198748743148,0.028014892475895906,-0.8320759430394318,0.5503480080728376,"(1.687401, 0.0, 0.0, 0.0, 0.0, 0.0, 0.0, 1.687401, 0.0, 0.0, 0.0, 0.0, 0.0, 0.0, 5.2441, 0.0, 0.0, 0.0, 0.0, 0.0, 0.0, 99999.0, 0.0, 0.0, 0.0, 0.0, 0.0, 0.0, 99999.0, 0.0, 0.0, 0.0, 0.0, 0.0, 0.0, 99999.0)",-0.22,-0.45,0.02,0.0,0.0,0.0,"(-1.0, 0.0, 0.0, 0.0, 0.0, 0.0, 0.0, 0.0, 0.0, 0.0, 0.0, 0.0, 0.0, 0.0, 0.0, 0.0, 0.0, 0.0, 0.0, 0.0, 0.0, 0.0, 0.0, 0.0, 0.0, 0.0, 0.0, 0.0, 0.0, 0.0, 0.0, 0.0, 0.0, 0.0, 0.0, 0.0)"
2025/07/05/17:47:58.154263,9398,1751712478,160147008,map,base_link,-1.8772631506408286,3.561097079854699,-3.593,0.06324848592460401,0.02787375534994034,-0.8290416207532689,0.554898796042783,"(1.687401, 0.0, 0.0, 0.0, 0.0, 0.0, 0.0, 1.687401, 0.0, 0.0, 0.0, 0.0, 0.0, 0.0, 5.2441, 0.0, 0.0, 0.0, 0.0, 0.0, 0.0, 99999.0, 0.0, 0.0, 0.0, 0.0, 0.0, 0.0, 99999.0, 0.0, 0.0, 0.0, 0.0, 0.0, 0.0, 99999.0)",-0.22,-0.45,0.01,0.0,0.0,0.0,"(-1.0, 0.0, 0.0, 0.0, 0.0, 0.0, 0.0, 0.0, 0.0, 0.0, 0.0, 0.0, 0.0, 0.0, 0.0, 0.0, 0.0, 0.0, 0.0, 0.0, 0.0, 0.0, 0.0, 0.0, 0.0, 0.0, 0.0, 0.0, 0.0, 0.0, 0.0, 0.0, 0.0, 0.0, 0.0, 0.0)"
2025/07/05/17:47:58.254329,9399,1751712478,260147008,map,base_link,-1.8993486000386968,3.5058005457054886,-3.588,0.06306682941300387,0.02807721175502546,-0.8252226814638849,0.5605727171432893,"(1.6848040000000002, 0.0, 0.0, 0.0, 0.0, 0.0, 0.0, 1.6848040000000002, 0.0, 0.0, 0.0, 0.0, 0.0, 0.0, 5.239521000000001, 0.0, 0.0, 0.0, 0.0, 0.0, 0.0, 99999.0, 0.0, 0.0, 0.0, 0.0, 0.0, 0.0, 99999.0, 0.0, 0.0, 0.0, 0.0, 0.0, 0.0, 99999.0)",-0.21,-0.46,0.01,0.0,0.0,0.0,"(-1.0, 0.0, 0.0, 0.0, 0.0, 0.0, 0.0, 0.0, 0.0, 0.0, 0.0, 0.0, 0.0, 0.0, 0.0, 0.0, 0.0, 0.0, 0.0, 0.0, 0.0, 0.0, 0.0, 0.0, 0.0, 0.0, 0.0, 0.0, 0.0, 0.0, 0.0, 0.0, 0.0, 0.0, 0.0, 0.0)"
2025/07/05/17:47:58.354738,9400,1751712478,360147008,map,base_link,-1.9103913219906956,3.450504006039675,-3.585,0.06254531017320913,0.028515820095023264,-0.821419188862631,0.5661673324626761,"(1.6848040000000002, 0.0, 0.0, 0.0, 0.0, 0.0, 0.0, 1.6848040000000002, 0.0, 0.0, 0.0, 0.0, 0.0, 0.0, 5.239521000000001, 0.0, 0.0, 0.0, 0.0, 0.0, 0.0, 99999.0, 0.0, 0.0, 0.0, 0.0, 0.0, 0.0, 99999.0, 0.0, 0.0, 0.0, 0.0, 0.0, 0.0, 99999.0)",-0.2,-0.45,0.01,0.0,0.0,0.0,"(-1.0, 0.0, 0.0, 0.0, 0.0, 0.0, 0.0, 0.0, 0.0, 0.0, 0.0, 0.0, 0.0, 0.0, 0.0, 0.0, 0.0, 0.0, 0.0, 0.0, 0.0, 0.0, 0.0, 0.0, 0.0, 0.0, 0.0, 0.0, 0.0, 0.0, 0.0, 0.0, 0.0, 0.0, 0.0, 0.0)"
2025/07/05/17:47:58.534093,9401,1751712478,540147008,map,base_link,-1.9324767703063077,3.3509702399973147,-3.578,0.06180629494715773,0.02999973704876774,-0.8150095709528147,0.5753602323216462,"(1.6848040000000002, 0.0, 0.0, 0.0, 0.0, 0.0, 0.0, 1.6848040000000002, 0.0, 0.0, 0.0, 0.0, 0.0, 0.0, 5.239521000000001, 0.0, 0.0, 0.0, 0.0, 0.0, 0.0, 99999.0, 0.0, 0.0, 0.0, 0.0, 0.0, 0.0, 99999.0, 0.0, 0.0, 0.0, 0.0, 0.0, 0.0, 99999.0)",-0.18,-0.46,0.01,0.0,0.0,0.0,"(-1.0, 0.0, 0.0, 0.0, 0.0, 0.0, 0.0, 0.0, 0.0, 0.0, 0.0, 0.0, 0.0, 0.0, 0.0, 0.0, 0.0, 0.0, 0.0, 0.0, 0.0, 0.0, 0.0, 0.0, 0.0, 0.0, 0.0, 0.0, 0.0, 0.0, 0.0, 0.0, 0.0, 0.0, 0.0, 0.0)"
2025/07/05/17:47:58.614769,9402,1751712478,621147008,map,base_link,-1.9435194924775345,3.3067330084324986,-3.576,0.06151896092066767,0.03041100081283676,-0.8122848824147637,0.5792096842053287,"(1.6770249999999998, 0.0, 0.0, 0.0, 0.0, 0.0, 0.0, 1.6770249999999998, 0.0, 0.0, 0.0, 0.0, 0.0, 0.0, 5.1801759999999994, 0.0, 0.0, 0.0, 0.0, 0.0, 0.0, 99999.0, 0.0, 0.0, 0.0, 0.0, 0.0, 0.0, 99999.0, 0.0, 0.0, 0.0, 0.0, 0.0, 0.0, 99999.0)",-0.17,-0.46,0.0,0.0,0.0,0.0,"(-1.0, 0.0, 0.0, 0.0, 0.0, 0.0, 0.0, 0.0, 0.0, 0.0, 0.0, 0.0, 0.0, 0.0, 0.0, 0.0, 0.0, 0.0, 0.0, 0.0, 0.0, 0.0, 0.0, 0.0, 0.0, 0.0, 0.0, 0.0, 0.0, 0.0, 0.0, 0.0, 0.0, 0.0, 0.0, 0.0)"
2025/07/05/17:47:58.715530,9403,1751712478,721147008,map,base_link,-1.9545622153565585,3.251436468820077,-3.574,0.06119752826951099,0.0307653813034678,-0.8088293911817812,0.5840405549338707,"(1.6666809999999999, 0.0, 0.0, 0.0, 0.0, 0.0, 0.0, 1.6666809999999999, 0.0, 0.0, 0.0, 0.0, 0.0, 0.0, 5.098564, 0.0, 0.0, 0.0, 0.0, 0.0, 0.0, 99999.0, 0.0, 0.0, 0.0, 0.0, 0.0, 0.0, 99999.0, 0.0, 0.0, 0.0, 0.0, 0.0, 0.0, 99999.0)",-0.16,-0.47,0.01,0.0,0.0,0.0,"(-1.0, 0.0, 0.0, 0.0, 0.0, 0.0, 0.0, 0.0, 0.0, 0.0, 0.0, 0.0, 0.0, 0.0, 0.0, 0.0, 0.0, 0.0, 0.0, 0.0, 0.0, 0.0, 0.0, 0.0, 0.0, 0.0, 0.0, 0.0, 0.0, 0.0, 0.0, 0.0, 0.0, 0.0, 0.0, 0.0)"
2025/07/05/17:47:58.815242,9404,1751712478,821147008,map,base_link,-1.9656049373770048,3.19613992913795,-3.572,0.06122528218620631,0.031063113314556284,-0.8053987196725443,0.5887439597671071,"(1.6666809999999999, 0.0, 0.0, 0.0, 0.0, 0.0, 0.0, 1.6666809999999999, 0.0, 0.0, 0.0, 0.0, 0.0, 0.0, 5.098564, 0.0, 0.0, 0.0, 0.0, 0.0, 0.0, 99999.0, 0.0, 0.0, 0.0, 0.0, 0.0, 0.0, 99999.0, 0.0, 0.0, 0.0, 0.0, 0.0, 0.0, 99999.0)",-0.15,-0.45,0.01,0.0,0.0,0.0,"(-1.0, 0.0, 0.0, 0.0, 0.0, 0.0, 0.0, 0.0, 0.0, 0.0, 0.0, 0.0, 0.0, 0.0, 0.0, 0.0, 0.0, 0.0, 0.0, 0.0, 0.0, 0.0, 0.0, 0.0, 0.0, 0.0, 0.0, 0.0, 0.0, 0.0, 0.0, 0.0, 0.0, 0.0, 0.0, 0.0)"
2025/07/05/17:47:58.915665,9405,1751712478,921147008,map,base_link,-1.9545622111919323,3.1408433903513906,-3.577,0.06153799303311396,0.03136198812351937,-0.8017281534324909,0.5936846546005083,"(1.6512249999999997, 0.0, 0.0, 0.0, 0.0, 0.0, 0.0, 1.6512249999999997, 0.0, 0.0, 0.0, 0.0, 0.0, 0.0, 5.035536000000001, 0.0, 0.0, 0.0, 0.0, 0.0, 0.0, 99999.0, 0.0, 0.0, 0.0, 0.0, 0.0, 0.0, 99999.0, 0.0, 0.0, 0.0, 0.0, 0.0, 0.0, 99999.0)",-0.14,-0.46,0.0,0.0,0.0,0.0,"(-1.0, 0.0, 0.0, 0.0, 0.0, 0.0, 0.0, 0.0, 0.0, 0.0, 0.0, 0.0, 0.0, 0.0, 0.0, 0.0, 0.0, 0.0, 0.0, 0.0, 0.0, 0.0, 0.0, 0.0, 0.0, 0.0, 0.0, 0.0, 0.0, 0.0, 0.0, 0.0, 0.0, 0.0, 0.0, 0.0)"
2025/07/05/17:47:59.034791,9406,1751712479,40147008,map,base_link,-1.95456220612735,3.085546846185364,-3.58,0.06131142269533767,0.03167078998435973,-0.7972076049868033,0.5997482013812506,"(1.6512249999999997, 0.0, 0.0, 0.0, 0.0, 0.0, 0.0, 1.6512249999999997, 0.0, 0.0, 0.0, 0.0, 0.0, 0.0, 5.035536000000001, 0.0, 0.0, 0.0, 0.0, 0.0, 0.0, 99999.0, 0.0, 0.0, 0.0, 0.0, 0.0, 0.0, 99999.0, 0.0, 0.0, 0.0, 0.0, 0.0, 0.0, 99999.0)",-0.12,-0.45,0.01,0.0,0.0,0.0,"(-1.0, 0.0, 0.0, 0.0, 0.0, 0.0, 0.0, 0.0, 0.0, 0.0, 0.0, 0.0, 0.0, 0.0, 0.0, 0.0, 0.0, 0.0, 0.0, 0.0, 0.0, 0.0, 0.0, 0.0, 0.0, 0.0, 0.0, 0.0, 0.0, 0.0, 0.0, 0.0, 0.0, 0.0, 0.0, 0.0)"
2025/07/05/17:47:59.134822,9407,1751712479,140147008,map,base_link,-1.9435194787913068,3.030250307665782,-3.583,0.0608050230866762,0.03195636233470727,-0.7933454832656613,0.6048838601382385,"(1.643524, 0.0, 0.0, 0.0, 0.0, 0.0, 0.0, 1.643524, 0.0, 0.0, 0.0, 0.0, 0.0, 0.0, 5.013120999999999, 0.0, 0.0, 0.0, 0.0, 0.0, 0.0, 99999.0, 0.0, 0.0, 0.0, 0.0, 0.0, 0.0, 99999.0, 0.0, 0.0, 0.0, 0.0, 0.0, 0.0, 99999.0)",-0.11,-0.46,0.02,0.0,0.0,0.0,"(-1.0, 0.0, 0.0, 0.0, 0.0, 0.0, 0.0, 0.0, 0.0, 0.0, 0.0, 0.0, 0.0, 0.0, 0.0, 0.0, 0.0, 0.0, 0.0, 0.0, 0.0, 0.0, 0.0, 0.0, 0.0, 0.0, 0.0, 0.0, 0.0, 0.0, 0.0, 0.0, 0.0, 0.0, 0.0, 0.0)"
2025/07/05/17:47:59.254818,9408,1751712479,260147008,map,base_link,-1.9435194759142802,2.9638944606948807,-3.585,0.06002756706258235,0.03267385425957418,-0.7888879692806091,0.6107248827129022,"(1.643524, 0.0, 0.0, 0.0, 0.0, 0.0, 0.0, 1.643524, 0.0, 0.0, 0.0, 0.0, 0.0, 0.0, 5.013120999999999, 0.0, 0.0, 0.0, 0.0, 0.0, 0.0, 99999.0, 0.0, 0.0, 0.0, 0.0, 0.0, 0.0, 99999.0, 0.0, 0.0, 0.0, 0.0, 0.0, 0.0, 99999.0)",-0.09,-0.46,0.02,0.0,0.0,0.0,"(-1.0, 0.0, 0.0, 0.0, 0.0, 0.0, 0.0, 0.0, 0.0, 0.0, 0.0, 0.0, 0.0, 0.0, 0.0, 0.0, 0.0, 0.0, 0.0, 0.0, 0.0, 0.0, 0.0, 0.0, 0.0, 0.0, 0.0, 0.0, 0.0, 0.0, 0.0, 0.0, 0.0, 0.0, 0.0, 0.0)"
2025/07/05/17:47:59.354499,9409,1751712479,360147008,map,base_link,-1.9324767503638394,2.908597921951971,-3.584,0.05912670865443794,0.033105003349131294,-0.7852847679530228,0.6154152454220764,"(1.633284, 0.0, 0.0, 0.0, 0.0, 0.0, 0.0, 1.633284, 0.0, 0.0, 0.0, 0.0, 0.0, 0.0, 4.955076, 0.0, 0.0, 0.0, 0.0, 0.0, 0.0, 99999.0, 0.0, 0.0, 0.0, 0.0, 0.0, 0.0, 99999.0, 0.0, 0.0, 0.0, 0.0, 0.0, 0.0, 99999.0)",-0.08,-0.46,0.02,0.0,0.0,0.0,"(-1.0, 0.0, 0.0, 0.0, 0.0, 0.0, 0.0, 0.0, 0.0, 0.0, 0.0, 0.0, 0.0, 0.0, 0.0, 0.0, 0.0, 0.0, 0.0, 0.0, 0.0, 0.0, 0.0, 0.0, 0.0, 0.0, 0.0, 0.0, 0.0, 0.0, 0.0, 0.0, 0.0, 0.0, 0.0, 0.0)"
2025/07/05/17:47:59.554735,9410,1751712479,560147008,map,base_link,-1.921434022224048,2.7980048440918948,-3.584,0.05854167997053214,0.03425629095744571,-0.778291137254185,0.6242293520074608,"(1.6205289999999997, 0.0, 0.0, 0.0, 0.0, 0.0, 0.0, 1.6205289999999997, 0.0, 0.0, 0.0, 0.0, 0.0, 0.0, 4.892944000000001, 0.0, 0.0, 0.0, 0.0, 0.0, 0.0, 99999.0, 0.0, 0.0, 0.0, 0.0, 0.0, 0.0, 99999.0, 0.0, 0.0, 0.0, 0.0, 0.0, 0.0, 99999.0)",-0.05,-0.46,0.02,0.0,0.0,0.0,"(-1.0, 0.0, 0.0, 0.0, 0.0, 0.0, 0.0, 0.0, 0.0, 0.0, 0.0, 0.0, 0.0, 0.0, 0.0, 0.0, 0.0, 0.0, 0.0, 0.0, 0.0, 0.0, 0.0, 0.0, 0.0, 0.0, 0.0, 0.0, 0.0, 0.0, 0.0, 0.0, 0.0, 0.0, 0.0, 0.0)"
2025/07/05/17:47:59.654562,9411,1751712479,660147008,map,base_link,-1.9214340202693294,2.7427083052493275,-3.587,0.05854764035267772,0.03451960756805895,-0.7746520561603267,0.6287247111328284,"(1.6205289999999997, 0.0, 0.0, 0.0, 0.0, 0.0, 0.0, 1.6205289999999997, 0.0, 0.0, 0.0, 0.0, 0.0, 0.0, 4.892944000000001, 0.0, 0.0, 0.0, 0.0, 0.0, 0.0, 99999.0, 0.0, 0.0, 0.0, 0.0, 0.0, 0.0, 99999.0, 0.0, 0.0, 0.0, 0.0, 0.0, 0.0, 99999.0)",-0.04,-0.45,0.02,0.0,0.0,0.0,"(-1.0, 0.0, 0.0, 0.0, 0.0, 0.0, 0.0, 0.0, 0.0, 0.0, 0.0, 0.0, 0.0, 0.0, 0.0, 0.0, 0.0, 0.0, 0.0, 0.0, 0.0, 0.0, 0.0, 0.0, 0.0, 0.0, 0.0, 0.0, 0.0, 0.0, 0.0, 0.0, 0.0, 0.0, 0.0, 0.0)"
2025/07/05/17:47:59.754959,9412,1751712479,760147008,map,base_link,-1.9103912934263048,2.6984710739571653,-3.589,0.05903154144839482,0.03483868669256606,-0.7708661010123938,0.6332985057093642,"(1.6002249999999998, 0.0, 0.0, 0.0, 0.0, 0.0, 0.0, 1.6002249999999998, 0.0, 0.0, 0.0, 0.0, 0.0, 0.0, 4.804864000000001, 0.0, 0.0, 0.0, 0.0, 0.0, 0.0, 99999.0, 0.0, 0.0, 0.0, 0.0, 0.0, 0.0, 99999.0, 0.0, 0.0, 0.0, 0.0, 0.0, 0.0, 99999.0)",-0.03,-0.45,0.02,0.0,0.0,0.0,"(-1.0, 0.0, 0.0, 0.0, 0.0, 0.0, 0.0, 0.0, 0.0, 0.0, 0.0, 0.0, 0.0, 0.0, 0.0, 0.0, 0.0, 0.0, 0.0, 0.0, 0.0, 0.0, 0.0, 0.0, 0.0, 0.0, 0.0, 0.0, 0.0, 0.0, 0.0, 0.0, 0.0, 0.0, 0.0, 0.0)"
2025/07/05/17:47:59.854941,9413,1751712479,860147008,map,base_link,-1.9103912884301706,2.643174530929576,-3.593,0.05878377213950066,0.034893256311270666,-0.7670739908244195,0.6379062794782203,"(1.6002249999999998, 0.0, 0.0, 0.0, 0.0, 0.0, 0.0, 1.6002249999999998, 0.0, 0.0, 0.0, 0.0, 0.0, 0.0, 4.804864000000001, 0.0, 0.0, 0.0, 0.0, 0.0, 0.0, 99999.0, 0.0, 0.0, 0.0, 0.0, 0.0, 0.0, 99999.0, 0.0, 0.0, 0.0, 0.0, 0.0, 0.0, 99999.0)",-0.02,-0.45,0.03,0.0,0.0,0.0,"(-1.0, 0.0, 0.0, 0.0, 0.0, 0.0, 0.0, 0.0, 0.0, 0.0, 0.0, 0.0, 0.0, 0.0, 0.0, 0.0, 0.0, 0.0, 0.0, 0.0, 0.0, 0.0, 0.0, 0.0, 0.0, 0.0, 0.0, 0.0, 0.0, 0.0, 0.0, 0.0, 0.0, 0.0, 0.0, 0.0)"
2025/07/05/17:47:59.975116,9414,1751712479,980147008,map,base_link,-1.9103912831416427,2.58787798777677,-3.6,0.058644879397459056,0.035095487769450096,-0.7625383930425408,0.6433228458517397,"(1.5901209999999997, 0.0, 0.0, 0.0, 0.0, 0.0, 0.0, 1.5901209999999997, 0.0, 0.0, 0.0, 0.0, 0.0, 0.0, 4.695888999999999, 0.0, 0.0, 0.0, 0.0, 0.0, 0.0, 99999.0, 0.0, 0.0, 0.0, 0.0, 0.0, 0.0, 99999.0, 0.0, 0.0, 0.0, 0.0, 0.0, 0.0, 99999.0)",-0.01,-0.44,0.02,0.0,0.0,0.0,"(-1.0, 0.0, 0.0, 0.0, 0.0, 0.0, 0.0, 0.0, 0.0, 0.0, 0.0, 0.0, 0.0, 0.0, 0.0, 0.0, 0.0, 0.0, 0.0, 0.0, 0.0, 0.0, 0.0, 0.0, 0.0, 0.0, 0.0, 0.0, 0.0, 0.0, 0.0, 0.0, 0.0, 0.0, 0.0, 0.0)"
2025/07/05/17:48:00.054546,9415,1751712480,60147008,map,base_link,-1.910391281762276,2.5547000644107216,-3.607,0.058262942079741975,0.03532118709316596,-0.7594919550892844,0.6469388019567222,"(1.5876000000000001, 0.0, 0.0, 0.0, 0.0, 0.0, 0.0, 1.5876000000000001, 0.0, 0.0, 0.0, 0.0, 0.0, 0.0, 4.635409, 0.0, 0.0, 0.0, 0.0, 0.0, 0.0, 99999.0, 0.0, 0.0, 0.0, 0.0, 0.0, 0.0, 99999.0, 0.0, 0.0, 0.0, 0.0, 0.0, 0.0, 99999.0)",-0.01,-0.43,0.02,0.0,0.0,0.0,"(-1.0, 0.0, 0.0, 0.0, 0.0, 0.0, 0.0, 0.0, 0.0, 0.0, 0.0, 0.0, 0.0, 0.0, 0.0, 0.0, 0.0, 0.0, 0.0, 0.0, 0.0, 0.0, 0.0, 0.0, 0.0, 0.0, 0.0, 0.0, 0.0, 0.0, 0.0, 0.0, 0.0, 0.0, 0.0, 0.0)"
2025/07/05/17:48:00.154886,9416,1751712480,160147008,map,base_link,-1.9103912771907128,2.5104628290887647,-3.616,0.05769584428665758,0.03569380232085118,-0.7557702819167834,0.6513128457195938,"(1.5876000000000001, 0.0, 0.0, 0.0, 0.0, 0.0, 0.0, 1.5876000000000001, 0.0, 0.0, 0.0, 0.0, 0.0, 0.0, 4.635409, 0.0, 0.0, 0.0, 0.0, 0.0, 0.0, 99999.0, 0.0, 0.0, 0.0, 0.0, 0.0, 0.0, 99999.0, 0.0, 0.0, 0.0, 0.0, 0.0, 0.0, 99999.0)",-0.01,-0.43,0.03,0.0,0.0,0.0,"(-1.0, 0.0, 0.0, 0.0, 0.0, 0.0, 0.0, 0.0, 0.0, 0.0, 0.0, 0.0, 0.0, 0.0, 0.0, 0.0, 0.0, 0.0, 0.0, 0.0, 0.0, 0.0, 0.0, 0.0, 0.0, 0.0, 0.0, 0.0, 0.0, 0.0, 0.0, 0.0, 0.0, 0.0, 0.0, 0.0)"
2025/07/05/17:48:00.234447,9417,1751712480,240147008,map,base_link,-1.9214339975166226,2.4772849014020077,-3.622,0.057210681089435236,0.035819205117682766,-0.7527690139731519,0.6548150380954219,"(1.5876000000000001, 0.0, 0.0, 0.0, 0.0, 0.0, 0.0, 1.5876000000000001, 0.0, 0.0, 0.0, 0.0, 0.0, 0.0, 4.635409, 0.0, 0.0, 0.0, 0.0, 0.0, 0.0, 99999.0, 0.0, 0.0, 0.0, 0.0, 0.0, 0.0, 99999.0, 0.0, 0.0, 0.0, 0.0, 0.0, 0.0, 99999.0)",0.0,-0.42,0.03,0.0,0.0,0.0,"(-1.0, 0.0, 0.0, 0.0, 0.0, 0.0, 0.0, 0.0, 0.0, 0.0, 0.0, 0.0, 0.0, 0.0, 0.0, 0.0, 0.0, 0.0, 0.0, 0.0, 0.0, 0.0, 0.0, 0.0, 0.0, 0.0, 0.0, 0.0, 0.0, 0.0, 0.0, 0.0, 0.0, 0.0, 0.0, 0.0)"
2025/07/05/17:48:00.334129,9418,1751712480,340147008,map,base_link,-1.9324767200253707,2.4441069777150934,-3.629,0.05699009636869388,0.036285371168958316,-0.7489477311492356,0.659175846615628,"(1.5850809999999997, 0.0, 0.0, 0.0, 0.0, 0.0, 0.0, 1.5850809999999997, 0.0, 0.0, 0.0, 0.0, 0.0, 0.0, 4.575320999999999, 0.0, 0.0, 0.0, 0.0, 0.0, 0.0, 99999.0, 0.0, 0.0, 0.0, 0.0, 0.0, 0.0, 99999.0, 0.0, 0.0, 0.0, 0.0, 0.0, 0.0, 99999.0)",0.0,-0.41,0.03,0.0,0.0,0.0,"(-1.0, 0.0, 0.0, 0.0, 0.0, 0.0, 0.0, 0.0, 0.0, 0.0, 0.0, 0.0, 0.0, 0.0, 0.0, 0.0, 0.0, 0.0, 0.0, 0.0, 0.0, 0.0, 0.0, 0.0, 0.0, 0.0, 0.0, 0.0, 0.0, 0.0, 0.0, 0.0, 0.0, 0.0, 0.0, 0.0)"
2025/07/05/17:48:00.496058,9419,1751712480,501147008,map,base_link,-1.9545621630108099,2.3888104345742076,-3.639,0.05685700320640416,0.03647264172469348,-0.7427295850737264,0.6661754956827961,"(1.5850809999999997, 0.0, 0.0, 0.0, 0.0, 0.0, 0.0, 1.5850809999999997, 0.0, 0.0, 0.0, 0.0, 0.0, 0.0, 4.575320999999999, 0.0, 0.0, 0.0, 0.0, 0.0, 0.0, 99999.0, 0.0, 0.0, 0.0, 0.0, 0.0, 0.0, 99999.0, 0.0, 0.0, 0.0, 0.0, 0.0, 0.0, 99999.0)",-0.01,-0.39,0.04,0.0,0.0,0.0,"(-1.0, 0.0, 0.0, 0.0, 0.0, 0.0, 0.0, 0.0, 0.0, 0.0, 0.0, 0.0, 0.0, 0.0, 0.0, 0.0, 0.0, 0.0, 0.0, 0.0, 0.0, 0.0, 0.0, 0.0, 0.0, 0.0, 0.0, 0.0, 0.0, 0.0, 0.0, 0.0, 0.0, 0.0, 0.0, 0.0)"
2025/07/05/17:48:00.618118,9420,1751712480,624147008,map,base_link,-1.987690330820557,2.3556325063514527,-3.645,0.056695111313501176,0.03657838282369217,-0.7380509430688479,0.6713631593246219,"(1.5876000000000001, 0.0, 0.0, 0.0, 0.0, 0.0, 0.0, 1.5876000000000001, 0.0, 0.0, 0.0, 0.0, 0.0, 0.0, 4.519875999999999, 0.0, 0.0, 0.0, 0.0, 0.0, 0.0, 99999.0, 0.0, 0.0, 0.0, 0.0, 0.0, 0.0, 99999.0, 0.0, 0.0, 0.0, 0.0, 0.0, 0.0, 99999.0)",-0.01,-0.38,0.04,0.0,0.0,0.0,"(-1.0, 0.0, 0.0, 0.0, 0.0, 0.0, 0.0, 0.0, 0.0, 0.0, 0.0, 0.0, 0.0, 0.0, 0.0, 0.0, 0.0, 0.0, 0.0, 0.0, 0.0, 0.0, 0.0, 0.0, 0.0, 0.0, 0.0, 0.0, 0.0, 0.0, 0.0, 0.0, 0.0, 0.0, 0.0, 0.0)"
2025/07/05/17:48:00.695285,9421,1751712480,701147008,map,base_link,-1.9987330512149144,2.3224545789948077,-3.65,0.05648118511314053,0.036728044718068016,-0.7349067407668968,0.6748133140615856,"(1.5901209999999997, 0.0, 0.0, 0.0, 0.0, 0.0, 0.0, 1.5901209999999997, 0.0, 0.0, 0.0, 0.0, 0.0, 0.0, 4.443664, 0.0, 0.0, 0.0, 0.0, 0.0, 0.0, 99999.0, 0.0, 0.0, 0.0, 0.0, 0.0, 0.0, 99999.0, 0.0, 0.0, 0.0, 0.0, 0.0, 0.0, 99999.0)",-0.01,-0.37,0.05,0.0,0.0,0.0,"(-1.0, 0.0, 0.0, 0.0, 0.0, 0.0, 0.0, 0.0, 0.0, 0.0, 0.0, 0.0, 0.0, 0.0, 0.0, 0.0, 0.0, 0.0, 0.0, 0.0, 0.0, 0.0, 0.0, 0.0, 0.0, 0.0, 0.0, 0.0, 0.0, 0.0, 0.0, 0.0, 0.0, 0.0, 0.0, 0.0)"
2025/07/05/17:48:00.775342,9422,1751712480,780147008,map,base_link,-1.998733050415617,2.3003359633767597,-3.654,0.056138381868111695,0.037036699115335525,-0.7316515706774119,0.6783529642635509,"(1.5901209999999997, 0.0, 0.0, 0.0, 0.0, 0.0, 0.0, 1.5901209999999997, 0.0, 0.0, 0.0, 0.0, 0.0, 0.0, 4.443664, 0.0, 0.0, 0.0, 0.0, 0.0, 0.0, 99999.0, 0.0, 0.0, 0.0, 0.0, 0.0, 0.0, 99999.0, 0.0, 0.0, 0.0, 0.0, 0.0, 0.0, 99999.0)",-0.02,-0.37,0.05,0.0,0.0,0.0,"(-1.0, 0.0, 0.0, 0.0, 0.0, 0.0, 0.0, 0.0, 0.0, 0.0, 0.0, 0.0, 0.0, 0.0, 0.0, 0.0, 0.0, 0.0, 0.0, 0.0, 0.0, 0.0, 0.0, 0.0, 0.0, 0.0, 0.0, 0.0, 0.0, 0.0, 0.0, 0.0, 0.0, 0.0, 0.0, 0.0)"
2025/07/05/17:48:00.854074,9423,1751712480,860147008,map,base_link,-2.009775771915007,2.2560987323111545,-3.658,0.05571657560626747,0.037509812966568405,-0.7283871892682218,0.6818656609947915,"(1.602756, 0.0, 0.0, 0.0, 0.0, 0.0, 0.0, 1.602756, 0.0, 0.0, 0.0, 0.0, 0.0, 0.0, 4.4268160000000005, 0.0, 0.0, 0.0, 0.0, 0.0, 0.0, 99999.0, 0.0, 0.0, 0.0, 0.0, 0.0, 0.0, 99999.0, 0.0, 0.0, 0.0, 0.0, 0.0, 0.0, 99999.0)",-0.02,-0.37,0.05,0.0,0.0,0.0,"(-1.0, 0.0, 0.0, 0.0, 0.0, 0.0, 0.0, 0.0, 0.0, 0.0, 0.0, 0.0, 0.0, 0.0, 0.0, 0.0, 0.0, 0.0, 0.0, 0.0, 0.0, 0.0, 0.0, 0.0, 0.0, 0.0, 0.0, 0.0, 0.0, 0.0, 0.0, 0.0, 0.0, 0.0, 0.0, 0.0)"
2025/07/05/17:48:00.955926,9424,1751712480,960147008,map,base_link,-2.020818490578325,2.211861497473487,-3.663,0.05582545817911893,0.03816992037120888,-0.7242627589466266,0.6861997022740302,"(1.602756, 0.0, 0.0, 0.0, 0.0, 0.0, 0.0, 1.602756, 0.0, 0.0, 0.0, 0.0, 0.0, 0.0, 4.4268160000000005, 0.0, 0.0, 0.0, 0.0, 0.0, 0.0, 99999.0, 0.0, 0.0, 0.0, 0.0, 0.0, 0.0, 99999.0, 0.0, 0.0, 0.0, 0.0, 0.0, 0.0, 99999.0)",-0.02,-0.37,0.04,0.0,0.0,0.0,"(-1.0, 0.0, 0.0, 0.0, 0.0, 0.0, 0.0, 0.0, 0.0, 0.0, 0.0, 0.0, 0.0, 0.0, 0.0, 0.0, 0.0, 0.0, 0.0, 0.0, 0.0, 0.0, 0.0, 0.0, 0.0, 0.0, 0.0, 0.0, 0.0, 0.0, 0.0, 0.0, 0.0, 0.0, 0.0, 0.0)"
2025/07/05/17:48:01.054826,9425,1751712481,60147008,map,base_link,-2.0429039368244073,2.167624265810296,-3.668,0.05550020497531043,0.038086786008462596,-0.7201743335041556,0.6905201324661645,"(1.602756, 0.0, 0.0, 0.0, 0.0, 0.0, 0.0, 1.602756, 0.0, 0.0, 0.0, 0.0, 0.0, 0.0, 4.4268160000000005, 0.0, 0.0, 0.0, 0.0, 0.0, 0.0, 99999.0, 0.0, 0.0, 0.0, 0.0, 0.0, 0.0, 99999.0, 0.0, 0.0, 0.0, 0.0, 0.0, 0.0, 99999.0)",-0.02,-0.37,0.05,0.0,0.0,0.0,"(-1.0, 0.0, 0.0, 0.0, 0.0, 0.0, 0.0, 0.0, 0.0, 0.0, 0.0, 0.0, 0.0, 0.0, 0.0, 0.0, 0.0, 0.0, 0.0, 0.0, 0.0, 0.0, 0.0, 0.0, 0.0, 0.0, 0.0, 0.0, 0.0, 0.0, 0.0, 0.0, 0.0, 0.0, 0.0, 0.0)"
2025/07/05/17:48:01.154060,9426,1751712481,160147008,map,base_link,-2.053946656775591,2.123387031134924,-3.67,0.0560421103670312,0.038123286860132936,-0.7162382704226764,0.6945564317220901,"(1.6103609999999997, 0.0, 0.0, 0.0, 0.0, 0.0, 0.0, 1.6103609999999997, 0.0, 0.0, 0.0, 0.0, 0.0, 0.0, 4.4226090000000005, 0.0, 0.0, 0.0, 0.0, 0.0, 0.0, 99999.0, 0.0, 0.0, 0.0, 0.0, 0.0, 0.0, 99999.0, 0.0, 0.0, 0.0, 0.0, 0.0, 0.0, 99999.0)",-0.02,-0.37,0.04,0.0,0.0,0.0,"(-1.0, 0.0, 0.0, 0.0, 0.0, 0.0, 0.0, 0.0, 0.0, 0.0, 0.0, 0.0, 0.0, 0.0, 0.0, 0.0, 0.0, 0.0, 0.0, 0.0, 0.0, 0.0, 0.0, 0.0, 0.0, 0.0, 0.0, 0.0, 0.0, 0.0, 0.0, 0.0, 0.0, 0.0, 0.0, 0.0)"
2025/07/05/17:48:01.254807,9427,1751712481,260147008,map,base_link,-2.0649893782749813,2.079149800184794,-3.672,0.05614300922622395,0.03766404119875622,-0.7123240467689385,0.6985870274420546,"(1.6103609999999997, 0.0, 0.0, 0.0, 0.0, 0.0, 0.0, 1.6103609999999997, 0.0, 0.0, 0.0, 0.0, 0.0, 0.0, 4.4226090000000005, 0.0, 0.0, 0.0, 0.0, 0.0, 0.0, 99999.0, 0.0, 0.0, 0.0, 0.0, 0.0, 0.0, 99999.0, 0.0, 0.0, 0.0, 0.0, 0.0, 0.0, 99999.0)",-0.02,-0.37,0.05,0.0,0.0,0.0,"(-1.0, 0.0, 0.0, 0.0, 0.0, 0.0, 0.0, 0.0, 0.0, 0.0, 0.0, 0.0, 0.0, 0.0, 0.0, 0.0, 0.0, 0.0, 0.0, 0.0, 0.0, 0.0, 0.0, 0.0, 0.0, 0.0, 0.0, 0.0, 0.0, 0.0, 0.0, 0.0, 0.0, 0.0, 0.0, 0.0)"
2025/07/05/17:48:01.354726,9428,1751712481,360147008,map,base_link,-2.076032099550426,2.034912568862184,-3.674,0.05616309205110867,0.037933923792632995,-0.7083850857065432,0.7025647976275832,"(1.6002249999999998, 0.0, 0.0, 0.0, 0.0, 0.0, 0.0, 1.6002249999999998, 0.0, 0.0, 0.0, 0.0, 0.0, 0.0, 4.397409, 0.0, 0.0, 0.0, 0.0, 0.0, 0.0, 99999.0, 0.0, 0.0, 0.0, 0.0, 0.0, 0.0, 99999.0, 0.0, 0.0, 0.0, 0.0, 0.0, 0.0, 99999.0)",-0.03,-0.36,0.05,0.0,0.0,0.0,"(-1.0, 0.0, 0.0, 0.0, 0.0, 0.0, 0.0, 0.0, 0.0, 0.0, 0.0, 0.0, 0.0, 0.0, 0.0, 0.0, 0.0, 0.0, 0.0, 0.0, 0.0, 0.0, 0.0, 0.0, 0.0, 0.0, 0.0, 0.0, 0.0, 0.0, 0.0, 0.0, 0.0, 0.0, 0.0, 0.0)"
2025/07/05/17:48:01.554588,9429,1751712481,560147008,map,base_link,-2.0870748199350717,1.935378799410623,-3.675,-0.05456719998956869,-0.03914215610933272,0.7002146854331591,-0.7107669847454603,"(1.6002249999999998, 0.0, 0.0, 0.0, 0.0, 0.0, 0.0, 1.6002249999999998, 0.0, 0.0, 0.0, 0.0, 0.0, 0.0, 4.397409, 0.0, 0.0, 0.0, 0.0, 0.0, 0.0, 99999.0, 0.0, 0.0, 0.0, 0.0, 0.0, 0.0, 99999.0, 0.0, 0.0, 0.0, 0.0, 0.0, 0.0, 99999.0)",-0.02,-0.36,0.06,0.0,0.0,0.0,"(-1.0, 0.0, 0.0, 0.0, 0.0, 0.0, 0.0, 0.0, 0.0, 0.0, 0.0, 0.0, 0.0, 0.0, 0.0, 0.0, 0.0, 0.0, 0.0, 0.0, 0.0, 0.0, 0.0, 0.0, 0.0, 0.0, 0.0, 0.0, 0.0, 0.0, 0.0, 0.0, 0.0, 0.0, 0.0, 0.0)"
2025/07/05/17:48:01.654900,9430,1751712481,660147008,map,base_link,-2.0870748185418195,1.8911415689339128,-3.674,-0.053645235390665354,-0.04014690951501679,0.6961787263487452,-0.7147346328223587,"(1.5876000000000001, 0.0, 0.0, 0.0, 0.0, 0.0, 0.0, 1.5876000000000001, 0.0, 0.0, 0.0, 0.0, 0.0, 0.0, 4.322241000000001, 0.0, 0.0, 0.0, 0.0, 0.0, 0.0, 99999.0, 0.0, 0.0, 0.0, 0.0, 0.0, 0.0, 99999.0, 0.0, 0.0, 0.0, 0.0, 0.0, 0.0, 99999.0)",-0.02,-0.36,0.05,0.0,0.0,0.0,"(-1.0, 0.0, 0.0, 0.0, 0.0, 0.0, 0.0, 0.0, 0.0, 0.0, 0.0, 0.0, 0.0, 0.0, 0.0, 0.0, 0.0, 0.0, 0.0, 0.0, 0.0, 0.0, 0.0, 0.0, 0.0, 0.0, 0.0, 0.0, 0.0, 0.0, 0.0, 0.0, 0.0, 0.0, 0.0, 0.0)"
2025/07/05/17:48:01.754312,9431,1751712481,760147008,map,base_link,-2.08707481613921,1.8358450305011367,-3.672,-0.05308899111937104,-0.040960172156417514,0.6921582653314369,-0.7186242126815797,"(1.582564, 0.0, 0.0, 0.0, 0.0, 0.0, 0.0, 1.582564, 0.0, 0.0, 0.0, 0.0, 0.0, 0.0, 4.251843999999999, 0.0, 0.0, 0.0, 0.0, 0.0, 0.0, 99999.0, 0.0, 0.0, 0.0, 0.0, 0.0, 0.0, 99999.0, 0.0, 0.0, 0.0, 0.0, 0.0, 0.0, 99999.0)",-0.01,-0.36,0.05,0.0,0.0,0.0,"(-1.0, 0.0, 0.0, 0.0, 0.0, 0.0, 0.0, 0.0, 0.0, 0.0, 0.0, 0.0, 0.0, 0.0, 0.0, 0.0, 0.0, 0.0, 0.0, 0.0, 0.0, 0.0, 0.0, 0.0, 0.0, 0.0, 0.0, 0.0, 0.0, 0.0, 0.0, 0.0, 0.0, 0.0, 0.0, 0.0)"
2025/07/05/17:48:01.854325,9432,1751712481,860147008,map,base_link,-2.087074813512654,1.7805484920423056,-3.673,-0.05311203568583759,-0.04137153292430231,0.6880655468832005,-0.7225187271767575,"(1.5850809999999997, 0.0, 0.0, 0.0, 0.0, 0.0, 0.0, 1.5850809999999997, 0.0, 0.0, 0.0, 0.0, 0.0, 0.0, 4.2436, 0.0, 0.0, 0.0, 0.0, 0.0, 0.0, 99999.0, 0.0, 0.0, 0.0, 0.0, 0.0, 0.0, 99999.0, 0.0, 0.0, 0.0, 0.0, 0.0, 0.0, 99999.0)",0.0,-0.37,0.05,0.0,0.0,0.0,"(-1.0, 0.0, 0.0, 0.0, 0.0, 0.0, 0.0, 0.0, 0.0, 0.0, 0.0, 0.0, 0.0, 0.0, 0.0, 0.0, 0.0, 0.0, 0.0, 0.0, 0.0, 0.0, 0.0, 0.0, 0.0, 0.0, 0.0, 0.0, 0.0, 0.0, 0.0, 0.0, 0.0, 0.0, 0.0, 0.0)"
2025/07/05/17:48:01.974902,9433,1751712481,980147008,map,base_link,-2.0870748111100434,1.7252519539559548,-3.676,-0.0538403425718808,-0.040949618339964605,0.6831751906677553,-0.7271148500241416,"(1.5850809999999997, 0.0, 0.0, 0.0, 0.0, 0.0, 0.0, 1.5850809999999997, 0.0, 0.0, 0.0, 0.0, 0.0, 0.0, 4.2436, 0.0, 0.0, 0.0, 0.0, 0.0, 0.0, 99999.0, 0.0, 0.0, 0.0, 0.0, 0.0, 0.0, 99999.0, 0.0, 0.0, 0.0, 0.0, 0.0, 0.0, 99999.0)",0.0,-0.36,0.04,0.0,0.0,0.0,"(-1.0, 0.0, 0.0, 0.0, 0.0, 0.0, 0.0, 0.0, 0.0, 0.0, 0.0, 0.0, 0.0, 0.0, 0.0, 0.0, 0.0, 0.0, 0.0, 0.0, 0.0, 0.0, 0.0, 0.0, 0.0, 0.0, 0.0, 0.0, 0.0, 0.0, 0.0, 0.0, 0.0, 0.0, 0.0, 0.0)"
2025/07/05/17:48:02.055212,9434,1751712482,60147008,map,base_link,-2.0981175328832244,1.6810147225941463,-3.676,-0.05429409177487216,-0.04050315882343527,0.6798804281856461,-0.7301878176837573,"(1.5901209999999997, 0.0, 0.0, 0.0, 0.0, 0.0, 0.0, 1.5901209999999997, 0.0, 0.0, 0.0, 0.0, 0.0, 0.0, 4.231249, 0.0, 0.0, 0.0, 0.0, 0.0, 0.0, 99999.0, 0.0, 0.0, 0.0, 0.0, 0.0, 0.0, 99999.0, 0.0, 0.0, 0.0, 0.0, 0.0, 0.0, 99999.0)",0.0,-0.36,0.05,0.0,0.0,0.0,"(-1.0, 0.0, 0.0, 0.0, 0.0, 0.0, 0.0, 0.0, 0.0, 0.0, 0.0, 0.0, 0.0, 0.0, 0.0, 0.0, 0.0, 0.0, 0.0, 0.0, 0.0, 0.0, 0.0, 0.0, 0.0, 0.0, 0.0, 0.0, 0.0, 0.0, 0.0, 0.0, 0.0, 0.0, 0.0, 0.0)"
2025/07/05/17:48:02.154446,9435,1751712482,160147008,map,base_link,-2.098117530836738,1.636777491652366,-3.677,-0.05489894908550966,-0.04047935785038782,0.6756580667176856,-0.734052929874029,"(1.5901209999999997, 0.0, 0.0, 0.0, 0.0, 0.0, 0.0, 1.5901209999999997, 0.0, 0.0, 0.0, 0.0, 0.0, 0.0, 4.231249, 0.0, 0.0, 0.0, 0.0, 0.0, 0.0, 99999.0, 0.0, 0.0, 0.0, 0.0, 0.0, 0.0, 99999.0, 0.0, 0.0, 0.0, 0.0, 0.0, 0.0, 99999.0)",0.0,-0.37,0.04,0.0,0.0,0.0,"(-1.0, 0.0, 0.0, 0.0, 0.0, 0.0, 0.0, 0.0, 0.0, 0.0, 0.0, 0.0, 0.0, 0.0, 0.0, 0.0, 0.0, 0.0, 0.0, 0.0, 0.0, 0.0, 0.0, 0.0, 0.0, 0.0, 0.0, 0.0, 0.0, 0.0, 0.0, 0.0, 0.0, 0.0, 0.0, 0.0)"
2025/07/05/17:48:02.254831,9436,1751712482,260147008,map,base_link,-2.109160253317716,1.5814809531667529,-3.678,-0.05411271041801643,-0.0405754261418981,0.671477436983609,-0.73793190809623,"(1.5901209999999997, 0.0, 0.0, 0.0, 0.0, 0.0, 0.0, 1.5901209999999997, 0.0, 0.0, 0.0, 0.0, 0.0, 0.0, 4.231249, 0.0, 0.0, 0.0, 0.0, 0.0, 0.0, 99999.0, 0.0, 0.0, 0.0, 0.0, 0.0, 0.0, 99999.0, 0.0, 0.0, 0.0, 0.0, 0.0, 0.0, 99999.0)",0.0,-0.37,0.05,0.0,0.0,0.0,"(-1.0, 0.0, 0.0, 0.0, 0.0, 0.0, 0.0, 0.0, 0.0, 0.0, 0.0, 0.0, 0.0, 0.0, 0.0, 0.0, 0.0, 0.0, 0.0, 0.0, 0.0, 0.0, 0.0, 0.0, 0.0, 0.0, 0.0, 0.0, 0.0, 0.0, 0.0, 0.0, 0.0, 0.0, 0.0, 0.0)"
2025/07/05/17:48:02.354574,9437,1751712482,360147008,map,base_link,-2.1091602478550877,1.5261844122060855,-3.681,-0.05337142130920302,-0.04176850567951068,0.6672517865912418,-0.7417425002057871,"(1.597696, 0.0, 0.0, 0.0, 0.0, 0.0, 0.0, 1.597696, 0.0, 0.0, 0.0, 0.0, 0.0, 0.0, 4.223025000000001, 0.0, 0.0, 0.0, 0.0, 0.0, 0.0, 99999.0, 0.0, 0.0, 0.0, 0.0, 0.0, 0.0, 99999.0, 0.0, 0.0, 0.0, 0.0, 0.0, 0.0, 99999.0)",0.0,-0.37,0.04,0.0,0.0,0.0,"(-1.0, 0.0, 0.0, 0.0, 0.0, 0.0, 0.0, 0.0, 0.0, 0.0, 0.0, 0.0, 0.0, 0.0, 0.0, 0.0, 0.0, 0.0, 0.0, 0.0, 0.0, 0.0, 0.0, 0.0, 0.0, 0.0, 0.0, 0.0, 0.0, 0.0, 0.0, 0.0, 0.0, 0.0, 0.0, 0.0)"
2025/07/05/17:48:02.555013,9438,1751712482,560147008,map,base_link,-2.0981175183530203,1.4155913361932366,-3.681,-0.05167465698054836,-0.04291944436169586,0.6589097428075021,-0.7492166588877861,"(1.6103609999999997, 0.0, 0.0, 0.0, 0.0, 0.0, 0.0, 1.6103609999999997, 0.0, 0.0, 0.0, 0.0, 0.0, 0.0, 4.198401, 0.0, 0.0, 0.0, 0.0, 0.0, 0.0, 99999.0, 0.0, 0.0, 0.0, 0.0, 0.0, 0.0, 99999.0, 0.0, 0.0, 0.0, 0.0, 0.0, 0.0, 99999.0)",0.01,-0.38,0.05,0.0,0.0,0.0,"(-1.0, 0.0, 0.0, 0.0, 0.0, 0.0, 0.0, 0.0, 0.0, 0.0, 0.0, 0.0, 0.0, 0.0, 0.0, 0.0, 0.0, 0.0, 0.0, 0.0, 0.0, 0.0, 0.0, 0.0, 0.0, 0.0, 0.0, 0.0, 0.0, 0.0, 0.0, 0.0, 0.0, 0.0, 0.0, 0.0)"
2025/07/05/17:48:02.654658,9439,1751712482,660147008,map,base_link,-2.0981175158633594,1.3602947978172542,-3.68,-0.051728515036360924,-0.043106097373162545,0.6547180318526603,-0.7528680653795639,"(1.6154409999999997, 0.0, 0.0, 0.0, 0.0, 0.0, 0.0, 1.6154409999999997, 0.0, 0.0, 0.0, 0.0, 0.0, 0.0, 4.137155999999999, 0.0, 0.0, 0.0, 0.0, 0.0, 0.0, 99999.0, 0.0, 0.0, 0.0, 0.0, 0.0, 0.0, 99999.0, 0.0, 0.0, 0.0, 0.0, 0.0, 0.0, 99999.0)",0.01,-0.38,0.05,0.0,0.0,0.0,"(-1.0, 0.0, 0.0, 0.0, 0.0, 0.0, 0.0, 0.0, 0.0, 0.0, 0.0, 0.0, 0.0, 0.0, 0.0, 0.0, 0.0, 0.0, 0.0, 0.0, 0.0, 0.0, 0.0, 0.0, 0.0, 0.0, 0.0, 0.0, 0.0, 0.0, 0.0, 0.0, 0.0, 0.0, 0.0, 0.0)"
2025/07/05/17:48:02.754492,9440,1751712482,760147008,map,base_link,-2.087074794038812,1.3049982621724352,-3.678,-0.05210520900636538,-0.04333813673850382,0.6504954718232485,-0.7564803330132827,"(1.6154409999999997, 0.0, 0.0, 0.0, 0.0, 0.0, 0.0, 1.6154409999999997, 0.0, 0.0, 0.0, 0.0, 0.0, 0.0, 4.137155999999999, 0.0, 0.0, 0.0, 0.0, 0.0, 0.0, 99999.0, 0.0, 0.0, 0.0, 0.0, 0.0, 0.0, 99999.0, 0.0, 0.0, 0.0, 0.0, 0.0, 0.0, 99999.0)",0.02,-0.39,0.04,0.0,0.0,0.0,"(-1.0, 0.0, 0.0, 0.0, 0.0, 0.0, 0.0, 0.0, 0.0, 0.0, 0.0, 0.0, 0.0, 0.0, 0.0, 0.0, 0.0, 0.0, 0.0, 0.0, 0.0, 0.0, 0.0, 0.0, 0.0, 0.0, 0.0, 0.0, 0.0, 0.0, 0.0, 0.0, 0.0, 0.0, 0.0, 0.0)"
2025/07/05/17:48:02.854753,9441,1751712482,860147008,map,base_link,-2.0870747911883103,1.2497017236875494,-3.677,-0.05217260827570264,-0.043338050561203316,0.6463024637109314,-0.7600611539346324,"(1.6154409999999997, 0.0, 0.0, 0.0, 0.0, 0.0, 0.0, 1.6154409999999997, 0.0, 0.0, 0.0, 0.0, 0.0, 0.0, 4.137155999999999, 0.0, 0.0, 0.0, 0.0, 0.0, 0.0, 99999.0, 0.0, 0.0, 0.0, 0.0, 0.0, 0.0, 99999.0, 0.0, 0.0, 0.0, 0.0, 0.0, 0.0, 99999.0)",0.02,-0.39,0.05,0.0,0.0,0.0,"(-1.0, 0.0, 0.0, 0.0, 0.0, 0.0, 0.0, 0.0, 0.0, 0.0, 0.0, 0.0, 0.0, 0.0, 0.0, 0.0, 0.0, 0.0, 0.0, 0.0, 0.0, 0.0, 0.0, 0.0, 0.0, 0.0, 0.0, 0.0, 0.0, 0.0, 0.0, 0.0, 0.0, 0.0, 0.0, 0.0)"
2025/07/05/17:48:02.974732,9442,1751712482,980147008,map,base_link,-2.0870747892648343,1.1944051854870064,-3.677,-0.051775798031751745,-0.043844251310748594,0.6412185199533916,-0.764353163160824,"(1.6205289999999997, 0.0, 0.0, 0.0, 0.0, 0.0, 0.0, 1.6205289999999997, 0.0, 0.0, 0.0, 0.0, 0.0, 0.0, 4.064256, 0.0, 0.0, 0.0, 0.0, 0.0, 0.0, 99999.0, 0.0, 0.0, 0.0, 0.0, 0.0, 0.0, 99999.0, 0.0, 0.0, 0.0, 0.0, 0.0, 0.0, 99999.0)",0.03,-0.39,0.05,0.0,0.0,0.0,"(-1.0, 0.0, 0.0, 0.0, 0.0, 0.0, 0.0, 0.0, 0.0, 0.0, 0.0, 0.0, 0.0, 0.0, 0.0, 0.0, 0.0, 0.0, 0.0, 0.0, 0.0, 0.0, 0.0, 0.0, 0.0, 0.0, 0.0, 0.0, 0.0, 0.0, 0.0, 0.0, 0.0, 0.0, 0.0, 0.0)"
2025/07/05/17:48:03.054015,9443,1751712483,60147008,map,base_link,-2.087074787286795,1.1501679547598627,-3.676,-0.05135418586723481,-0.04427576885302408,0.6378185718911461,-0.7671961113282091,"(1.6256249999999999, 0.0, 0.0, 0.0, 0.0, 0.0, 0.0, 1.6256249999999999, 0.0, 0.0, 0.0, 0.0, 0.0, 0.0, 4.028049, 0.0, 0.0, 0.0, 0.0, 0.0, 0.0, 99999.0, 0.0, 0.0, 0.0, 0.0, 0.0, 0.0, 99999.0, 0.0, 0.0, 0.0, 0.0, 0.0, 0.0, 99999.0)",0.04,-0.4,0.05,0.0,0.0,0.0,"(-1.0, 0.0, 0.0, 0.0, 0.0, 0.0, 0.0, 0.0, 0.0, 0.0, 0.0, 0.0, 0.0, 0.0, 0.0, 0.0, 0.0, 0.0, 0.0, 0.0, 0.0, 0.0, 0.0, 0.0, 0.0, 0.0, 0.0, 0.0, 0.0, 0.0, 0.0, 0.0, 0.0, 0.0, 0.0, 0.0)"
2025/07/05/17:48:03.155006,9444,1751712483,160147008,map,base_link,-2.0870747850024784,1.0948714164504159,-3.674,-0.05080202538463122,-0.04456207391123658,0.6336469727460272,-0.7706652254483423,"(1.6256249999999999, 0.0, 0.0, 0.0, 0.0, 0.0, 0.0, 1.6256249999999999, 0.0, 0.0, 0.0, 0.0, 0.0, 0.0, 4.028049, 0.0, 0.0, 0.0, 0.0, 0.0, 0.0, 99999.0, 0.0, 0.0, 0.0, 0.0, 0.0, 0.0, 99999.0, 0.0, 0.0, 0.0, 0.0, 0.0, 0.0, 99999.0)",0.04,-0.39,0.04,0.0,0.0,0.0,"(-1.0, 0.0, 0.0, 0.0, 0.0, 0.0, 0.0, 0.0, 0.0, 0.0, 0.0, 0.0, 0.0, 0.0, 0.0, 0.0, 0.0, 0.0, 0.0, 0.0, 0.0, 0.0, 0.0, 0.0, 0.0, 0.0, 0.0, 0.0, 0.0, 0.0, 0.0, 0.0, 0.0, 0.0, 0.0, 0.0)"
2025/07/05/17:48:03.254621,9445,1751712483,260147008,map,base_link,-2.0870747825812654,1.0395748778271703,-3.671,-0.05066047037369683,-0.04497110154182406,0.6293252238025806,-0.7741840087818028,"(1.6256249999999999, 0.0, 0.0, 0.0, 0.0, 0.0, 0.0, 1.6256249999999999, 0.0, 0.0, 0.0, 0.0, 0.0, 0.0, 4.028049, 0.0, 0.0, 0.0, 0.0, 0.0, 0.0, 99999.0, 0.0, 0.0, 0.0, 0.0, 0.0, 0.0, 99999.0, 0.0, 0.0, 0.0, 0.0, 0.0, 0.0, 99999.0)",0.04,-0.4,0.04,0.0,0.0,0.0,"(-1.0, 0.0, 0.0, 0.0, 0.0, 0.0, 0.0, 0.0, 0.0, 0.0, 0.0, 0.0, 0.0, 0.0, 0.0, 0.0, 0.0, 0.0, 0.0, 0.0, 0.0, 0.0, 0.0, 0.0, 0.0, 0.0, 0.0, 0.0, 0.0, 0.0, 0.0, 0.0, 0.0, 0.0, 0.0, 0.0)"
2025/07/05/17:48:03.354338,9446,1751712483,360147008,map,base_link,-2.0870747836307575,0.984278341172037,-3.668,-0.05011913753332535,-0.045022574647961354,0.6249267646329258,-0.7777709037180602,"(1.633284, 0.0, 0.0, 0.0, 0.0, 0.0, 0.0, 1.633284, 0.0, 0.0, 0.0, 0.0, 0.0, 0.0, 4.004001, 0.0, 0.0, 0.0, 0.0, 0.0, 0.0, 99999.0, 0.0, 0.0, 0.0, 0.0, 0.0, 0.0, 99999.0, 0.0, 0.0, 0.0, 0.0, 0.0, 0.0, 99999.0)",0.04,-0.4,0.04,0.0,0.0,0.0,"(-1.0, 0.0, 0.0, 0.0, 0.0, 0.0, 0.0, 0.0, 0.0, 0.0, 0.0, 0.0, 0.0, 0.0, 0.0, 0.0, 0.0, 0.0, 0.0, 0.0, 0.0, 0.0, 0.0, 0.0, 0.0, 0.0, 0.0, 0.0, 0.0, 0.0, 0.0, 0.0, 0.0, 0.0, 0.0, 0.0)"
2025/07/05/17:48:03.534269,9447,1751712483,540147008,map,base_link,-2.0870747800169185,0.895803879751659,-3.664,-0.05063580755828982,-0.04535751988006748,0.6170672391339851,-0.7839685789435763,"(1.633284, 0.0, 0.0, 0.0, 0.0, 0.0, 0.0, 1.633284, 0.0, 0.0, 0.0, 0.0, 0.0, 0.0, 4.004001, 0.0, 0.0, 0.0, 0.0, 0.0, 0.0, 99999.0, 0.0, 0.0, 0.0, 0.0, 0.0, 0.0, 99999.0, 0.0, 0.0, 0.0, 0.0, 0.0, 0.0, 99999.0)",0.04,-0.4,0.04,0.0,0.0,0.0,"(-1.0, 0.0, 0.0, 0.0, 0.0, 0.0, 0.0, 0.0, 0.0, 0.0, 0.0, 0.0, 0.0, 0.0, 0.0, 0.0, 0.0, 0.0, 0.0, 0.0, 0.0, 0.0, 0.0, 0.0, 0.0, 0.0, 0.0, 0.0, 0.0, 0.0, 0.0, 0.0, 0.0, 0.0, 0.0, 0.0)"
2025/07/05/17:48:03.637451,9448,1751712483,640147008,map,base_link,-2.0870747782442227,0.8515666489755762,-3.663,-0.05053657994383674,-0.045800400134322086,0.6126631276447397,-0.7873958784878681,"(1.6358409999999999, 0.0, 0.0, 0.0, 0.0, 0.0, 0.0, 1.6358409999999999, 0.0, 0.0, 0.0, 0.0, 0.0, 0.0, 3.9880090000000004, 0.0, 0.0, 0.0, 0.0, 0.0, 0.0, 99999.0, 0.0, 0.0, 0.0, 0.0, 0.0, 0.0, 99999.0, 0.0, 0.0, 0.0, 0.0, 0.0, 0.0, 99999.0)",0.05,-0.39,0.04,0.0,0.0,0.0,"(-1.0, 0.0, 0.0, 0.0, 0.0, 0.0, 0.0, 0.0, 0.0, 0.0, 0.0, 0.0, 0.0, 0.0, 0.0, 0.0, 0.0, 0.0, 0.0, 0.0, 0.0, 0.0, 0.0, 0.0, 0.0, 0.0, 0.0, 0.0, 0.0, 0.0, 0.0, 0.0, 0.0, 0.0, 0.0, 0.0)"
2025/07/05/17:48:03.734924,9449,1751712483,740147008,map,base_link,-2.087074776539975,0.8073294180677049,-3.663,-0.04990569367936502,-0.04619655400744544,0.6082479234211143,-0.7908285299545792,"(1.643524, 0.0, 0.0, 0.0, 0.0, 0.0, 0.0, 1.643524, 0.0, 0.0, 0.0, 0.0, 0.0, 0.0, 3.992004, 0.0, 0.0, 0.0, 0.0, 0.0, 0.0, 99999.0, 0.0, 0.0, 0.0, 0.0, 0.0, 0.0, 99999.0, 0.0, 0.0, 0.0, 0.0, 0.0, 0.0, 99999.0)",0.05,-0.4,0.04,0.0,0.0,0.0,"(-1.0, 0.0, 0.0, 0.0, 0.0, 0.0, 0.0, 0.0, 0.0, 0.0, 0.0, 0.0, 0.0, 0.0, 0.0, 0.0, 0.0, 0.0, 0.0, 0.0, 0.0, 0.0, 0.0, 0.0, 0.0, 0.0, 0.0, 0.0, 0.0, 0.0, 0.0, 0.0, 0.0, 0.0, 0.0, 0.0)"
2025/07/05/17:48:03.834509,9450,1751712483,840147008,map,base_link,-2.0870747739632645,0.7520328798639915,-3.662,-0.049217301539174564,-0.04692166233851624,0.6038205459777167,-0.7942145573381063,"(1.643524, 0.0, 0.0, 0.0, 0.0, 0.0, 0.0, 1.643524, 0.0, 0.0, 0.0, 0.0, 0.0, 0.0, 3.992004, 0.0, 0.0, 0.0, 0.0, 0.0, 0.0, 99999.0, 0.0, 0.0, 0.0, 0.0, 0.0, 0.0, 99999.0, 0.0, 0.0, 0.0, 0.0, 0.0, 0.0, 99999.0)",0.05,-0.4,0.03,0.0,0.0,0.0,"(-1.0, 0.0, 0.0, 0.0, 0.0, 0.0, 0.0, 0.0, 0.0, 0.0, 0.0, 0.0, 0.0, 0.0, 0.0, 0.0, 0.0, 0.0, 0.0, 0.0, 0.0, 0.0, 0.0, 0.0, 0.0, 0.0, 0.0, 0.0, 0.0, 0.0, 0.0, 0.0, 0.0, 0.0, 0.0, 0.0)"
2025/07/05/17:48:03.954121,9451,1751712483,960147008,map,base_link,-2.0870747747888108,0.696736342259003,-3.659,-0.04861984033328458,-0.047148828510293526,0.5984277943665232,-0.7983090091096876,"(1.6486560000000001, 0.0, 0.0, 0.0, 0.0, 0.0, 0.0, 1.6486560000000001, 0.0, 0.0, 0.0, 0.0, 0.0, 0.0, 3.9640810000000006, 0.0, 0.0, 0.0, 0.0, 0.0, 0.0, 99999.0, 0.0, 0.0, 0.0, 0.0, 0.0, 0.0, 99999.0, 0.0, 0.0, 0.0, 0.0, 0.0, 0.0, 99999.0)",0.05,-0.4,0.04,0.0,0.0,0.0,"(-1.0, 0.0, 0.0, 0.0, 0.0, 0.0, 0.0, 0.0, 0.0, 0.0, 0.0, 0.0, 0.0, 0.0, 0.0, 0.0, 0.0, 0.0, 0.0, 0.0, 0.0, 0.0, 0.0, 0.0, 0.0, 0.0, 0.0, 0.0, 0.0, 0.0, 0.0, 0.0, 0.0, 0.0, 0.0, 0.0)"
2025/07/05/17:48:04.054822,9452,1751712484,60147008,map,base_link,-2.076032049141885,0.6635584196072979,-3.656,-0.04853901920734788,-0.0467890191894025,0.5938683594596245,-0.8017325756949238,"(1.6486560000000001, 0.0, 0.0, 0.0, 0.0, 0.0, 0.0, 1.6486560000000001, 0.0, 0.0, 0.0, 0.0, 0.0, 0.0, 3.9640810000000006, 0.0, 0.0, 0.0, 0.0, 0.0, 0.0, 99999.0, 0.0, 0.0, 0.0, 0.0, 0.0, 0.0, 99999.0, 0.0, 0.0, 0.0, 0.0, 0.0, 0.0, 99999.0)",0.06,-0.4,0.03,0.0,0.0,0.0,"(-1.0, 0.0, 0.0, 0.0, 0.0, 0.0, 0.0, 0.0, 0.0, 0.0, 0.0, 0.0, 0.0, 0.0, 0.0, 0.0, 0.0, 0.0, 0.0, 0.0, 0.0, 0.0, 0.0, 0.0, 0.0, 0.0, 0.0, 0.0, 0.0, 0.0, 0.0, 0.0, 0.0, 0.0, 0.0, 0.0)"
2025/07/05/17:48:04.153935,9453,1751712484,160147008,map,base_link,-2.076032047076796,0.6193211887059984,-3.654,-0.0482149761832129,-0.046675824822753634,0.5889507448401322,-0.805377988028616,"(1.6486560000000001, 0.0, 0.0, 0.0, 0.0, 0.0, 0.0, 1.6486560000000001, 0.0, 0.0, 0.0, 0.0, 0.0, 0.0, 3.9164410000000003, 0.0, 0.0, 0.0, 0.0, 0.0, 0.0, 99999.0, 0.0, 0.0, 0.0, 0.0, 0.0, 0.0, 99999.0, 0.0, 0.0, 0.0, 0.0, 0.0, 0.0, 99999.0)",0.06,-0.41,0.03,0.0,0.0,0.0,"(-1.0, 0.0, 0.0, 0.0, 0.0, 0.0, 0.0, 0.0, 0.0, 0.0, 0.0, 0.0, 0.0, 0.0, 0.0, 0.0, 0.0, 0.0, 0.0, 0.0, 0.0, 0.0, 0.0, 0.0, 0.0, 0.0, 0.0, 0.0, 0.0, 0.0, 0.0, 0.0, 0.0, 0.0, 0.0, 0.0)"
2025/07/05/17:48:04.254249,9454,1751712484,260147008,map,base_link,-2.0760320454409955,0.5750839578972889,-3.65,-0.047174494399556295,-0.046641782564317294,0.5835117721879184,-0.8093905873652621,"(1.653796, 0.0, 0.0, 0.0, 0.0, 0.0, 0.0, 1.653796, 0.0, 0.0, 0.0, 0.0, 0.0, 0.0, 3.896676, 0.0, 0.0, 0.0, 0.0, 0.0, 0.0, 99999.0, 0.0, 0.0, 0.0, 0.0, 0.0, 0.0, 99999.0, 0.0, 0.0, 0.0, 0.0, 0.0, 0.0, 99999.0)",0.06,-0.44,0.03,0.0,0.0,0.0,"(-1.0, 0.0, 0.0, 0.0, 0.0, 0.0, 0.0, 0.0, 0.0, 0.0, 0.0, 0.0, 0.0, 0.0, 0.0, 0.0, 0.0, 0.0, 0.0, 0.0, 0.0, 0.0, 0.0, 0.0, 0.0, 0.0, 0.0, 0.0, 0.0, 0.0, 0.0, 0.0, 0.0, 0.0, 0.0, 0.0)"
2025/07/05/17:48:04.354577,9455,1751712484,360147008,map,base_link,-2.0649893236801784,0.5308467283480237,-3.647,-0.046189851355874376,-0.04740413177418735,0.5776751748718981,-0.8135789686681802,"(1.653796, 0.0, 0.0, 0.0, 0.0, 0.0, 0.0, 1.653796, 0.0, 0.0, 0.0, 0.0, 0.0, 0.0, 3.896676, 0.0, 0.0, 0.0, 0.0, 0.0, 0.0, 99999.0, 0.0, 0.0, 0.0, 0.0, 0.0, 0.0, 99999.0, 0.0, 0.0, 0.0, 0.0, 0.0, 0.0, 99999.0)",0.07,-0.44,0.03,0.0,0.0,0.0,"(-1.0, 0.0, 0.0, 0.0, 0.0, 0.0, 0.0, 0.0, 0.0, 0.0, 0.0, 0.0, 0.0, 0.0, 0.0, 0.0, 0.0, 0.0, 0.0, 0.0, 0.0, 0.0, 0.0, 0.0, 0.0, 0.0, 0.0, 0.0, 0.0, 0.0, 0.0, 0.0, 0.0, 0.0, 0.0, 0.0)"
2025/07/05/17:48:04.555817,9456,1751712484,560147008,map,base_link,-2.0318611484925166,0.42025365229107453,-3.645,-0.04552053085604908,-0.04866672242728383,0.5651348244362963,-0.8223029013740166,"(1.669264, 0.0, 0.0, 0.0, 0.0, 0.0, 0.0, 1.669264, 0.0, 0.0, 0.0, 0.0, 0.0, 0.0, 3.8927290000000005, 0.0, 0.0, 0.0, 0.0, 0.0, 0.0, 99999.0, 0.0, 0.0, 0.0, 0.0, 0.0, 0.0, 99999.0, 0.0, 0.0, 0.0, 0.0, 0.0, 0.0, 99999.0)",0.11,-0.47,0.02,0.0,0.0,0.0,"(-1.0, 0.0, 0.0, 0.0, 0.0, 0.0, 0.0, 0.0, 0.0, 0.0, 0.0, 0.0, 0.0, 0.0, 0.0, 0.0, 0.0, 0.0, 0.0, 0.0, 0.0, 0.0, 0.0, 0.0, 0.0, 0.0, 0.0, 0.0, 0.0, 0.0, 0.0, 0.0, 0.0, 0.0, 0.0, 0.0)"
2025/07/05/17:48:04.654800,9457,1751712484,660147008,map,base_link,-2.0097756987057602,0.36495711455810687,-3.644,-0.045906717958027,-0.04894692777745106,0.5584527175184784,-0.8268175940337129,"(1.669264, 0.0, 0.0, 0.0, 0.0, 0.0, 0.0, 1.669264, 0.0, 0.0, 0.0, 0.0, 0.0, 0.0, 3.8927290000000005, 0.0, 0.0, 0.0, 0.0, 0.0, 0.0, 99999.0, 0.0, 0.0, 0.0, 0.0, 0.0, 0.0, 99999.0, 0.0, 0.0, 0.0, 0.0, 0.0, 0.0, 99999.0)",0.12,-0.48,0.02,0.0,0.0,0.0,"(-1.0, 0.0, 0.0, 0.0, 0.0, 0.0, 0.0, 0.0, 0.0, 0.0, 0.0, 0.0, 0.0, 0.0, 0.0, 0.0, 0.0, 0.0, 0.0, 0.0, 0.0, 0.0, 0.0, 0.0, 0.0, 0.0, 0.0, 0.0, 0.0, 0.0, 0.0, 0.0, 0.0, 0.0, 0.0, 0.0)"
2025/07/05/17:48:04.754236,9458,1751712484,760147008,map,base_link,-1.9987329737341444,0.3096605764421904,-3.644,-0.0466465582824213,-0.04900535573768443,0.551576116829529,-0.8313761850406142,"(1.679616, 0.0, 0.0, 0.0, 0.0, 0.0, 0.0, 1.679616, 0.0, 0.0, 0.0, 0.0, 0.0, 0.0, 3.8533690000000003, 0.0, 0.0, 0.0, 0.0, 0.0, 0.0, 99999.0, 0.0, 0.0, 0.0, 0.0, 0.0, 0.0, 99999.0, 0.0, 0.0, 0.0, 0.0, 0.0, 0.0, 99999.0)",0.13,-0.49,0.03,0.0,0.0,0.0,"(-1.0, 0.0, 0.0, 0.0, 0.0, 0.0, 0.0, 0.0, 0.0, 0.0, 0.0, 0.0, 0.0, 0.0, 0.0, 0.0, 0.0, 0.0, 0.0, 0.0, 0.0, 0.0, 0.0, 0.0, 0.0, 0.0, 0.0, 0.0, 0.0, 0.0, 0.0, 0.0, 0.0, 0.0, 0.0, 0.0)"
2025/07/05/17:48:04.854671,9459,1751712484,860147008,map,base_link,-1.9876902470453732,0.2543640383023382,-3.645,-0.04683941468577574,-0.04909731549060258,0.5444989150004323,-0.8360122334074198,"(1.679616, 0.0, 0.0, 0.0, 0.0, 0.0, 0.0, 1.679616, 0.0, 0.0, 0.0, 0.0, 0.0, 0.0, 3.8533690000000003, 0.0, 0.0, 0.0, 0.0, 0.0, 0.0, 99999.0, 0.0, 0.0, 0.0, 0.0, 0.0, 0.0, 99999.0, 0.0, 0.0, 0.0, 0.0, 0.0, 0.0, 99999.0)",0.14,-0.5,0.02,0.0,0.0,0.0,"(-1.0, 0.0, 0.0, 0.0, 0.0, 0.0, 0.0, 0.0, 0.0, 0.0, 0.0, 0.0, 0.0, 0.0, 0.0, 0.0, 0.0, 0.0, 0.0, 0.0, 0.0, 0.0, 0.0, 0.0, 0.0, 0.0, 0.0, 0.0, 0.0, 0.0, 0.0, 0.0, 0.0, 0.0, 0.0, 0.0)"
2025/07/05/17:48:04.974957,9460,1751712484,981147008,map,base_link,-1.9766475217813635,0.19906749994573014,-3.642,-0.045698777805343836,-0.04940514603760228,0.5357506759874742,-0.8416899467328008,"(1.671849, 0.0, 0.0, 0.0, 0.0, 0.0, 0.0, 1.671849, 0.0, 0.0, 0.0, 0.0, 0.0, 0.0, 3.794704, 0.0, 0.0, 0.0, 0.0, 0.0, 0.0, 99999.0, 0.0, 0.0, 0.0, 0.0, 0.0, 0.0, 99999.0, 0.0, 0.0, 0.0, 0.0, 0.0, 0.0, 99999.0)",0.14,-0.51,0.02,0.0,0.0,0.0,"(-1.0, 0.0, 0.0, 0.0, 0.0, 0.0, 0.0, 0.0, 0.0, 0.0, 0.0, 0.0, 0.0, 0.0, 0.0, 0.0, 0.0, 0.0, 0.0, 0.0, 0.0, 0.0, 0.0, 0.0, 0.0, 0.0, 0.0, 0.0, 0.0, 0.0, 0.0, 0.0, 0.0, 0.0, 0.0, 0.0)"
2025/07/05/17:48:05.053730,9461,1751712485,60147008,map,base_link,-1.9656047959104923,0.16588957726797027,-3.64,-0.04476048846433457,-0.04988498580605789,0.5297848275349439,-0.8454797592948833,"(1.6641000000000001, 0.0, 0.0, 0.0, 0.0, 0.0, 0.0, 1.6641000000000001, 0.0, 0.0, 0.0, 0.0, 0.0, 0.0, 3.728761, 0.0, 0.0, 0.0, 0.0, 0.0, 0.0, 99999.0, 0.0, 0.0, 0.0, 0.0, 0.0, 0.0, 99999.0, 0.0, 0.0, 0.0, 0.0, 0.0, 0.0, 99999.0)",0.15,-0.5,0.02,0.0,0.0,0.0,"(-1.0, 0.0, 0.0, 0.0, 0.0, 0.0, 0.0, 0.0, 0.0, 0.0, 0.0, 0.0, 0.0, 0.0, 0.0, 0.0, 0.0, 0.0, 0.0, 0.0, 0.0, 0.0, 0.0, 0.0, 0.0, 0.0, 0.0, 0.0, 0.0, 0.0, 0.0, 0.0, 0.0, 0.0, 0.0, 0.0)"
2025/07/05/17:48:05.154083,9462,1751712485,160147008,map,base_link,-1.9435193500376142,0.12165234743614128,-3.638,-0.04375205527815098,-0.05031500956848791,0.522181625263721,-0.8502237986012856,"(1.6641000000000001, 0.0, 0.0, 0.0, 0.0, 0.0, 0.0, 1.6641000000000001, 0.0, 0.0, 0.0, 0.0, 0.0, 0.0, 3.728761, 0.0, 0.0, 0.0, 0.0, 0.0, 0.0, 99999.0, 0.0, 0.0, 0.0, 0.0, 0.0, 0.0, 99999.0, 0.0, 0.0, 0.0, 0.0, 0.0, 0.0, 99999.0)",0.16,-0.5,0.02,0.0,0.0,0.0,"(-1.0, 0.0, 0.0, 0.0, 0.0, 0.0, 0.0, 0.0, 0.0, 0.0, 0.0, 0.0, 0.0, 0.0, 0.0, 0.0, 0.0, 0.0, 0.0, 0.0, 0.0, 0.0, 0.0, 0.0, 0.0, 0.0, 0.0, 0.0, 0.0, 0.0, 0.0, 0.0, 0.0, 0.0, 0.0, 0.0)"
2025/07/05/17:48:05.255272,9463,1751712485,260147008,map,base_link,-1.9324766255091719,0.07741511675442664,-3.635,-0.04324231362995887,-0.05050783988462482,0.5146359065179538,-0.8548268503881715,"(1.6641000000000001, 0.0, 0.0, 0.0, 0.0, 0.0, 0.0, 1.6641000000000001, 0.0, 0.0, 0.0, 0.0, 0.0, 0.0, 3.728761, 0.0, 0.0, 0.0, 0.0, 0.0, 0.0, 99999.0, 0.0, 0.0, 0.0, 0.0, 0.0, 0.0, 99999.0, 0.0, 0.0, 0.0, 0.0, 0.0, 0.0, 99999.0)",0.17,-0.51,0.02,0.0,0.0,0.0,"(-1.0, 0.0, 0.0, 0.0, 0.0, 0.0, 0.0, 0.0, 0.0, 0.0, 0.0, 0.0, 0.0, 0.0, 0.0, 0.0, 0.0, 0.0, 0.0, 0.0, 0.0, 0.0, 0.0, 0.0, 0.0, 0.0, 0.0, 0.0, 0.0, 0.0, 0.0, 0.0, 0.0, 0.0, 0.0, 0.0)"
2025/07/05/17:48:05.354390,9464,1751712485,360147008,map,base_link,-1.9214339003274956,0.033177886185017214,-3.632,-0.04313955281285657,-0.0508379055174301,0.5068480590663749,-0.8594530419786508,"(1.6615209999999998, 0.0, 0.0, 0.0, 0.0, 0.0, 0.0, 1.6615209999999998, 0.0, 0.0, 0.0, 0.0, 0.0, 0.0, 3.7056250000000004, 0.0, 0.0, 0.0, 0.0, 0.0, 0.0, 99999.0, 0.0, 0.0, 0.0, 0.0, 0.0, 0.0, 99999.0, 0.0, 0.0, 0.0, 0.0, 0.0, 0.0, 99999.0)",0.18,-0.51,0.02,0.0,0.0,0.0,"(-1.0, 0.0, 0.0, 0.0, 0.0, 0.0, 0.0, 0.0, 0.0, 0.0, 0.0, 0.0, 0.0, 0.0, 0.0, 0.0, 0.0, 0.0, 0.0, 0.0, 0.0, 0.0, 0.0, 0.0, 0.0, 0.0, 0.0, 0.0, 0.0, 0.0, 0.0, 0.0, 0.0, 0.0, 0.0, 0.0)"
2025/07/05/17:48:05.554734,9465,1751712485,560147008,map,base_link,-1.8993484527317668,-0.05529657509157748,-3.624,-0.04266028301251858,-0.05147953589378838,0.4915822712021297,-0.8682608065997264,"(1.643524, 0.0, 0.0, 0.0, 0.0, 0.0, 0.0, 1.643524, 0.0, 0.0, 0.0, 0.0, 0.0, 0.0, 3.655744, 0.0, 0.0, 0.0, 0.0, 0.0, 0.0, 99999.0, 0.0, 0.0, 0.0, 0.0, 0.0, 0.0, 99999.0, 0.0, 0.0, 0.0, 0.0, 0.0, 0.0, 99999.0)",0.2,-0.5,0.01,0.0,0.0,0.0,"(-1.0, 0.0, 0.0, 0.0, 0.0, 0.0, 0.0, 0.0, 0.0, 0.0, 0.0, 0.0, 0.0, 0.0, 0.0, 0.0, 0.0, 0.0, 0.0, 0.0, 0.0, 0.0, 0.0, 0.0, 0.0, 0.0, 0.0, 0.0, 0.0, 0.0, 0.0, 0.0, 0.0, 0.0, 0.0, 0.0)"
2025/07/05/17:48:05.654291,9466,1751712485,660147008,map,base_link,-1.8883057266230647,-0.09953380559890401,-3.62,-0.04206811212984632,-0.051717904589133626,0.48361959519470843,-0.8727357099548787,"(1.6078240000000001, 0.0, 0.0, 0.0, 0.0, 0.0, 0.0, 1.6078240000000001, 0.0, 0.0, 0.0, 0.0, 0.0, 0.0, 3.613801, 0.0, 0.0, 0.0, 0.0, 0.0, 0.0, 99999.0, 0.0, 0.0, 0.0, 0.0, 0.0, 0.0, 99999.0, 0.0, 0.0, 0.0, 0.0, 0.0, 0.0, 99999.0)",0.21,-0.5,0.01,0.0,0.0,0.0,"(-1.0, 0.0, 0.0, 0.0, 0.0, 0.0, 0.0, 0.0, 0.0, 0.0, 0.0, 0.0, 0.0, 0.0, 0.0, 0.0, 0.0, 0.0, 0.0, 0.0, 0.0, 0.0, 0.0, 0.0, 0.0, 0.0, 0.0, 0.0, 0.0, 0.0, 0.0, 0.0, 0.0, 0.0, 0.0, 0.0)"
2025/07/05/17:48:05.755108,9467,1751712485,760147008,map,base_link,-1.8662202821749483,-0.1437710359939141,-3.616,-0.04218621989561011,-0.05171528013657915,0.4757653299535905,-0.8770366032643481,"(1.6078240000000001, 0.0, 0.0, 0.0, 0.0, 0.0, 0.0, 1.6078240000000001, 0.0, 0.0, 0.0, 0.0, 0.0, 0.0, 3.613801, 0.0, 0.0, 0.0, 0.0, 0.0, 0.0, 99999.0, 0.0, 0.0, 0.0, 0.0, 0.0, 0.0, 99999.0, 0.0, 0.0, 0.0, 0.0, 0.0, 0.0, 99999.0)",0.22,-0.5,0.01,0.0,0.0,0.0,"(-1.0, 0.0, 0.0, 0.0, 0.0, 0.0, 0.0, 0.0, 0.0, 0.0, 0.0, 0.0, 0.0, 0.0, 0.0, 0.0, 0.0, 0.0, 0.0, 0.0, 0.0, 0.0, 0.0, 0.0, 0.0, 0.0, 0.0, 0.0, 0.0, 0.0, 0.0, 0.0, 0.0, 0.0, 0.0, 0.0)"
