time,.header.seq,.header.stamp.secs,.header.stamp.nsecs,.header.frame_id,.twist.linear.x,.twist.linear.y,.twist.linear.z,.twist.angular.x,.twist.angular.y,.twist.angular.z
2025/07/05/17:47:55.695112,9375,1751712475,701147008,base_link,-0.2655811905860901,-0.2908332049846649,-0.018495528027415276,0.017229165979137394,0.02409882325636148,0.12877419163373816
2025/07/05/17:47:55.795334,9376,1751712475,802147008,base_link,-0.26763561367988586,-0.2935599684715271,-0.017450954765081406,0.012340761150476841,0.01817273037782378,0.12631788481037934
2025/07/05/17:47:55.915908,9377,1751712475,921147008,base_link,-0.2676027715206146,-0.30283430218696594,-0.027565855532884598,0.004121408932156458,0.007358697721806704,0.12491418996131706
2025/07/05/17:47:56.017289,9378,1751712476,22147008,base_link,-0.2678808569908142,-0.3087896406650543,-0.02594461292028427,-0.005545261489346009,-0.004790402726964271,0.12788133107322638
2025/07/05/17:47:56.115595,9379,1751712476,121147008,base_link,-0.26068586111068726,-0.317931592464447,-0.026188328862190247,-0.006790285733048835,-0.009384931710713985,0.13388119658740244
2025/07/05/17:47:56.217479,9380,1751712476,222147008,base_link,-0.25847193598747253,-0.32237303256988525,-0.02736419253051281,-0.005339307055862165,-0.011433693161842945,0.13615155142338006
2025/07/05/17:47:56.334681,9381,1751712476,340147008,base_link,-0.26117464900016785,-0.33722105622291565,-0.03017999790608883,-0.004737881446341191,-0.008817969759394036,0.13641910086412898
2025/07/05/17:47:56.515667,9382,1751712476,521147008,base_link,-0.2636415958404541,-0.35759612917900085,-0.03069629706442356,-0.008113350429806793,-0.005567707618664032,0.13332484729314198
2025/07/05/17:47:56.637694,9383,1751712476,643147008,base_link,-0.2553052306175232,-0.3771768808364868,-0.03231549635529518,-0.00046023155394809244,0.005873937685540067,0.13553455602221065
2025/07/05/17:47:56.715599,9384,1751712476,721147008,base_link,-0.267005980014801,-0.3849482238292694,-0.034391991794109344,0.00384145456051466,0.009119593759538813,0.13403265011645996
2025/07/05/17:47:56.795486,9385,1751712476,802147008,base_link,-0.26833680272102356,-0.39090806245803833,-0.03598647937178612,0.0053218388322597565,0.010748332642714518,0.13032174702508995
2025/07/05/17:47:56.895870,9386,1751712476,902147008,base_link,-0.2642765939235687,-0.3987610340118408,-0.03355880454182625,0.004479362333097009,0.010188298100611717,0.12780897646547548
2025/07/05/17:47:57.016438,9387,1751712477,22147008,base_link,-0.277721107006073,-0.4022864103317261,-0.03403628244996071,0.001960408356057151,0.008497534444859544,0.13147656072493322
2025/07/05/17:47:57.095827,9388,1751712477,101147008,base_link,-0.26565149426460266,-0.41119205951690674,-0.037623390555381775,0.002545484537250309,0.006513811594696673,0.13787120346441772
2025/07/05/17:47:57.195561,9389,1751712477,201147008,base_link,-0.2688153386116028,-0.4154531955718994,-0.030872169882059097,-0.0016255311872547425,-0.004559410747137539,0.13943591350405946
2025/07/05/17:47:57.275677,9390,1751712477,281147008,base_link,-0.2587627172470093,-0.4267193675041199,-0.031289223581552505,-0.008505499780141465,-0.0166356770848376,0.14013454243317786
2025/07/05/17:47:57.355168,9391,1751712477,360147008,base_link,-0.25938689708709717,-0.43616360425949097,-0.03287846967577934,-0.009791093093447396,-0.01886030345984353,0.1420554663228321
2025/07/05/17:47:57.515843,9392,1751712477,521147008,base_link,-0.2491440325975418,-0.4449230432510376,-0.03488076478242874,-0.008718276799238388,-0.01265798196452184,0.14253248106464805
2025/07/05/17:47:57.617724,9393,1751712477,624147008,base_link,-0.25238463282585144,-0.44666093587875366,-0.02887655980885029,0.0008527520319474638,0.008826869093323577,0.1411909196609255
2025/07/05/17:47:57.715912,9394,1751712477,721147008,base_link,-0.24171249568462372,-0.452905535697937,-0.030498001724481583,0.0037043657038844467,0.014287607455886007,0.13759580965844156
2025/07/05/17:47:57.796583,9395,1751712477,802147008,base_link,-0.2342243641614914,-0.45242831110954285,-0.021279577165842056,0.006259686713846453,0.013208842670045825,0.13327527154448163
2025/07/05/17:47:57.934309,9396,1751712477,940147008,base_link,-0.22698190808296204,-0.4491592347621918,-0.022086916491389275,0.005817083425330058,0.006869693051937818,0.1323235742174972
2025/07/05/17:47:58.018117,9397,1751712478,24147008,base_link,-0.2288818657398224,-0.45779338479042053,-0.023524414747953415,-0.00033491939906543124,-0.0057489075082097045,0.13476841771180595
2025/07/05/17:47:58.115561,9398,1751712478,121147008,base_link,-0.22517259418964386,-0.4578607976436615,-0.02185862325131893,-0.005955656417157181,-0.013644297663530534,0.1332434140295183
2025/07/05/17:47:58.196194,9399,1751712478,202147008,base_link,-0.2171383649110794,-0.45853883028030396,-0.015357079915702343,-0.00877016762618232,-0.011739869838408797,0.13537277991153054
2025/07/05/17:47:58.315429,9400,1751712478,321147008,base_link,-0.20557720959186554,-0.45732536911964417,-0.01640649512410164,-0.006296595771418725,-0.0034192903161969646,0.1368803595070728
2025/07/05/17:47:58.454512,9401,1751712478,460147008,base_link,-0.19107066094875336,-0.467079758644104,-0.012125317938625813,-0.0015219817754617004,0.005578185182437453,0.13480349994849808
2025/07/05/17:47:58.574062,9402,1751712478,580147008,base_link,-0.17705078423023224,-0.4650121331214905,-0.0076844594441354275,0.0013451133975430248,0.007903610633724559,0.12253661176025997
2025/07/05/17:47:58.654391,9403,1751712478,660147008,base_link,-0.1696111559867859,-0.4614492952823639,-0.008359430357813835,0.0021186436387527876,0.0061988036089545544,0.11863884032802542
2025/07/05/17:47:58.754443,9404,1751712478,760147008,base_link,-0.16505420207977295,-0.4743291735649109,-0.01450430043041706,0.0009598735424420739,0.002189888151137114,0.11645193934932427
2025/07/05/17:47:58.854667,9405,1751712478,861147008,base_link,-0.15269237756729126,-0.45700058341026306,-0.012693994678556919,0.001586311495402228,-0.004193505949266608,0.11672412667145503
2025/07/05/17:47:58.974685,9406,1751712478,980147008,base_link,-0.1389254480600357,-0.4619941711425781,-0.01998245157301426,0.001074630848447466,-0.007533474002587862,0.1207206706974888
2025/07/05/17:47:59.095718,9407,1751712479,101147008,base_link,-0.12138810753822327,-0.46595507860183716,-0.02351410500705242,0.00031595112353920846,-0.004839611015298281,0.1251341808686622
2025/07/05/17:47:59.195527,9408,1751712479,201147008,base_link,-0.10165774077177048,-0.4565327763557434,-0.021854037418961525,-0.0025056594468259325,0.001412446954209121,0.12664716199006812
2025/07/05/17:47:59.295502,9409,1751712479,302147008,base_link,-0.08832170069217682,-0.46562460064888,-0.01923726499080658,-0.005028288105147444,0.00910638438429353,0.12306539284266757
2025/07/05/17:47:59.476115,9410,1751712479,481147008,base_link,-0.0629827007651329,-0.46666520833969116,-0.027781980112195015,-0.003618458235530305,0.011288719395279046,0.11718078527052601
2025/07/05/17:47:59.596284,9411,1751712479,602147008,base_link,-0.05295651778578758,-0.46937599778175354,-0.023350222036242485,0.0016324797553619918,0.0007061061166518355,0.11161114255693233
2025/07/05/17:47:59.695582,9412,1751712479,702147008,base_link,-0.038010258227586746,-0.45412907004356384,-0.028569916263222694,0.004275481837432858,-0.004844123892132696,0.11437720791165071
2025/07/05/17:47:59.796827,9413,1751712479,802147008,base_link,-0.0313747376203537,-0.4522607922554016,-0.020391395315527916,0.0031907682648184615,-0.00753050728492975,0.11691693651213124
2025/07/05/17:47:59.934786,9414,1751712479,940147008,base_link,-0.021339794620871544,-0.45324084162712097,-0.026910627260804176,-0.00024130813390945641,-0.00655236022611075,0.11742531465242123
2025/07/05/17:48:00.018806,9415,1751712480,24147008,base_link,-0.01729917712509632,-0.44498971104621887,-0.026394100859761238,-0.0037582926326913597,-0.0004276448358384276,0.1179261430151571
2025/07/05/17:48:00.114817,9416,1751712480,121147008,base_link,-0.012950161471962929,-0.44620954990386963,-0.03191538527607918,-0.004222574156790132,0.004780807155482382,0.11686444427218126
2025/07/05/17:48:00.200294,9417,1751712480,202147008,base_link,-0.0055866725742816925,-0.43123388290405273,-0.03333146870136261,-0.004055402321102697,0.005976691119429823,0.11349170098861969
2025/07/05/17:48:00.295836,9418,1751712480,301147008,base_link,-0.00981500931084156,-0.4236137270927429,-0.034581128507852554,-0.0020141585860116882,0.006259599004204858,0.11273679940164748
2025/07/05/17:48:00.375551,9419,1751712480,381147008,base_link,-0.011233510449528694,-0.4133719205856323,-0.03663754463195801,0.00011823956000765311,0.004875940177209135,0.11464791942852817
2025/07/05/17:48:00.554555,9420,1751712480,560147008,base_link,-0.01562192477285862,-0.3997989296913147,-0.04962226003408432,0.0009349170131822283,-0.0026967139371818685,0.11451192442823785
2025/07/05/17:48:00.655190,9421,1751712480,660147008,base_link,-0.016934577375650406,-0.38036176562309265,-0.048007894307374954,0.0003552779650868804,-0.0014024173955122492,0.11385584946785929
2025/07/05/17:48:00.734917,9422,1751712480,740147008,base_link,-0.023818310350179672,-0.37267789244651794,-0.04782712087035179,-0.0009111793671665283,0.0007431194763438728,0.11420376719921328
2025/07/05/17:48:00.818649,9423,1751712480,824147008,base_link,-0.025039464235305786,-0.372998982667923,-0.05171043425798416,-0.0006874390846442545,0.006276820621631395,0.11696640732547668
2025/07/05/17:48:00.916250,9424,1751712480,921147008,base_link,-0.025089092552661896,-0.37489208579063416,-0.048279520124197006,0.00015741901504048254,0.008501962698168598,0.11892216405657922
2025/07/05/17:48:00.996747,9425,1751712481,2147008,base_link,-0.024939866736531258,-0.37479865550994873,-0.049684491008520126,0.00021390914452266941,0.004875289658998203,0.1188183978974924
2025/07/05/17:48:01.116239,9426,1751712481,121147008,base_link,-0.026088323444128036,-0.3751615881919861,-0.04952507093548775,-0.0007285518633147197,-0.004224308530786787,0.11652925572813738
2025/07/05/17:48:01.196073,9427,1751712481,202147008,base_link,-0.02464047446846962,-0.36909034848213196,-0.04869016632437706,-0.002069507988010615,-0.013647146517981592,0.11125158592115368
2025/07/05/17:48:01.295532,9428,1751712481,302147008,base_link,-0.03011271171271801,-0.3724380433559418,-0.05915260314941406,-0.002831690142412026,-0.013978031456804076,0.10883054244029894
2025/07/05/17:48:01.454619,9429,1751712481,461147008,base_link,-0.029784483835101128,-0.3698731064796448,-0.06022079288959503,-0.0016849394885754376,-0.004356685708340443,0.11125376015205943
2025/07/05/17:48:01.596833,9430,1751712481,602147008,base_link,-0.026586296036839485,-0.3706706762313843,-0.059415191411972046,-0.0038191220257610507,0.015995048456020924,0.11372420997763254
2025/07/05/17:48:01.695735,9431,1751712481,702147008,base_link,-0.018424369394779205,-0.36559492349624634,-0.05920695140957832,-0.003061132854039115,0.019939131661791752,0.11405724101356655
2025/07/05/17:48:01.796383,9432,1751712481,802147008,base_link,-0.013128840364515781,-0.3647726774215698,-0.05476333945989609,-0.0008160317738729087,0.012629289381975226,0.11195420702099712
2025/07/05/17:48:01.915500,9433,1751712481,922147008,base_link,-0.006497668568044901,-0.3731377422809601,-0.058957066386938095,0.001528897753648636,-0.001005523390650919,0.11103580206883637
2025/07/05/17:48:02.018808,9434,1751712482,24147008,base_link,-0.003048531711101532,-0.36717861890792847,-0.052552126348018646,0.004067648578659329,-0.020864002402112582,0.10815540364766847
2025/07/05/17:48:02.095575,9435,1751712482,102147008,base_link,-0.006135690491646528,-0.3709278404712677,-0.05718200281262398,0.004136422340508101,-0.023890931187576618,0.10879464699651806
2025/07/05/17:48:02.196034,9436,1751712482,202147008,base_link,-0.01034980546683073,-0.3722805976867676,-0.046091798692941666,0.0007002941475534447,-0.014904506786398942,0.1111042984805812
2025/07/05/17:48:02.295736,9437,1751712482,302147008,base_link,-0.00702093169093132,-0.38039082288742065,-0.058796513825654984,-0.00367517514300391,0.0022550987395681035,0.11120501553981645
2025/07/05/17:48:02.475089,9438,1751712482,480147008,base_link,0.0029998733662068844,-0.3765622675418854,-0.05695359408855438,-0.005358735144977308,0.019735159591859654,0.11368715358071452
2025/07/05/17:48:02.596276,9439,1751712482,602147008,base_link,0.015789808705449104,-0.3901742696762085,-0.057672832161188126,-0.00330194279915646,0.0073569713635925765,0.11014693945741502
2025/07/05/17:48:02.714762,9440,1751712482,720147008,base_link,0.020777501165866852,-0.3929099142551422,-0.05389446020126343,0.0005067684733503473,-0.005636961290494593,0.10858231906988189
2025/07/05/17:48:02.796918,9441,1751712482,802147008,base_link,0.024974275380373,-0.38933777809143066,-0.048404790461063385,0.0035646601779939697,-0.010819775438197256,0.10825274619552197
2025/07/05/17:48:02.895532,9442,1751712482,902147008,base_link,0.031202076002955437,-0.39366212487220764,-0.056117475032806396,0.00412849746560821,-0.0074030964949826595,0.10813021848681328
2025/07/05/17:48:03.018058,9443,1751712483,24147008,base_link,0.03831058740615845,-0.4005841016769409,-0.05412288010120392,-0.001021829636085377,0.001813073420428581,0.10894757150859428
2025/07/05/17:48:03.115611,9444,1751712483,121147008,base_link,0.040815792977809906,-0.39292407035827637,-0.048284221440553665,-0.003851789813971372,0.006613285650712919,0.109113972300579
2025/07/05/17:48:03.196701,9445,1751712483,202147008,base_link,0.04113428667187691,-0.3915197253227234,-0.04800616204738617,-0.004750726724514533,0.004399877517542245,0.10743400714438352
2025/07/05/17:48:03.295841,9446,1751712483,302147008,base_link,0.04062611982226372,-0.39869290590286255,-0.03773593530058861,-0.004949266283985966,0.001547350694257257,0.10826724630234297
2025/07/05/17:48:03.435045,9447,1751712483,441147008,base_link,0.04916096106171608,-0.40713444352149963,-0.04386907070875168,-0.0019691810196783175,-0.0011576618160753574,0.11016702122569454
2025/07/05/17:48:03.574664,9448,1751712483,581147008,base_link,0.053191397339105606,-0.4057612121105194,-0.04412193223834038,0.004831173794574807,-0.007200746309350265,0.10782944437685452
2025/07/05/17:48:03.676691,9449,1751712483,681147008,base_link,0.04918298125267029,-0.39460259675979614,-0.04001005366444588,0.003680826225286754,-0.0002631693410940425,0.10848622638475455
2025/07/05/17:48:03.796906,9450,1751712483,802147008,base_link,0.05249089375138283,-0.39614036679267883,-0.03820016607642174,-0.002878687896146861,0.007876814395410573,0.10846264502216132
2025/07/05/17:48:03.895523,9451,1751712483,901147008,base_link,0.05128290504217148,-0.3914095163345337,-0.03877146914601326,-0.007444532165514354,0.012167513164962899,0.11016806913942835
2025/07/05/17:48:03.996486,9452,1751712484,2147008,base_link,0.059614602476358414,-0.401336669921875,-0.04411974176764488,-0.005627854000532521,0.0017222788174462243,0.11019252822997574
2025/07/05/17:48:04.114796,9453,1751712484,121147008,base_link,0.06311987340450287,-0.40952935814857483,-0.04172135144472122,-0.002971086066705959,-0.010082359032382688,0.11060385608890776
2025/07/05/17:48:04.196330,9454,1751712484,202147008,base_link,0.07303854078054428,-0.4223558008670807,-0.039898309856653214,-0.006233918238575038,-0.009088546841691176,0.117893483772375
2025/07/05/17:48:04.295716,9455,1751712484,302147008,base_link,0.06894725561141968,-0.44675931334495544,-0.03613223135471344,-0.013219983491437813,0.005416019093073675,0.13042464566517978
2025/07/05/17:48:04.454592,9456,1751712484,460147008,base_link,0.09784648567438126,-0.45871683955192566,-0.03227657452225685,-0.010909994600142432,0.013799611867480004,0.14126250341342075
2025/07/05/17:48:04.598945,9457,1751712484,602147008,base_link,0.12158557772636414,-0.4802784025669098,-0.030040180310606956,0.005504341841862957,-0.0019387519275874017,0.15140765300245773
2025/07/05/17:48:04.716188,9458,1751712484,721147008,base_link,0.13394510746002197,-0.48989298939704895,-0.029640691354870796,0.012055601981370612,-0.012744105876013309,0.1541558181622194
2025/07/05/17:48:04.796058,9459,1751712484,802147008,base_link,0.13237057626247406,-0.5030314922332764,-0.028547538444399834,0.012600296214458032,-0.0170322501141039,0.159192699360912
2025/07/05/17:48:04.934372,9460,1751712484,940147008,base_link,0.14155082404613495,-0.5106661319732666,-0.026272090151906013,0.006734193857592895,-0.012485754345313693,0.16357555231181917
2025/07/05/17:48:05.018335,9461,1751712485,24147008,base_link,0.1475982517004013,-0.5129666924476624,-0.025236191228032112,-0.00887266500951223,0.0024585086421082952,0.1686370567032288
2025/07/05/17:48:05.115364,9462,1751712485,121147008,base_link,0.1642223447561264,-0.5117185115814209,-0.025398660451173782,-0.014904182370075385,0.012980355676748184,0.17291699498631755
2025/07/05/17:48:05.196519,9463,1751712485,202147008,base_link,0.17526262998580933,-0.5106074810028076,-0.02214324288070202,-0.01020340986600795,0.009214886784163483,0.17366507605704135
2025/07/05/17:48:05.295664,9464,1751712485,302147008,base_link,0.17950472235679626,-0.5111874341964722,-0.021788515150547028,-0.0010753762011086023,-0.0012041935613994782,0.1722885785454783
2025/07/05/17:48:05.474752,9465,1751712485,481147008,base_link,0.19304800033569336,-0.5103593468666077,-0.016647860407829285,0.002444251829909985,-0.0028466001351235143,0.17454466126848947
2025/07/05/17:48:05.596272,9466,1751712485,602147008,base_link,0.20632123947143555,-0.5047366619110107,-0.017680399119853973,0.00039788686187120816,-0.002384180189413082,0.17159202987191402
2025/07/05/17:48:05.714912,9467,1751712485,721147008,base_link,0.2210015505552292,-0.5033444166183472,-0.015674971044063568,-0.002266158044837008,-0.0030636049421568744,0.1743771255255818
2025/07/05/17:48:05.796750,9468,1751712485,802147008,base_link,0.22368982434272766,-0.5019956827163696,-0.011971093714237213,0.0037538789673319493,-0.011128076124194966,0.17354846506146346
2025/07/05/17:48:05.934825,9469,1751712485,940147008,base_link,0.2571863830089569,-0.49295446276664734,-0.014574003405869007,0.004256522247129369,-0.008286817234097238,0.17391627577121443
2025/07/05/17:48:06.018106,9470,1751712486,24147008,base_link,0.33205488324165344,-0.45744943618774414,-0.004795840010046959,0.022827206658037395,-0.03293140787015791,0.12960796779596423
2025/07/05/17:48:06.114888,9471,1751712486,121147008,base_link,0.3695617616176605,-0.4382435083389282,-0.004549869801849127,0.11750707679565123,-0.14455149111311683,0.0002771535206249759
2025/07/05/17:48:06.217730,9472,1751712486,224147008,base_link,0.40488749742507935,-0.4238688349723816,0.0005979014094918966,0.12141808531754657,-0.13934726009050097,-0.10642562475549183
2025/07/05/17:48:06.295893,9473,1751712486,302147008,base_link,0.42253395915031433,-0.41385000944137573,-0.0055288709700107574,0.057803798509050895,-0.05092803162293709,-0.17235053365870784
2025/07/05/17:48:06.434172,9474,1751712486,440147008,base_link,0.4008263647556305,-0.42999184131622314,-0.010457945056259632,-0.03660501002696811,0.07356805378497408,-0.23772502279023736
2025/07/05/17:48:06.595376,9475,1751712486,602147008,base_link,0.2962952256202698,-0.4864077568054199,-0.009006757289171219,-0.19104707617078276,0.2572272529470492,-0.1587302932646086
2025/07/05/17:48:06.675575,9476,1751712486,681147008,base_link,0.2821747660636902,-0.4866790473461151,-0.0012950088130310178,-0.20349379533169504,0.2939493777646768,-0.0004174211457508084
2025/07/05/17:48:06.754633,9477,1751712486,760147008,base_link,0.27316492795944214,-0.49342644214630127,0.002133850706741214,-0.10493987849481355,0.16767118381767918,0.09009274964876801
2025/07/05/17:48:06.833953,9478,1751712486,841147008,base_link,0.26968443393707275,-0.495917409658432,-0.0074683139100670815,0.08908614648693841,-0.11671280444351376,0.13735997223765511
2025/07/05/17:48:06.954613,9479,1751712486,960147008,base_link,0.2685626447200775,-0.49904191493988037,-0.008587120100855827,0.1805244758874613,-0.2575971412417296,0.1697668726999019
2025/07/05/17:48:07.019565,9480,1751712487,24147008,base_link,0.26968634128570557,-0.5003462433815002,-0.0102620180696249,0.16829584919241378,-0.2564004879014257,0.20090529869861298
2025/07/05/17:48:07.115809,9481,1751712487,121147008,base_link,0.27487629652023315,-0.49498841166496277,-0.006229506339877844,0.09079360515919072,-0.1542715921662282,0.21162076526179147
2025/07/05/17:48:07.217736,9482,1751712487,224147008,base_link,0.2782631814479828,-0.4950954020023346,-0.002958347788080573,-0.021593357261000333,0.006080953511404304,0.21704828382272995
2025/07/05/17:48:07.295415,9483,1751712487,302147008,base_link,0.2905562222003937,-0.4887659251689911,-0.0013625688152387738,-0.07815439768443003,0.09355612352489305,0.21564813880447833
2025/07/05/17:48:07.454465,9484,1751712487,460147008,base_link,0.3150012195110321,-0.48040902614593506,-0.0023679982405155897,-0.08654414321341118,0.11459269292669008,0.2054759346048278
2025/07/05/17:48:07.575078,9485,1751712487,581147008,base_link,0.336093932390213,-0.4683305323123932,-0.008631840348243713,-0.01105934175223333,0.01242973704876723,0.20177978288340404
2025/07/05/17:48:07.674672,9486,1751712487,681147008,base_link,0.3524097502231598,-0.4609760344028473,-0.004939051810652018,0.03193328924019179,-0.04008146568099635,0.20175677527915326
2025/07/05/17:48:07.795625,9487,1751712487,802147008,base_link,0.3651011288166046,-0.4546312093734741,-0.006008411757647991,0.04653655939497504,-0.050724435302867514,0.203456899687265
2025/07/05/17:48:07.874765,9488,1751712487,881147008,base_link,0.3716490864753723,-0.44878247380256653,-0.003581029362976551,0.03249394903532458,-0.031664182847678315,0.20367431489825752
2025/07/05/17:48:07.996104,9489,1751712488,2147008,base_link,0.38477909564971924,-0.43496400117874146,-0.00480679702013731,-0.003474782297298088,0.004462532542994679,0.20615934939822142
2025/07/05/17:48:08.094931,9490,1751712488,102147008,base_link,0.3955630958080292,-0.436259001493454,-0.00683607580140233,-0.023857848046920704,0.024295717333782055,0.204428574123688
2025/07/05/17:48:08.196717,9491,1751712488,202147008,base_link,0.4097442030906677,-0.42258521914482117,-0.0073869600892066956,-0.023136427515719045,0.021472954570542623,0.19829065942514068
2025/07/05/17:48:08.295600,9492,1751712488,302147008,base_link,0.4332911968231201,-0.41815635561943054,-0.006112861912697554,-0.009331455531699374,0.004232130450324428,0.19149299927120414
2025/07/05/17:48:08.474961,9493,1751712488,480147008,base_link,0.5344924926757812,-0.301183819770813,0.003949489910155535,0.007821966799288031,-0.011646110267066852,0.18190778648278363
2025/07/05/17:48:08.596126,9494,1751712488,602147008,base_link,0.555861234664917,-0.27362945675849915,0.001031233579851687,0.25890933693766743,-0.17430781845793802,-0.13209341914661255
2025/07/05/17:48:08.715762,9495,1751712488,721147008,base_link,0.5659264922142029,-0.27258193492889404,-0.004393778275698423,0.07863666571017702,-0.03500013064037371,-0.19709937837173236
2025/07/05/17:48:08.796623,9496,1751712488,802147008,base_link,0.5481172204017639,-0.3120395839214325,-0.013697794638574123,-0.14869939310915758,0.133263689039005,-0.22671263001378078
2025/07/05/17:48:08.895771,9497,1751712488,901147008,base_link,0.5006694197654724,-0.360262393951416,-0.013342978432774544,-0.2972269952546191,0.23549545185398374,-0.18079264259302785
2025/07/05/17:48:08.995510,9498,1751712489,2147008,base_link,0.4755951464176178,-0.37842708826065063,-0.005562806036323309,-0.3685565870648108,0.2939799229817591,-0.04415218763949972
2025/07/05/17:48:09.075040,9499,1751712489,81147008,base_link,0.4681994915008545,-0.36511868238449097,-0.0045038559474051,-0.22479998264750456,0.18986254744133504,0.08573225640986235
2025/07/05/17:48:09.195901,9500,1751712489,202147008,base_link,0.4634160101413727,-0.3590526282787323,-0.006273324601352215,0.088825637686405,-0.07516634759965937,0.13337864470482957
2025/07/05/17:48:09.295455,9501,1751712489,301147008,base_link,0.48065176606178284,-0.39188480377197266,-0.007216323167085648,0.27730758984795284,-0.23414798542061288,0.1798776589375751
2025/07/05/17:48:09.374748,9502,1751712489,381147008,base_link,0.49896788597106934,-0.40309837460517883,-0.01346503384411335,0.25479145977893447,-0.22793894950045562,0.21880036975737605
2025/07/05/17:48:09.534629,9503,1751712489,540147008,base_link,0.5391790866851807,-0.4267597794532776,-0.004367324989289045,-0.017851931749284067,-0.015204842604685645,0.24537988960492976
2025/07/05/17:48:09.618224,9504,1751712489,624147008,base_link,0.565652072429657,-0.4292069375514984,-0.00410386873409152,-0.14022299331611326,0.09050739220087232,0.24854821254401593
2025/07/05/17:48:09.715627,9505,1751712489,721147008,base_link,0.5949035286903381,-0.43394380807876587,-0.008854265324771404,-0.15460433865358114,0.10944154874507113,0.2473389458731794
2025/07/05/17:48:09.818569,9506,1751712489,824147008,base_link,0.6315790414810181,-0.4327487051486969,-0.007610677275806665,-0.09255870762936927,0.06539473938930856,0.25042703480009754
2025/07/05/17:48:09.916756,9507,1751712489,921147008,base_link,0.6635354161262512,-0.4305894374847412,-0.008833295665681362,-0.019418123308778668,0.012309348026271,0.2570166075419334
2025/07/05/17:48:09.995595,9508,1751712490,2147008,base_link,0.6940652132034302,-0.42531996965408325,-0.008674290031194687,0.05408372715402243,-0.036330834614835765,0.2685328662178745
2025/07/05/17:48:10.095117,9509,1751712490,102147008,base_link,0.7442137002944946,-0.37711045145988464,-0.007819403894245625,0.09355766326190049,-0.05788047985469391,0.2686895065958006
2025/07/05/17:48:10.195974,9510,1751712490,202147008,base_link,0.7976438403129578,-0.3017336428165436,-0.00010499804193386808,0.1534945755069091,-0.08439249221655047,0.19350321184467698
2025/07/05/17:48:10.295608,9511,1751712490,301147008,base_link,0.82204270362854,-0.29830747842788696,-0.006041254382580519,0.24312696129762862,-0.10646680879915801,0.05521435552150843
2025/07/05/17:48:10.454417,9512,1751712490,460147008,base_link,0.8747625350952148,-0.2654303312301636,-0.004377636592835188,0.06484218464972384,-0.02019219431875715,0.02431585116771854
2025/07/05/17:48:10.575264,9513,1751712490,580147008,base_link,0.908734142780304,-0.2556192874908447,-0.008318197913467884,-0.17556922552700713,0.08319302934582258,-0.01330518122055549
2025/07/05/17:48:10.654410,9514,1751712490,660147008,base_link,0.9424585700035095,-0.24432960152626038,-0.009934555739164352,-0.15523531735915325,0.070697195877688,-0.01976091717367693
2025/07/05/17:48:10.755913,9515,1751712490,760147008,base_link,0.9805957674980164,-0.22135582566261292,-0.0022551037836819887,-0.04597298306718636,0.01931787605902174,-0.03187500478483743
2025/07/05/17:48:10.854158,9516,1751712490,860147008,base_link,1.0319775342941284,-0.1647501438856125,-0.002743010176345706,0.10355169933442933,-0.05314766383666258,-0.08958525674794343
2025/07/05/17:48:10.954792,9517,1751712490,960147008,base_link,1.0631656646728516,-0.13782548904418945,0.010846754536032677,0.21065011833037336,-0.09988006963956668,-0.18060517876789567
2025/07/05/17:48:11.054880,9518,1751712491,60147008,base_link,1.0749883651733398,-0.15470731258392334,-0.005780041683465242,0.21497027281383535,-0.0893082210395163,-0.31469315366811856
2025/07/05/17:48:11.136266,9519,1751712491,140147008,base_link,1.0863759517669678,-0.15435606241226196,-0.005145228933542967,0.05851258637390175,-0.014061437372512642,-0.3513647894788791
2025/07/05/17:48:11.218098,9520,1751712491,224147008,base_link,1.0690828561782837,-0.20296286046504974,-0.02503303810954094,-0.15318782063842507,0.07958346310506476,-0.37403768450618885
2025/07/05/17:48:11.316459,9521,1751712491,321147008,base_link,1.0338544845581055,-0.28423282504081726,-0.013861882500350475,-0.28593156749213106,0.14739233621323064,-0.3398910914056499
2025/07/05/17:48:11.474909,9522,1751712491,481147008,base_link,0.9289484024047852,-0.3692384660243988,0.0025002146139740944,-0.365435341352644,0.21068854515648983,-0.24271260439373687
2025/07/05/17:48:11.595555,9523,1751712491,602147008,base_link,0.8967264890670776,-0.3722269535064697,0.004654887598007917,-0.1800432982468018,0.1653851554324978,0.06225031600642546
2025/07/05/17:48:11.675307,9524,1751712491,681147008,base_link,0.8863974213600159,-0.39649736881256104,0.004353659227490425,0.07590568531263797,-0.006838208968919787,0.11947197529413481
2025/07/05/17:48:11.774911,9525,1751712491,780147008,base_link,0.8846457600593567,-0.42024993896484375,-0.010579371824860573,0.2589132413372058,-0.15505979235483416,0.20473836652266847
2025/07/05/17:48:11.854328,9526,1751712491,860147008,base_link,0.9020560383796692,-0.42355653643608093,-0.001777784200385213,0.2732316724341187,-0.1816476481465704,0.2536854588347646
2025/07/05/17:48:11.956303,9527,1751712491,960147008,base_link,0.9411789178848267,-0.39957547187805176,-0.0028292506467550993,0.19265391826713188,-0.13839192609356174,0.2659964131777741
2025/07/05/17:48:12.054344,9528,1751712492,60147008,base_link,0.9981858134269714,-0.336091548204422,0.0011264928616583347,0.12112666212244239,-0.08409925179742389,0.20058626914000657
2025/07/05/17:48:12.134325,9529,1751712492,140147008,base_link,1.0380940437316895,-0.2779527008533478,0.013197341002523899,0.16001263208265562,-0.08496422110590221,0.07120220300739918
2025/07/05/17:48:12.217864,9530,1751712492,224147008,base_link,1.066348910331726,-0.2330852746963501,0.014166179113090038,0.24495970137469203,-0.10380748263249184,-0.13678469121818368
2025/07/05/17:48:12.316816,9531,1751712492,321147008,base_link,1.074800968170166,-0.22301067411899567,-0.0025024600327014923,0.14122131371004415,-0.050295800702836214,-0.23298652369823783
2025/07/05/17:48:12.495468,9532,1751712492,501147008,base_link,1.0682541131973267,-0.245661661028862,-0.0037244604900479317,-0.06458970910505198,0.04811410640699129,-0.3018946439809388
2025/07/05/17:48:12.574314,9533,1751712492,581147008,base_link,1.0400446653366089,-0.30099818110466003,-0.0045090289786458015,-0.26382045683122374,0.13379002475884882,-0.3338987123483062
2025/07/05/17:48:12.674967,9534,1751712492,681147008,base_link,0.9692010879516602,-0.3888359069824219,0.011973787099123001,-0.307761712857171,0.1608695148284576,-0.23495201187772963
2025/07/05/17:48:12.754346,9535,1751712492,761147008,base_link,0.9168698787689209,-0.44553399085998535,0.022247349843382835,-0.344070802846202,0.21299046110877246,-0.07766650357535784
2025/07/05/17:48:12.854488,9536,1751712492,860147008,base_link,0.8876387476921082,-0.4652910828590393,0.02710358425974846,-0.31208021511003126,0.24528742887457472,0.1554262762395682
2025/07/05/17:48:12.954224,9537,1751712492,961147008,base_link,0.8796555399894714,-0.46040675044059753,0.01681164838373661,-0.06467697504637085,0.09255975356713252,0.23087521525633142
2025/07/05/17:48:13.054476,9538,1751712493,60147008,base_link,0.8748900294303894,-0.4483392536640167,0.009066926315426826,0.30630139010298313,-0.16146752317917962,0.28057244016706856
2025/07/05/17:48:13.134791,9539,1751712493,140147008,base_link,0.8726906180381775,-0.44762152433395386,0.005428098142147064,0.36893773446432576,-0.22442580174338567,0.30946089376216857
2025/07/05/17:48:13.218859,9540,1751712493,223147008,base_link,0.8852385878562927,-0.4449106454849243,0.012652963399887085,0.2860656695575512,-0.19161104000149864,0.33275746796449246
2025/07/05/17:48:13.295468,9541,1751712493,301147008,base_link,0.8940768837928772,-0.4353862404823303,0.01885840855538845,0.12710217883750502,-0.1036750968179943,0.34464277048120656
2025/07/05/17:48:13.454715,9542,1751712493,460147008,base_link,0.9305146336555481,-0.41006967425346375,0.03009388968348503,-0.05791412692719282,0.0017803475877033147,0.34801063321841014
2025/07/05/17:48:13.595627,9543,1751712493,602147008,base_link,0.9782432317733765,-0.38088810443878174,0.023680437356233597,-0.10481715205734903,0.04010379327790743,0.34986825314709313
2025/07/05/17:48:13.695295,9544,1751712493,702147008,base_link,1.0150290727615356,-0.3673630952835083,0.01872663013637066,-0.016907659289623476,0.0050235206898650055,0.36465421269933257
2025/07/05/17:48:13.795833,9545,1751712493,802147008,base_link,1.057178020477295,-0.33255526423454285,0.0198356993496418,0.08296326579107513,-0.03770796233801965,0.3725452198573119
2025/07/05/17:48:13.914879,9546,1751712493,921147008,base_link,1.106679081916809,-0.25440549850463867,0.0313754640519619,0.17348938369444705,-0.0699727795746217,0.3347674991615795
2025/07/05/17:48:13.996392,9547,1751712494,2147008,base_link,1.1607866287231445,-0.1863926202058792,0.038958147168159485,0.20938475204719886,-0.06930576226430961,0.2602825094895993
2025/07/05/17:48:14.114996,9548,1751712494,121147008,base_link,1.1960480213165283,-0.15707612037658691,0.051451534032821655,0.24907578248761747,-0.05178069599017451,0.12163391762696205
2025/07/05/17:48:14.196750,9549,1751712494,202147008,base_link,1.2250772714614868,-0.14154700934886932,0.032451532781124115,0.07887377745453535,0.0004785976236363187,0.05660870060892643
2025/07/05/17:48:14.294369,9550,1751712494,301147008,base_link,1.261399269104004,-0.10715330392122269,0.04074469581246376,-0.08675809730152427,0.03256135755574529,0.019994254184182582
2025/07/05/17:48:14.417799,9551,1751712494,424147008,base_link,1.3084121942520142,-0.03844495862722397,0.041194092482328415,-0.18333236365413236,0.037563510857128876,-0.03302898041500851
2025/07/05/17:48:14.534690,9552,1751712494,541147008,base_link,1.344334363937378,0.04255864769220352,0.05138266459107399,0.01154471707518755,-0.0011259219556755372,-0.18840590961334874
2025/07/05/17:48:14.617693,9553,1751712494,624147008,base_link,1.3497263193130493,0.0432477742433548,0.049437884241342545,0.23547837882144831,-0.033441643382229366,-0.3692620580610129
2025/07/05/17:48:14.714725,9554,1751712494,721147008,base_link,1.3633224964141846,0.004117021802812815,0.025084704160690308,0.15090587858871538,-0.02931021459981597,-0.4040443310267023
2025/07/05/17:48:14.817724,9555,1751712494,824147008,base_link,1.3506907224655151,-0.10318908095359802,0.021464109420776367,-0.141656814387216,0.022618457914362268,-0.3602219173549648
2025/07/05/17:48:14.895837,9556,1751712494,902147008,base_link,1.316399335861206,-0.2215714156627655,0.020083796232938766,-0.4303716523273207,0.09725253279512176,-0.24413465745070279
2025/07/05/17:48:15.017740,9557,1751712495,24147008,base_link,1.2846581935882568,-0.313228577375412,0.04893695190548897,-0.7341447720448694,0.2246176842854867,0.04095251156047645
2025/07/05/17:48:15.095452,9558,1751712495,102147008,base_link,1.280853033065796,-0.3353768289089203,0.05273806303739548,-0.6025132828859543,0.21781569110451215,0.20037560763815748
2025/07/05/17:48:15.195753,9559,1751712495,202147008,base_link,1.2897173166275024,-0.34035858511924744,0.04557408392429352,-0.07456553481383918,0.06785858553098648,0.2951753702616896
2025/07/05/17:48:15.295288,9560,1751712495,302147008,base_link,1.3128759860992432,-0.33213990926742554,0.03540318086743355,0.40271167269485086,-0.08200435758087934,0.3564787764104051
2025/07/05/17:48:15.434802,9561,1751712495,441147008,base_link,1.3749669790267944,-0.14027248322963715,0.0394463911652565,0.6110179315748199,-0.1665736160236274,0.3532546945445727
2025/07/05/17:48:15.595516,9562,1751712495,602147008,base_link,1.4004223346710205,-0.045722801238298416,0.05946044251322746,0.6945013385419386,-0.14306518459659634,-0.06890718447767755
2025/07/05/17:48:15.674200,9563,1751712495,681147008,base_link,1.4151349067687988,-0.06179824098944664,0.055732954293489456,0.21562836995369913,-0.0054579397216706835,-0.20608251152074672
2025/07/05/17:48:15.754920,9564,1751712495,761147008,base_link,1.4282315969467163,-0.023126618936657906,0.03957533836364746,-0.25169579451130164,0.09639903736026002,-0.24897205391378027
2025/07/05/17:48:15.853804,9565,1751712495,860147008,base_link,1.4418725967407227,-0.041391294449567795,0.0321885347366333,-0.46439035884659663,0.13429098861519226,-0.3441690242255066
2025/07/05/17:48:15.954606,9566,1751712495,960147008,base_link,1.4577580690383911,-0.08699706196784973,0.03844863176345825,-0.4071933477064134,0.09148126241269153,-0.39757921574183136
2025/07/05/17:48:16.033551,9567,1751712496,40147008,base_link,1.4531514644622803,-0.080709308385849,0.03979700803756714,-0.23472430082949294,0.021309721055976116,-0.4065501129549436
2025/07/05/17:48:16.114630,9568,1751712496,121147008,base_link,1.4422290325164795,-0.11775696277618408,0.050660159438848495,-0.039957292066461,-0.0248144128575836,-0.4212161237990012
2025/07/05/17:48:16.217704,9569,1751712496,224147008,base_link,1.4305121898651123,-0.18281567096710205,0.04964328184723854,0.08029611409219062,-0.045022860267831734,-0.4099713561010802
2025/07/05/17:48:16.314894,9570,1751712496,321147008,base_link,1.4126161336898804,-0.2556234300136566,0.052815426141023636,0.060962858001052805,-0.024123985859341175,-0.3852746480215524
2025/07/05/17:48:16.454720,9571,1751712496,460147008,base_link,1.3231866359710693,-0.47033849358558655,0.05937045067548752,-0.05023057212398118,0.03341227760710958,-0.3339314057310781
2025/07/05/17:48:16.553755,9572,1751712496,560147008,base_link,1.2739980220794678,-0.5962727069854736,0.08989843726158142,-0.4309109210336259,0.22170889095733268,-0.05965898227609203
2025/07/05/17:48:16.618057,9573,1751712496,624147008,base_link,1.2630895376205444,-0.6036355495452881,0.09809167683124542,-0.575280455039873,0.32710229865523527,0.21367361690825365
2025/07/05/17:48:16.714705,9574,1751712496,721147008,base_link,1.2748191356658936,-0.62190181016922,0.07974294573068619,-0.30267634218919987,0.21653955830640442,0.3001040467122514
2025/07/05/17:48:16.817659,9575,1751712496,824147008,base_link,1.3388313055038452,-0.551812469959259,0.06001054868102074,0.21209403143841352,-0.061494818117078145,0.3433881951361004
2025/07/05/17:48:16.914864,9576,1751712496,921147008,base_link,1.3722929954528809,-0.4750453233718872,0.06789276003837585,0.6126994542141446,-0.28081738431202413,0.27645440748727446
2025/07/05/17:48:17.017647,9577,1751712497,24147008,base_link,1.4277130365371704,-0.4172219932079315,0.08148285001516342,0.7918278326670303,-0.3598356486145224,0.12413494158207165
2025/07/05/17:48:17.114756,9578,1751712497,121147008,base_link,1.4416042566299438,-0.34150591492652893,0.0975540354847908,0.5540419017276643,-0.22503530642196604,-0.06989746508609657
2025/07/05/17:48:17.215708,9579,1751712497,222147008,base_link,1.4395301342010498,-0.30435603857040405,0.07298849523067474,0.18521772955661173,-0.02300945242575613,-0.2701313746775422
2025/07/05/17:48:17.294791,9580,1751712497,301147008,base_link,1.4346054792404175,-0.3178935945034027,0.06114702299237251,-0.1349760797366083,0.11824109870561356,-0.37627945158407855
2025/07/05/17:48:17.418221,9581,1751712497,424147008,base_link,1.415634036064148,-0.3964979648590088,0.039693865925073624,-0.366487526698554,0.1908031077867544,-0.42859009789148517
2025/07/05/17:48:17.533790,9582,1751712497,540147008,base_link,1.354891300201416,-0.5270150899887085,0.04570532217621803,-0.43912562654766846,0.15830396528357252,-0.4147586906952662
2025/07/05/17:48:17.617644,9583,1751712497,624147008,base_link,1.2669994831085205,-0.6683389544487,0.06851022690534592,-0.4200262032731307,0.16708338291937552,-0.18509126574604068
2025/07/05/17:48:17.714977,9584,1751712497,721147008,base_link,1.213178277015686,-0.7486488223075867,0.09467311948537827,-0.5107884243215959,0.28666131745730433,0.09477858310232863
2025/07/05/17:48:17.795810,9585,1751712497,802147008,base_link,1.2066770792007446,-0.744712769985199,0.08423885703086853,-0.35024863529840444,0.264364195575177,0.26962488694586423
2025/07/05/17:48:17.895098,9586,1751712497,902147008,base_link,1.2105979919433594,-0.7501806616783142,0.06372164189815521,0.10001962551122712,0.04047640968987009,0.3500261849883724
2025/07/05/17:48:18.017558,9587,1751712498,24147008,base_link,1.2342873811721802,-0.7418807744979858,0.050616707652807236,0.46749718198605134,-0.20400152670281171,0.40689712751269935
2025/07/05/17:48:18.094642,9588,1751712498,102147008,base_link,1.253684401512146,-0.7235169410705566,0.05650196969509125,0.4752766614321253,-0.24759707369667472,0.4355398529000699
2025/07/05/17:48:18.195446,9589,1751712498,202147008,base_link,1.2694774866104126,-0.6907875537872314,0.054724808782339096,0.27649283523539264,-0.1743045938123874,0.43646881774186524
2025/07/05/17:48:18.295103,9590,1751712498,302147008,base_link,1.2798060178756714,-0.6374980807304382,0.06727492064237595,0.04235296795898871,-0.054097078180640135,0.40489326686374993
2025/07/05/17:48:18.437068,9591,1751712498,444147008,base_link,1.30997896194458,-0.5694330334663391,0.05574638396501541,-0.08782805140860392,0.02156115105760697,0.38400064702504866
2025/07/05/17:48:18.595859,9592,1751712498,602147008,base_link,1.3942694664001465,-0.2675989866256714,0.07885945588350296,0.07598007559311418,-0.006035989656939219,0.27742586736319225
2025/07/05/17:48:18.674384,9593,1751712498,681147008,base_link,1.3990957736968994,-0.17204028367996216,0.0954260304570198,0.6495767895960679,-0.09829018051822616,-0.10849564978163197
2025/07/05/17:48:18.795664,9594,1751712498,802147008,base_link,1.394724726676941,-0.1670583039522171,0.07278301566839218,0.6293488509496084,-0.06544141214792654,-0.32801788560122247
2025/07/05/17:48:18.894748,9595,1751712498,901147008,base_link,1.4023182392120361,-0.21791940927505493,0.028625283390283585,0.07180505800467646,0.043548371043425724,-0.37442802687606125
2025/07/05/17:48:18.973488,9596,1751712498,980147008,base_link,1.4044026136398315,-0.3090237081050873,0.012773587368428707,-0.4979178129422251,0.13063962560730488,-0.3691574759372316
2025/07/05/17:48:19.094423,9597,1751712499,101147008,base_link,1.377375841140747,-0.4511358141899109,0.03294137865304947,-0.8038347868449464,0.17927762699826,-0.2615170804516963
2025/07/05/17:48:19.195630,9598,1751712499,202147008,base_link,1.3392540216445923,-0.5502512454986572,0.06638635694980621,-0.7983313875742098,0.19737218470396942,-0.059125652279980914
2025/07/05/17:48:19.274234,9599,1751712499,281147008,base_link,1.3352305889129639,-0.550217866897583,0.054346103221178055,-0.5772737649679374,0.20104387862751752,0.21847963702367196
2025/07/05/17:48:19.395546,9600,1751712499,402147008,base_link,1.3593541383743286,-0.5477916598320007,0.0353238545358181,0.04355342933429377,0.04778316836646655,0.32466060809920444
2025/07/05/17:48:19.533866,9601,1751712499,541147008,base_link,1.381900668144226,-0.5117830038070679,0.025169292464852333,0.591073021784124,-0.1288524292454316,0.38438497299110574
2025/07/05/17:48:19.617527,9602,1751712499,624147008,base_link,1.410380482673645,-0.4437990188598633,0.022908935323357582,0.4971625623689634,-0.15757544238599366,0.40161027518337256
2025/07/05/17:48:19.714561,9603,1751712499,721147008,base_link,1.449700951576233,-0.2773858606815338,0.05568881705403328,0.3324282939345705,-0.11614285463647125,0.30790501854717883
2025/07/05/17:48:19.817795,9604,1751712499,824147008,base_link,1.4608914852142334,-0.15415550768375397,0.07245293259620667,0.3673368933483889,-0.05919537531597002,0.015713177447645242
2025/07/05/17:48:19.915073,9605,1751712499,921147008,base_link,1.457882046699524,-0.1210067868232727,0.057932041585445404,0.4078567677916969,-0.005085961205074967,-0.22714123702164496
2025/07/05/17:48:20.017705,9606,1751712500,24147008,base_link,1.4607274532318115,-0.14251457154750824,0.026867950335144997,0.04033679717256328,0.069967034708065,-0.3844372001662924
2025/07/05/17:48:20.114822,9607,1751712500,121147008,base_link,1.4433934688568115,-0.2147178202867508,-0.0043548219837248325,-0.2885133531139763,0.09548294913587804,-0.40449486583344185
2025/07/05/17:48:20.195665,9608,1751712500,202147008,base_link,1.4533201456069946,-0.3216019868850708,-0.0048751505091786385,-0.5660414150174383,0.09415264634068421,-0.35704244273785396
2025/07/05/17:48:20.314662,9609,1751712500,321147008,base_link,1.3924974203109741,-0.4962114691734314,0.027702027931809425,-0.672026602341266,0.09891954051436377,-0.1961504043604596
2025/07/05/17:48:20.474040,9610,1751712500,481147008,base_link,1.380861520767212,-0.5374401807785034,0.029425647109746933,-0.6956980001208257,0.1637730157507499,0.11348612393832949
2025/07/05/17:48:20.595565,9611,1751712500,602147008,base_link,1.389633297920227,-0.5412927269935608,0.011316448450088501,0.29030015705018936,-0.005488568065309573,0.36663513910038237
2025/07/05/17:48:20.694760,9612,1751712500,701147008,base_link,1.387785792350769,-0.5182201862335205,-0.0038288773503154516,0.5372001085073789,-0.08278813182402679,0.40787340930605226
2025/07/05/17:48:20.773741,9613,1751712500,780147008,base_link,1.3947818279266357,-0.49384865164756775,-0.008045629598200321,0.5101053281500892,-0.1188799389634237,0.4442858439238204
2025/07/05/17:48:20.894522,9614,1751712500,901147008,base_link,1.4119127988815308,-0.44424256682395935,0.003461122512817383,0.2639619158302249,-0.09074685841152737,0.434182177523576
2025/07/05/17:48:20.995741,9615,1751712501,2147008,base_link,1.4244022369384766,-0.40341517329216003,0.01002893503755331,0.019146082607669625,-0.04092970995908998,0.40402829853282285
2025/07/05/17:48:21.073782,9616,1751712501,81147008,base_link,1.4369364976882935,-0.37163329124450684,0.01830078288912773,-0.10910020482185889,-0.0025077446570080115,0.39062195619333245
2025/07/05/17:48:21.195786,9617,1751712501,202147008,base_link,1.4281212091445923,-0.30523645877838135,0.010321782901883125,-0.09857839275287951,0.017963919570397627,0.3890723121019202
2025/07/05/17:48:21.273784,9618,1751712501,281147008,base_link,1.4272090196609497,-0.26079094409942627,0.011232470162212849,-0.00448825664072279,0.016663180088945847,0.38711340310863257
2025/07/05/17:48:21.373556,9619,1751712501,380147008,base_link,1.4256770610809326,-0.20919808745384216,0.009046562947332859,0.06859877082278774,0.0050690781257764165,0.3925890071491489
2025/07/05/17:48:21.553795,9620,1751712501,560147008,base_link,1.408942699432373,-0.11347664892673492,0.01421795692294836,0.10165486434268567,-0.0033634438639024884,0.3810798130844487
2025/07/05/17:48:21.653787,9621,1751712501,660147008,base_link,1.3990787267684937,-0.057497985661029816,0.021039502695202827,0.03901185780419965,-0.0009109593073416116,0.3718066098047977
2025/07/05/17:48:21.733819,9622,1751712501,741147008,base_link,1.3945457935333252,-0.011486412957310677,0.021168332546949387,-0.00020099405598114628,-0.0042973264951622295,0.3639278719017993
2025/07/05/17:48:21.817481,9623,1751712501,824147008,base_link,1.3973193168640137,0.01966060698032379,0.018809093162417412,-0.030060003183688372,-0.009735857090582355,0.35302049631558285
2025/07/05/17:48:21.953720,9624,1751712501,960147008,base_link,1.3815081119537354,0.0859481617808342,0.026712464168667793,-0.028051709771715623,-0.0062585314702692865,0.3542223934014539
2025/07/05/17:48:22.017404,9625,1751712502,24147008,base_link,1.3689515590667725,0.1238788515329361,0.018742017447948456,-0.022083166921554015,-0.005535375904421784,0.3588045706282653
2025/07/05/17:48:22.114773,9626,1751712502,121147008,base_link,1.3572986125946045,0.17695185542106628,0.021394265815615654,-0.00238762787252169,-0.0001416216550478096,0.35035665389684695
2025/07/05/17:48:22.195723,9627,1751712502,202147008,base_link,1.3481134176254272,0.20889776945114136,0.018792377784848213,0.0016923455584219246,-0.0005818780149987831,0.34807913174612815
2025/07/05/17:48:22.273680,9628,1751712502,281147008,base_link,1.3467543125152588,0.250093936920166,0.02189294435083866,-0.004111729831665287,-0.00793702006244858,0.35572553524702843
2025/07/05/17:48:22.395489,9629,1751712502,402147008,base_link,1.326962947845459,0.3127721846103668,0.018212707713246346,-0.0039309632857989635,-0.006611243855480717,0.35629160509582997
2025/07/05/17:48:22.553807,9630,1751712502,560147008,base_link,1.3048702478408813,0.38302668929100037,0.015545411966741085,0.0033690160947439513,0.0007350116859910589,0.35135177036926474
2025/07/05/17:48:22.634112,9631,1751712502,641147008,base_link,1.2869648933410645,0.4242646098136902,0.008841589093208313,-0.006781465245533469,-0.008303828050605257,0.3708166482018836
2025/07/05/17:48:22.753811,9632,1751712502,760147008,base_link,1.2593352794647217,0.4828580319881439,0.011853495612740517,0.003209345711130636,-0.006274882427497963,0.364813385378382
2025/07/05/17:48:22.853706,9633,1751712502,860147008,base_link,1.2404251098632812,0.5229083895683289,0.01662348210811615,0.009608012168901704,0.000581589409355274,0.35635476936326316
2025/07/05/17:48:22.953567,9634,1751712502,960147008,base_link,1.2239751815795898,0.5707253813743591,0.01643632911145687,-0.0018288950343762558,-0.006398736558859487,0.3625584073797858
2025/07/05/17:48:23.017282,9635,1751712503,24147008,base_link,1.2116016149520874,0.5961255431175232,0.015354860574007034,0.001508877727586129,-0.006694814831236609,0.3551290669253881
2025/07/05/17:48:23.114846,9636,1751712503,121147008,base_link,1.1774013042449951,0.6330016255378723,0.011525013484060764,0.00024950463326039313,-0.0083816795185895,0.35658222728855543
2025/07/05/17:48:23.216862,9637,1751712503,224147008,base_link,1.1610560417175293,0.6824998259544373,0.015422412194311619,-0.002952048445016127,-0.007111558347319011,0.3546725642164256
2025/07/05/17:48:23.294557,9638,1751712503,301147008,base_link,1.1320472955703735,0.6980984807014465,0.00945649016648531,0.004745404572583149,-0.0005998056551911289,0.33903808464217594
2025/07/05/17:48:23.417904,9639,1751712503,424147008,base_link,1.11360502243042,0.7389072775840759,0.010328555479645729,0.007561671890299944,0.0019035264623106472,0.33772394952228924
2025/07/05/17:48:23.553686,9640,1751712503,561147008,base_link,1.0687921047210693,0.787257969379425,0.006096770986914635,-0.015314176365612837,-0.028382328214157072,0.3648244065567176
2025/07/05/17:48:23.653931,9641,1751712503,660147008,base_link,1.0451420545578003,0.8212069272994995,0.003203038591891527,-0.0011647284509896869,-0.015229291899674237,0.35802829709577527
2025/07/05/17:48:23.733712,9642,1751712503,740147008,base_link,1.005731225013733,0.8505098223686218,0.0021291994489729404,0.0034561740034049146,-0.007756763395790397,0.36174914841643774
2025/07/05/17:48:23.817388,9643,1751712503,824147008,base_link,0.9801332950592041,0.8713799715042114,0.0014270119136199355,0.006763523567329319,0.0007379088105772709,0.3561713460911378
2025/07/05/17:48:23.933832,9644,1751712503,940147008,base_link,0.932809591293335,0.9156820178031921,0.002411555266007781,0.013891937949579852,0.013482979339632946,0.36080784556825957
2025/07/05/17:48:24.017293,9645,1751712504,24147008,base_link,0.9038079977035522,0.9329857230186462,0.002078782068565488,0.008694713500865685,0.008046006598745017,0.3601550093420176
2025/07/05/17:48:24.114631,9646,1751712504,121147008,base_link,0.8691178560256958,0.9628734588623047,-0.0016203612321987748,-0.0009178819798463175,-0.0018721132254450878,0.3588210699607658
2025/07/05/17:48:24.195461,9647,1751712504,202147008,base_link,0.848649263381958,0.9776688814163208,0.0011343403020873666,-0.004819931220494331,-0.006731137409332181,0.3517847966542628
2025/07/05/17:48:24.294755,9648,1751712504,301147008,base_link,0.7892647981643677,1.0057024955749512,0.00182457291521132,-0.005942029652766703,-0.01517281641125217,0.36345868392273784
2025/07/05/17:48:24.373708,9649,1751712504,381147008,base_link,0.7577628493309021,1.0238486528396606,0.0005340786301530898,-0.0007194721461009773,-0.018255346945431676,0.35872169656740904
2025/07/05/17:48:24.573911,9650,1751712504,581147008,base_link,0.6677070260047913,1.0661941766738892,0.0008686369983479381,0.002348708226466923,-0.0031411467009887784,0.37051086799091604
2025/07/05/17:48:24.673587,9651,1751712504,681147008,base_link,0.6335275769233704,1.0960195064544678,0.0028257123194634914,0.008857354494247516,0.023812822530530815,0.35583763371873783
2025/07/05/17:48:24.773917,9652,1751712504,781147008,base_link,0.5790252089500427,1.1198652982711792,0.0033998722210526466,0.006060785341922975,0.00973621546259483,0.3618461134042361
2025/07/05/17:48:24.894817,9653,1751712504,902147008,base_link,0.3787235617637634,1.1800073385238647,0.01733061857521534,0.011261871731262746,0.015877613519943677,0.33308025379808825
2025/07/05/17:48:24.973806,9654,1751712504,980147008,base_link,0.2764473259449005,1.197009563446045,0.027347024530172348,0.04063256913882559,0.2706993745632319,0.11154664770358827
2025/07/05/17:48:25.073736,9655,1751712505,81147008,base_link,0.19047066569328308,1.2119978666305542,0.0418165884912014,0.0363700035232777,0.4910890476765255,-0.16582796193912586
2025/07/05/17:48:25.173393,9656,1751712505,181147008,base_link,0.19657686352729797,1.2350000143051147,0.02129349298775196,-0.019817308856538735,0.3391012082214768,-0.32956874359227806
2025/07/05/17:48:25.273861,9657,1751712505,281147008,base_link,0.19363299012184143,1.2441078424453735,-0.0030073595698922873,-0.07185774120231626,-0.10744930780969483,-0.3841564105554731
2025/07/05/17:48:25.395574,9658,1751712505,402147008,base_link,0.29197630286216736,1.2413743734359741,-0.020022189244627953,-0.09383261772275091,-0.4255364564437064,-0.4089993138173863
2025/07/05/17:48:25.553783,9659,1751712505,560147008,base_link,0.5479610562324524,1.1765183210372925,0.003419921500608325,-0.14477214517605463,-0.6327342297663534,-0.29738066372366967
2025/07/05/17:48:25.636834,9660,1751712505,643147008,base_link,0.5820985436439514,1.182774543762207,0.02121029421687126,-0.22179528271281007,-0.7194924770094313,0.10045148324502899
2025/07/05/17:48:25.715022,9661,1751712505,721147008,base_link,0.5742144584655762,1.1757690906524658,0.008683593012392521,-0.16225845311437645,-0.409201742002306,0.25392914625106566
2025/07/05/17:48:25.814729,9662,1751712505,821147008,base_link,0.5829981565475464,1.2016935348510742,0.003226224333047867,0.011573199356189005,0.19259021393270223,0.3273397931948271
2025/07/05/17:48:25.914948,9663,1751712505,921147008,base_link,0.5788589119911194,1.21570885181427,-0.013490878976881504,0.11142960924120453,0.5006844932235687,0.3771639730039
2025/07/05/17:48:25.995658,9664,1751712506,2147008,base_link,0.5534983277320862,1.2132899761199951,-0.024823198094964027,0.14183359479332805,0.5033681681973012,0.43907858584106496
2025/07/05/17:48:26.114799,9665,1751712506,121147008,base_link,0.46198567748069763,1.2630958557128906,0.0017323122592642903,0.10874045268726673,0.3261338991020608,0.43994613593583687
2025/07/05/17:48:26.195850,9666,1751712506,202147008,base_link,0.2416084259748459,1.2899771928787231,0.02265908382833004,0.06517158327600417,0.16594224042955155,0.3120044796924781
2025/07/05/17:48:26.273770,9667,1751712506,281147008,base_link,0.17945052683353424,1.3031020164489746,0.032655369490385056,0.04018496458874559,0.42007099403806814,-0.009423941098059246
2025/07/05/17:48:26.415681,9668,1751712506,422147008,base_link,0.14439179003238678,1.3034790754318237,0.003721501212567091,-0.010277983649937691,0.4398115036462173,-0.27845999532894683
2025/07/05/17:48:26.533865,9669,1751712506,540147008,base_link,0.22213999927043915,1.3204066753387451,-0.0328841470181942,-0.0781713971058821,-0.16609417356281694,-0.3726482921594496
2025/07/05/17:48:26.615565,9670,1751712506,622147008,base_link,0.3398926258087158,1.3278546333312988,-0.03086070902645588,-0.07821545955387506,-0.5964351150228396,-0.3065692431138116
2025/07/05/17:48:26.714897,9671,1751712506,721147008,base_link,0.5089873671531677,1.2896153926849365,0.003946580458432436,-0.08976407870827549,-0.77425198064535,-0.14132667627051515
2025/07/05/17:48:26.794713,9672,1751712506,802147008,base_link,0.5116784572601318,1.282920002937317,0.019442802295088768,-0.15593523591774888,-0.8934102888053822,0.13152015181150947
2025/07/05/17:48:26.894774,9673,1751712506,901147008,base_link,0.5054341554641724,1.2916960716247559,0.013456887565553188,-0.11860677670798171,-0.4125339415918566,0.29516534237348624
2025/07/05/17:48:26.995816,9674,1751712507,2147008,base_link,0.4899423122406006,1.2896876335144043,-0.010588751174509525,-0.029188504932861924,0.1507247191529732,0.3480992228575759
2025/07/05/17:48:27.073669,9675,1751712507,80147008,base_link,0.4036868214607239,1.323608636856079,-0.02420046366751194,0.06096632509961479,0.5986640866842758,0.39822955677267763
2025/07/05/17:48:27.153932,9676,1751712507,160147008,base_link,0.30514925718307495,1.3519984483718872,-0.015178900212049484,0.12625894789005998,0.7568638486233685,0.3347246153934096
2025/07/05/17:48:27.253626,9677,1751712507,260147008,base_link,0.14404261112213135,1.3641643524169922,0.02781425416469574,0.1397884932726456,0.8290925543711547,0.09352293263079116
2025/07/05/17:48:27.333761,9678,1751712507,340147008,base_link,0.12394627928733826,1.3619440793991089,0.038291674107313156,0.07796032027003406,0.7590453065236685,-0.17709420852473273
2025/07/05/17:48:27.495426,9679,1751712507,502147008,base_link,0.14012080430984497,1.3608672618865967,-0.020097222179174423,-0.08320524792255354,-0.12644687918488925,-0.36782042821165684
2025/07/05/17:48:27.614804,9680,1751712507,622147008,base_link,0.2850121557712555,1.3744677305221558,-0.03849496692419052,-0.12776374444532945,-0.7052289838898461,-0.39786817191566265
2025/07/05/17:48:27.694638,9681,1751712507,702147008,base_link,0.43842658400535583,1.3379312753677368,-0.01860010251402855,-0.0908077432711833,-0.7695877778408473,-0.2961187600826246
2025/07/05/17:48:27.795572,9682,1751712507,802147008,base_link,0.5342991352081299,1.3154947757720947,0.028200047090649605,-0.12473418079763643,-0.8347940134010869,0.01938335624522737
2025/07/05/17:48:27.914792,9683,1751712507,921147008,base_link,0.5294514894485474,1.3212841749191284,0.027240734547376633,-0.13583232107549212,-0.5007673643635512,0.2773182696138463
2025/07/05/17:48:28.014739,9684,1751712508,22147008,base_link,0.5238037109375,1.3220746517181396,0.0003806259192060679,-0.015862019815946708,0.30811679269955444,0.3648468258064688
2025/07/05/17:48:28.114755,9685,1751712508,121147008,base_link,0.4593227207660675,1.3554099798202515,-0.021916618570685387,0.06739703339399752,0.6513352138089464,0.41260618728093346
2025/07/05/17:48:28.221783,9686,1751712508,224147008,base_link,0.36015084385871887,1.378981590270996,-0.0029602819122374058,0.1260890898864104,0.672215654825372,0.35562603383317837
2025/07/05/17:48:28.315773,9687,1751712508,321147008,base_link,0.18668174743652344,1.4069042205810547,0.02492864802479744,0.11940046029625409,0.5754873964583868,0.21871765197658918
2025/07/05/17:48:28.453775,9688,1751712508,460147008,base_link,0.11216069757938385,1.4003244638442993,0.023598382249474525,0.04960777993620797,0.5265278405984392,-0.09883131954140226
2025/07/05/17:48:28.574838,9689,1751712508,580147008,base_link,0.16499900817871094,1.4193432331085205,-0.015234402380883694,-0.0881818146370924,-0.20505111557852246,-0.3687141922202396
2025/07/05/17:48:28.653528,9690,1751712508,660147008,base_link,0.25095489621162415,1.4137861728668213,-0.02364729531109333,-0.08961464205370728,-0.5102728088028351,-0.3625231456430672
2025/07/05/17:48:28.756603,9691,1751712508,760147008,base_link,0.3978566527366638,1.4028198719024658,-0.00933015625923872,-0.06552312497943709,-0.7327192258166181,-0.23389543282429556
2025/07/05/17:48:28.875623,9692,1751712508,881147008,base_link,0.507702648639679,1.3921140432357788,0.033788394182920456,-0.09889766278233465,-0.7780137103605264,0.08851061359808442
2025/07/05/17:48:28.995343,9693,1751712509,2147008,base_link,0.5047702789306641,1.3939234018325806,0.015607091598212719,-0.08283543315364865,-0.25118813528173944,0.31292586505801234
2025/07/05/17:48:29.117310,9694,1751712509,121147008,base_link,0.4606875479221344,1.3990386724472046,-0.008839533664286137,-0.004023300545663428,0.35192536425850107,0.37563649112673947
2025/07/05/17:48:29.195791,9695,1751712509,203147008,base_link,0.3772079348564148,1.4227927923202515,-0.013954907655715942,0.06294560613958859,0.6580941017332455,0.39588618590095104
2025/07/05/17:48:29.315710,9696,1751712509,321147008,base_link,0.18300801515579224,1.4557939767837524,0.02658623456954956,0.09671762899574045,0.7011733136760755,0.27998695054134226
