time,.header.seq,.header.stamp.secs,.header.stamp.nsecs,.header.frame_id,.fix_type,.lat,.lon,.alt,.eph,.epv,.vel,.cog,.satellites_visible,.alt_ellipsoid,.h_acc,.v_acc,.vel_acc,.hdg_acc,.yaw,.dgps_numch,.dgps_age
2025/07/05/17:47:55.695087,9375,1751712475,585147008,/wgs84,4,-72870794,1127959229,21540,57,89,35,22193,21,38869,1359,2458,403,0,0,255,4294967295
2025/07/05/17:47:55.776205,9376,1751712475,585147008,/wgs84,4,-72870794,1127959229,21540,57,89,35,22193,21,38869,1359,2458,403,0,0,255,4294967295
2025/07/05/17:47:55.875232,9377,1751712475,785147008,/wgs84,4,-72870801,1127959224,21490,57,89,37,22193,21,38819,1361,2460,398,0,0,255,4294967295
2025/07/05/17:47:55.996351,9378,1751712475,785147008,/wgs84,4,-72870801,1127959224,21490,57,89,37,22193,21,38819,1361,2460,398,0,0,255,4294967295
2025/07/05/17:47:56.096291,9379,1751712475,985147008,/wgs84,4,-72870808,1127959220,21450,57,89,44,22193,21,38779,1364,2465,366,0,0,255,4294967295
2025/07/05/17:47:56.196227,9380,1751712475,985147008,/wgs84,4,-72870808,1127959220,21450,57,89,44,22193,21,38779,1364,2465,366,0,0,255,4294967295
2025/07/05/17:47:56.315244,9381,1751712476,185147008,/wgs84,4,-72870815,1127959215,21530,62,102,48,22193,20,38859,1367,2453,363,0,0,255,4294967295
2025/07/05/17:47:56.475329,9382,1751712476,385147008,/wgs84,4,-72870825,1127959210,21570,57,89,54,21717,21,38899,1367,2446,357,0,0,255,4294967295
2025/07/05/17:47:56.615929,9383,1751712476,585147008,/wgs84,4,-72870837,1127959204,21520,57,89,57,23138,21,38849,1356,2426,366,0,0,255,4294967295
2025/07/05/17:47:56.695695,9384,1751712476,585147008,/wgs84,4,-72870837,1127959204,21520,57,89,57,23138,21,38849,1356,2426,366,0,0,255,4294967295
2025/07/05/17:47:56.774393,9385,1751712476,585147008,/wgs84,4,-72870837,1127959204,21520,57,89,57,23138,21,38849,1356,2426,366,0,0,255,4294967295
2025/07/05/17:47:56.874629,9386,1751712476,785147008,/wgs84,4,-72870846,1127959198,21450,57,89,37,23138,21,38779,1346,2404,311,0,0,255,4294967295
2025/07/05/17:47:56.995675,9387,1751712476,785147008,/wgs84,4,-72870846,1127959198,21450,57,89,37,23138,21,38779,1346,2404,311,0,0,255,4294967295
2025/07/05/17:47:57.074597,9388,1751712476,985147008,/wgs84,4,-72870856,1127959194,21490,57,89,47,22313,21,38819,1337,2376,261,0,0,255,4294967295
2025/07/05/17:47:57.154592,9389,1751712476,985147008,/wgs84,4,-72870856,1127959194,21490,57,89,47,22313,21,38819,1337,2376,261,0,0,255,4294967295
2025/07/05/17:47:57.254560,9390,1751712477,185147008,/wgs84,4,-72870869,1127959191,21640,57,89,51,21482,21,38969,1327,2344,271,0,0,255,4294967295
2025/07/05/17:47:57.334691,9391,1751712477,185147008,/wgs84,4,-72870869,1127959191,21640,57,89,51,21482,21,38969,1327,2344,271,0,0,255,4294967295
2025/07/05/17:47:57.496592,9392,1751712477,385147008,/wgs84,4,-72870880,1127959186,21680,57,89,34,21482,21,39009,1319,2322,250,0,0,255,4294967295
2025/07/05/17:47:57.596552,9393,1751712477,585147008,/wgs84,3,-72870890,1127959179,21540,57,89,42,21881,21,38870,1307,2302,370,0,0,255,4294967295
2025/07/05/17:47:57.675337,9394,1751712477,585147008,/wgs84,3,-72870890,1127959179,21540,57,89,42,21881,21,38870,1307,2302,370,0,0,255,4294967295
2025/07/05/17:47:57.796440,9395,1751712477,785147008,/wgs84,3,-72870899,1127959173,21490,59,92,49,21799,20,38819,1301,2295,331,0,0,255,4294967295
2025/07/05/17:47:57.896490,9396,1751712477,785147008,/wgs84,3,-72870899,1127959173,21490,59,92,49,21799,20,38819,1301,2295,331,0,0,255,4294967295
2025/07/05/17:47:58.017987,9397,1751712477,985147008,/wgs84,3,-72870909,1127959169,21460,57,89,40,21799,21,38789,1299,2290,321,0,0,255,4294967295
2025/07/05/17:47:58.095964,9398,1751712477,985147008,/wgs84,3,-72870909,1127959169,21460,57,89,40,21799,21,38789,1299,2290,321,0,0,255,4294967295
2025/07/05/17:47:58.196061,9399,1751712478,185147008,/wgs84,3,-72870917,1127959168,21480,57,89,43,21799,21,38809,1298,2289,330,0,0,255,4294967295
2025/07/05/17:47:58.274214,9400,1751712478,185147008,/wgs84,3,-72870917,1127959168,21480,57,89,43,21799,21,38809,1298,2289,330,0,0,255,4294967295
2025/07/05/17:47:58.396173,9401,1751712478,185147008,/wgs84,3,-72870917,1127959168,21480,57,89,43,21799,21,38809,1298,2289,330,0,0,255,4294967295
2025/07/05/17:47:58.554264,9402,1751712478,385147008,/wgs84,3,-72870926,1127959166,21380,56,87,40,21799,22,38709,1295,2276,281,0,0,255,4294967295
2025/07/05/17:47:58.637596,9403,1751712478,585147008,/wgs84,3,-72870936,1127959164,21240,56,87,38,21799,22,38569,1291,2258,283,0,0,255,4294967295
2025/07/05/17:47:58.734167,9404,1751712478,585147008,/wgs84,3,-72870936,1127959164,21240,56,87,38,21799,22,38569,1291,2258,283,0,0,255,4294967295
2025/07/05/17:47:58.838102,9405,1751712478,785147008,/wgs84,3,-72870946,1127959165,21270,56,87,30,21799,22,38600,1285,2244,369,0,0,255,4294967295
2025/07/05/17:47:58.934640,9406,1751712478,785147008,/wgs84,3,-72870946,1127959165,21270,56,87,30,21799,22,38600,1285,2244,369,0,0,255,4294967295
2025/07/05/17:47:59.054552,9407,1751712478,985147008,/wgs84,3,-72870956,1127959169,21290,56,87,45,21799,22,38619,1282,2239,328,0,0,255,4294967295
2025/07/05/17:47:59.174517,9408,1751712478,985147008,/wgs84,3,-72870956,1127959169,21290,56,87,45,21799,22,38619,1282,2239,328,0,0,255,4294967295
2025/07/05/17:47:59.274763,9409,1751712479,185147008,/wgs84,3,-72870966,1127959166,21210,56,87,39,21799,22,38539,1278,2226,285,0,0,255,4294967295
2025/07/05/17:47:59.415801,9410,1751712479,386147008,/wgs84,3,-72870973,1127959163,21120,56,87,39,21799,22,38449,1273,2212,303,0,0,255,4294967295
2025/07/05/17:47:59.596021,9411,1751712479,386147008,/wgs84,3,-72870973,1127959163,21120,56,87,39,21799,22,38449,1273,2212,303,0,0,255,4294967295
2025/07/05/17:47:59.674726,9412,1751712479,586147008,/wgs84,3,-72870982,1127959164,21100,56,87,22,21799,22,38429,1265,2192,280,0,0,255,4294967295
2025/07/05/17:47:59.774489,9413,1751712479,586147008,/wgs84,3,-72870982,1127959164,21100,56,87,22,21799,22,38429,1265,2192,280,0,0,255,4294967295
2025/07/05/17:47:59.895831,9414,1751712479,786147008,/wgs84,3,-72870988,1127959163,21150,56,87,39,21799,22,38479,1261,2167,289,0,0,255,4294967295
2025/07/05/17:47:59.996551,9415,1751712479,986147008,/wgs84,3,-72870994,1127959160,21180,56,87,23,21799,22,38509,1260,2153,364,0,0,255,4294967295
2025/07/05/17:48:00.074838,9416,1751712479,986147008,/wgs84,3,-72870994,1127959160,21180,56,87,23,21799,22,38509,1260,2153,364,0,0,255,4294967295
2025/07/05/17:48:00.174596,9417,1751712479,986147008,/wgs84,3,-72870994,1127959160,21180,56,87,23,21799,22,38509,1260,2153,364,0,0,255,4294967295
2025/07/05/17:48:00.256359,9418,1751712480,186147008,/wgs84,3,-72870998,1127959156,21160,56,87,28,21799,22,38489,1259,2139,319,0,0,255,4294967295
2025/07/05/17:48:00.355160,9419,1751712480,186147008,/wgs84,3,-72870998,1127959156,21160,56,87,28,21799,22,38489,1259,2139,319,0,0,255,4294967295
2025/07/05/17:48:00.535147,9420,1751712480,386147008,/wgs84,3,-72871003,1127959151,21120,57,89,27,21799,21,38449,1260,2126,334,0,0,255,4294967295
2025/07/05/17:48:00.634254,9421,1751712480,586147008,/wgs84,3,-72871013,1127959147,20970,57,89,37,21799,21,38299,1261,2108,327,0,0,255,4294967295
2025/07/05/17:48:00.715485,9422,1751712480,586147008,/wgs84,3,-72871013,1127959147,20970,57,89,37,21799,21,38299,1261,2108,327,0,0,255,4294967295
2025/07/05/17:48:00.796458,9423,1751712480,784147008,/wgs84,3,-72871022,1127959143,20920,57,89,50,21799,21,38249,1266,2104,387,0,0,255,4294967295
2025/07/05/17:48:00.895683,9424,1751712480,784147008,/wgs84,3,-72871022,1127959143,20920,57,89,50,21799,21,38249,1266,2104,387,0,0,255,4294967295
2025/07/05/17:48:00.974266,9425,1751712480,784147008,/wgs84,3,-72871022,1127959143,20920,57,89,50,21799,21,38249,1266,2104,387,0,0,255,4294967295
2025/07/05/17:48:01.095871,9426,1751712480,984147008,/wgs84,3,-72871031,1127959142,20950,57,89,30,21799,21,38279,1269,2103,395,0,0,255,4294967295
2025/07/05/17:48:01.174822,9427,1751712480,984147008,/wgs84,3,-72871031,1127959142,20950,57,89,30,21799,21,38279,1269,2103,395,0,0,255,4294967295
2025/07/05/17:48:01.274465,9428,1751712481,184147008,/wgs84,3,-72871041,1127959144,20950,57,89,34,21799,21,38279,1265,2097,321,0,0,255,4294967295
2025/07/05/17:48:01.396447,9429,1751712481,184147008,/wgs84,3,-72871041,1127959144,20950,57,89,34,21799,21,38279,1265,2097,321,0,0,255,4294967295
2025/07/05/17:48:01.574643,9430,1751712481,384147008,/wgs84,3,-72871051,1127959144,20800,57,89,41,21799,21,38129,1260,2079,342,0,0,255,4294967295
2025/07/05/17:48:01.675572,9431,1751712481,584147008,/wgs84,3,-72871062,1127959142,20590,57,89,43,21799,21,37919,1258,2062,346,0,0,255,4294967295
2025/07/05/17:48:01.796284,9432,1751712481,784147008,/wgs84,3,-72871070,1127959142,20550,57,89,32,21799,21,37879,1259,2060,355,0,0,255,4294967295
2025/07/05/17:48:01.874793,9433,1751712481,784147008,/wgs84,3,-72871070,1127959142,20550,57,89,32,21799,21,37879,1259,2060,355,0,0,255,4294967295
2025/07/05/17:48:01.996909,9434,1751712481,984147008,/wgs84,3,-72871077,1127959140,20540,57,89,41,21799,21,37869,1261,2057,339,0,0,255,4294967295
2025/07/05/17:48:02.095526,9435,1751712481,984147008,/wgs84,3,-72871077,1127959140,20540,57,89,41,21799,21,37869,1261,2057,339,0,0,255,4294967295
2025/07/05/17:48:02.174795,9436,1751712481,984147008,/wgs84,3,-72871077,1127959140,20540,57,89,41,21799,21,37869,1261,2057,339,0,0,255,4294967295
2025/07/05/17:48:02.295650,9437,1751712482,184147008,/wgs84,3,-72871087,1127959137,20640,57,89,45,21799,21,37969,1264,2055,513,0,0,255,4294967295
2025/07/05/17:48:02.418202,9438,1751712482,384147008,/wgs84,3,-72871098,1127959136,20710,57,89,50,19073,21,38039,1269,2049,461,0,0,255,4294967295
2025/07/05/17:48:02.596004,9439,1751712482,584147008,/wgs84,3,-72871107,1127959134,20780,57,89,33,19073,21,38109,1271,2034,320,0,0,255,4294967295
2025/07/05/17:48:02.695441,9440,1751712482,584147008,/wgs84,3,-72871107,1127959134,20780,57,89,33,19073,21,38109,1271,2034,320,0,0,255,4294967295
2025/07/05/17:48:02.774407,9441,1751712482,584147008,/wgs84,3,-72871107,1127959134,20780,57,89,33,19073,21,38109,1271,2034,320,0,0,255,4294967295
2025/07/05/17:48:02.875460,9442,1751712482,784147008,/wgs84,3,-72871114,1127959134,20890,57,89,52,17615,21,38219,1273,2016,429,0,0,255,4294967295
2025/07/05/17:48:02.996494,9443,1751712482,984147008,/wgs84,3,-72871123,1127959132,20880,57,89,33,17615,21,38209,1275,2007,350,0,0,255,4294967295
2025/07/05/17:48:03.074965,9444,1751712482,984147008,/wgs84,3,-72871123,1127959132,20880,57,89,33,17615,21,38209,1275,2007,350,0,0,255,4294967295
2025/07/05/17:48:03.174309,9445,1751712482,984147008,/wgs84,3,-72871123,1127959132,20880,57,89,33,17615,21,38209,1275,2007,350,0,0,255,4294967295
2025/07/05/17:48:03.274743,9446,1751712483,184147008,/wgs84,3,-72871131,1127959131,20890,57,89,51,17615,21,38219,1278,2001,387,0,0,255,4294967295
2025/07/05/17:48:03.374620,9447,1751712483,184147008,/wgs84,3,-72871131,1127959131,20890,57,89,51,17615,21,38219,1278,2001,387,0,0,255,4294967295
2025/07/05/17:48:03.554539,9448,1751712483,384147008,/wgs84,3,-72871135,1127959130,20760,57,89,33,17615,21,38089,1279,1997,436,0,0,255,4294967295
2025/07/05/17:48:03.654688,9449,1751712483,584147008,/wgs84,3,-72871142,1127959131,20890,57,89,35,17615,21,38219,1282,1998,360,0,0,255,4294967295
2025/07/05/17:48:03.775300,9450,1751712483,584147008,/wgs84,3,-72871142,1127959131,20890,57,89,35,17615,21,38219,1282,1998,360,0,0,255,4294967295
2025/07/05/17:48:03.854289,9451,1751712483,784147008,/wgs84,3,-72871147,1127959130,20980,57,89,45,17615,21,38309,1284,1991,423,0,0,255,4294967295
2025/07/05/17:48:03.975132,9452,1751712483,784147008,/wgs84,3,-72871147,1127959130,20980,57,89,45,17615,21,38309,1284,1991,423,0,0,255,4294967295
2025/07/05/17:48:04.097402,9453,1751712483,984147008,/wgs84,3,-72871149,1127959133,21000,57,89,22,17615,21,38329,1284,1979,350,0,0,255,4294967295
2025/07/05/17:48:04.196156,9454,1751712484,182147008,/wgs84,3,-72871153,1127959135,21030,57,89,52,17615,21,38359,1286,1974,403,0,0,255,4294967295
2025/07/05/17:48:04.275258,9455,1751712484,182147008,/wgs84,3,-72871153,1127959135,21030,57,89,52,17615,21,38359,1286,1974,403,0,0,255,4294967295
2025/07/05/17:48:04.396404,9456,1751712484,382147008,/wgs84,3,-72871163,1127959140,21050,57,89,68,15830,21,38379,1292,1973,521,0,0,255,4294967295
2025/07/05/17:48:04.574245,9457,1751712484,382147008,/wgs84,3,-72871163,1127959140,21050,57,89,68,15830,21,38379,1292,1973,521,0,0,255,4294967295
2025/07/05/17:48:04.695815,9458,1751712484,582147008,/wgs84,3,-72871171,1127959143,21130,57,89,50,15830,21,38459,1296,1963,382,0,0,255,4294967295
2025/07/05/17:48:04.775523,9459,1751712484,582147008,/wgs84,3,-72871171,1127959143,21130,57,89,50,15830,21,38459,1296,1963,382,0,0,255,4294967295
2025/07/05/17:48:04.917311,9460,1751712484,782147008,/wgs84,3,-72871174,1127959140,21200,57,89,38,15830,21,38529,1293,1948,321,0,0,255,4294967295
2025/07/05/17:48:04.996250,9461,1751712484,982147008,/wgs84,3,-72871181,1127959142,21440,57,89,43,15407,21,38769,1290,1931,452,0,0,255,4294967295
2025/07/05/17:48:05.095522,9462,1751712484,982147008,/wgs84,3,-72871181,1127959142,21440,57,89,43,15407,21,38769,1290,1931,452,0,0,255,4294967295
2025/07/05/17:48:05.174260,9463,1751712484,982147008,/wgs84,3,-72871181,1127959142,21440,57,89,43,15407,21,38769,1290,1931,452,0,0,255,4294967295
2025/07/05/17:48:05.274641,9464,1751712485,182147008,/wgs84,3,-72871188,1127959145,21570,61,102,46,15407,20,38899,1289,1925,345,0,0,255,4294967295
2025/07/05/17:48:05.418351,9465,1751712485,382147008,/wgs84,3,-72871196,1127959144,21660,57,89,44,16019,21,38989,1282,1912,325,0,0,255,4294967295
2025/07/05/17:48:05.596093,9466,1751712485,582147008,/wgs84,3,-72871205,1127959139,21620,57,89,64,15102,21,38949,1268,1901,308,0,0,255,4294967295
2025/07/05/17:48:05.695902,9467,1751712485,582147008,/wgs84,3,-72871205,1127959139,21620,57,89,64,15102,21,38949,1268,1901,308,0,0,255,4294967295
2025/07/05/17:48:05.774141,9468,1751712485,582147008,/wgs84,3,-72871205,1127959139,21620,57,89,64,15102,21,38949,1268,1901,308,0,0,255,4294967295
2025/07/05/17:48:05.895072,9469,1751712485,782147008,/wgs84,3,-72871216,1127959134,21420,57,89,72,15035,21,38749,1253,1890,312,0,0,255,4294967295
2025/07/05/17:48:06.017943,9470,1751712485,982147008,/wgs84,3,-72871227,1127959137,21350,57,89,79,14846,21,38679,1242,1884,339,0,0,255,4294967295
2025/07/05/17:48:06.095282,9471,1751712485,982147008,/wgs84,3,-72871227,1127959137,21350,57,89,79,14846,21,38679,1242,1884,339,0,0,255,4294967295
2025/07/05/17:48:06.196445,9472,1751712486,182147008,/wgs84,3,-72871240,1127959143,21380,57,89,52,14409,21,38709,1226,1875,263,0,0,255,4294967295
2025/07/05/17:48:06.274593,9473,1751712486,182147008,/wgs84,3,-72871240,1127959143,21380,57,89,52,14409,21,38709,1226,1875,263,0,0,255,4294967295
2025/07/05/17:48:06.374373,9474,1751712486,182147008,/wgs84,3,-72871240,1127959143,21380,57,89,52,14409,21,38709,1226,1875,263,0,0,255,4294967295
2025/07/05/17:48:06.554003,9475,1751712486,382147008,/wgs84,3,-72871248,1127959150,21400,57,89,54,14409,21,38728,1214,1873,335,0,0,255,4294967295
2025/07/05/17:48:06.654121,9476,1751712486,582147008,/wgs84,3,-72871256,1127959158,21440,57,89,70,13856,21,38769,1213,1873,402,0,0,255,4294967295
2025/07/05/17:48:06.734147,9477,1751712486,582147008,/wgs84,3,-72871256,1127959158,21440,57,89,70,13856,21,38769,1213,1873,402,0,0,255,4294967295
2025/07/05/17:48:06.833909,9478,1751712486,782147008,/wgs84,3,-72871266,1127959167,21390,57,89,60,13965,21,38719,1213,1872,405,0,0,255,4294967295
2025/07/05/17:48:06.915179,9479,1751712486,782147008,/wgs84,3,-72871266,1127959167,21390,57,89,60,13965,21,38719,1213,1872,405,0,0,255,4294967295
2025/07/05/17:48:07.019440,9480,1751712486,982147008,/wgs84,3,-72871270,1127959179,21270,59,92,46,13565,20,38599,1207,1868,355,0,0,255,4294967295
2025/07/05/17:48:07.095369,9481,1751712486,982147008,/wgs84,3,-72871270,1127959179,21270,59,92,46,13565,20,38599,1207,1868,355,0,0,255,4294967295
2025/07/05/17:48:07.196468,9482,1751712487,182147008,/wgs84,3,-72871276,1127959182,21330,57,89,60,14151,21,38659,1199,1863,334,0,0,255,4294967295
2025/07/05/17:48:07.274248,9483,1751712487,182147008,/wgs84,3,-72871276,1127959182,21330,57,89,60,14151,21,38659,1199,1863,334,0,0,255,4294967295
2025/07/05/17:48:07.396310,9484,1751712487,382147008,/wgs84,3,-72871287,1127959189,21370,57,89,72,13627,21,38699,1192,1853,359,0,0,255,4294967295
2025/07/05/17:48:07.554267,9485,1751712487,382147008,/wgs84,3,-72871287,1127959189,21370,57,89,72,13627,21,38699,1192,1853,359,0,0,255,4294967295
2025/07/05/17:48:07.655016,9486,1751712487,582147008,/wgs84,3,-72871294,1127959196,21480,57,89,56,13652,21,38809,1183,1839,313,0,0,255,4294967295
2025/07/05/17:48:07.754051,9487,1751712487,582147008,/wgs84,3,-72871294,1127959196,21480,57,89,56,13652,21,38809,1183,1839,313,0,0,255,4294967295
2025/07/05/17:48:07.854286,9488,1751712487,782147008,/wgs84,3,-72871299,1127959201,21460,57,89,51,13466,21,38789,1177,1833,351,0,0,255,4294967295
2025/07/05/17:48:07.995791,9489,1751712487,982147008,/wgs84,3,-72871308,1127959209,21430,57,89,82,13981,21,38759,1174,1835,433,0,0,255,4294967295
2025/07/05/17:48:08.094817,9490,1751712487,982147008,/wgs84,3,-72871308,1127959209,21430,57,89,82,13981,21,38759,1174,1835,433,0,0,255,4294967295
2025/07/05/17:48:08.175495,9491,1751712487,982147008,/wgs84,3,-72871308,1127959209,21430,57,89,82,13981,21,38759,1174,1835,433,0,0,255,4294967295
2025/07/05/17:48:08.275882,9492,1751712488,182147008,/wgs84,3,-72871318,1127959216,21370,57,89,84,13686,21,38699,1170,1835,351,0,0,255,4294967295
2025/07/05/17:48:08.418471,9493,1751712488,382147008,/wgs84,3,-72871326,1127959226,21300,59,92,59,13451,20,38629,1166,1833,377,0,0,255,4294967295
2025/07/05/17:48:08.595725,9494,1751712488,582147008,/wgs84,3,-72871332,1127959237,21220,64,109,86,12981,19,38549,1163,1839,427,0,0,255,4294967295
2025/07/05/17:48:08.695309,9495,1751712488,582147008,/wgs84,3,-72871332,1127959237,21220,64,109,86,12981,19,38549,1163,1839,427,0,0,255,4294967295
2025/07/05/17:48:08.776010,9496,1751712488,582147008,/wgs84,3,-72871332,1127959237,21220,64,109,86,12981,19,38549,1163,1839,427,0,0,255,4294967295
2025/07/05/17:48:08.854867,9497,1751712488,782147008,/wgs84,3,-72871339,1127959249,21210,61,102,56,12744,20,38539,1163,1849,367,0,0,255,4294967295
2025/07/05/17:48:08.955156,9498,1751712488,782147008,/wgs84,3,-72871339,1127959249,21210,61,102,56,12744,20,38539,1163,1849,367,0,0,255,4294967295
2025/07/05/17:48:09.054164,9499,1751712488,982147008,/wgs84,3,-72871341,1127959258,21170,59,92,31,12744,20,38499,1164,1855,312,0,0,255,4294967295
2025/07/05/17:48:09.154863,9500,1751712488,982147008,/wgs84,3,-72871341,1127959258,21170,59,92,31,12744,20,38499,1164,1855,312,0,0,255,4294967295
2025/07/05/17:48:09.255114,9501,1751712489,182147008,/wgs84,3,-72871345,1127959266,21150,59,92,72,13468,20,38479,1165,1862,448,0,0,255,4294967295
2025/07/05/17:48:09.354058,9502,1751712489,182147008,/wgs84,3,-72871345,1127959266,21150,59,92,72,13468,20,38479,1165,1862,448,0,0,255,4294967295
2025/07/05/17:48:09.516569,9503,1751712489,382147008,/wgs84,3,-72871352,1127959276,21080,59,92,52,13264,20,38409,1167,1868,457,0,0,255,4294967295
2025/07/05/17:48:09.617676,9504,1751712489,582147008,/wgs84,3,-72871358,1127959286,21130,57,89,74,12687,21,38459,1169,1874,432,0,0,255,4294967295
2025/07/05/17:48:09.695421,9505,1751712489,582147008,/wgs84,3,-72871358,1127959286,21130,57,89,74,12687,21,38459,1169,1874,432,0,0,255,4294967295
2025/07/05/17:48:09.796334,9506,1751712489,782147008,/wgs84,3,-72871366,1127959298,21120,57,89,87,13067,21,38449,1170,1873,452,0,0,255,4294967295
2025/07/05/17:48:09.894703,9507,1751712489,782147008,/wgs84,3,-72871366,1127959298,21120,57,89,87,13067,21,38449,1170,1873,452,0,0,255,4294967295
2025/07/05/17:48:09.975438,9508,1751712489,782147008,/wgs84,3,-72871366,1127959298,21120,57,89,87,13067,21,38449,1170,1873,452,0,0,255,4294967295
2025/07/05/17:48:10.094917,9509,1751712489,982147008,/wgs84,3,-72871372,1127959309,21090,57,89,64,12334,21,38419,1172,1875,363,0,0,255,4294967295
2025/07/05/17:48:10.195464,9510,1751712490,182147008,/wgs84,3,-72871375,1127959323,21080,59,92,99,11734,20,38409,1175,1874,487,0,0,255,4294967295
2025/07/05/17:48:10.275105,9511,1751712490,182147008,/wgs84,3,-72871375,1127959323,21080,59,92,99,11734,20,38409,1175,1874,487,0,0,255,4294967295
2025/07/05/17:48:10.396225,9512,1751712490,382147008,/wgs84,3,-72871378,1127959340,21080,59,92,99,10824,20,38409,1179,1869,436,0,0,255,4294967295
2025/07/05/17:48:10.554947,9513,1751712490,382147008,/wgs84,3,-72871378,1127959340,21080,59,92,99,10824,20,38409,1179,1869,436,0,0,255,4294967295
2025/07/05/17:48:10.634584,9514,1751712490,582147008,/wgs84,3,-72871383,1127959359,21170,59,92,118,11135,20,38499,1183,1869,464,0,0,255,4294967295
2025/07/05/17:48:10.733896,9515,1751712490,582147008,/wgs84,3,-72871383,1127959359,21170,59,92,118,11135,20,38499,1183,1869,464,0,0,255,4294967295
2025/07/05/17:48:10.833907,9516,1751712490,782147008,/wgs84,3,-72871392,1127959377,21140,59,92,79,11148,20,38469,1186,1872,437,0,0,255,4294967295
2025/07/05/17:48:10.933923,9517,1751712490,782147008,/wgs84,3,-72871392,1127959377,21140,59,92,79,11148,20,38469,1186,1872,437,0,0,255,4294967295
2025/07/05/17:48:11.034113,9518,1751712490,982147008,/wgs84,3,-72871398,1127959391,21220,57,89,95,10899,21,38549,1188,1875,460,0,0,255,4294967295
2025/07/05/17:48:11.114807,9519,1751712490,982147008,/wgs84,3,-72871398,1127959391,21220,57,89,95,10899,21,38549,1188,1875,460,0,0,255,4294967295
2025/07/05/17:48:11.218049,9520,1751712491,181147008,/wgs84,3,-72871403,1127959409,21250,57,89,112,10695,21,38579,1192,1883,473,0,0,255,4294967295
2025/07/05/17:48:11.294920,9521,1751712491,181147008,/wgs84,3,-72871403,1127959409,21250,57,89,112,10695,21,38579,1192,1883,473,0,0,255,4294967295
2025/07/05/17:48:11.419037,9522,1751712491,381147008,/wgs84,3,-72871406,1127959427,21280,57,89,75,10209,21,38609,1196,1889,369,0,0,255,4294967295
2025/07/05/17:48:11.575920,9523,1751712491,381147008,/wgs84,3,-72871406,1127959427,21280,57,89,75,10209,21,38609,1196,1889,369,0,0,255,4294967295
2025/07/05/17:48:11.653952,9524,1751712491,581147008,/wgs84,3,-72871411,1127959441,21300,57,89,102,11346,21,38629,1199,1895,491,0,0,255,4294967295
2025/07/05/17:48:11.754417,9525,1751712491,581147008,/wgs84,3,-72871411,1127959441,21300,57,89,102,11346,21,38629,1199,1895,491,0,0,255,4294967295
2025/07/05/17:48:11.833525,9526,1751712491,781147008,/wgs84,3,-72871419,1127959456,21330,57,89,107,11750,21,38659,1203,1901,461,0,0,255,4294967295
2025/07/05/17:48:11.933915,9527,1751712491,781147008,/wgs84,3,-72871419,1127959456,21330,57,89,107,11750,21,38659,1203,1901,461,0,0,255,4294967295
2025/07/05/17:48:12.033898,9528,1751712491,981147008,/wgs84,3,-72871427,1127959473,21340,57,89,111,11789,21,38669,1206,1905,436,0,0,255,4294967295
2025/07/05/17:48:12.116296,9529,1751712491,981147008,/wgs84,3,-72871427,1127959473,21340,57,89,111,11789,21,38669,1206,1905,436,0,0,255,4294967295
2025/07/05/17:48:12.217811,9530,1751712492,181147008,/wgs84,3,-72871432,1127959490,21440,57,89,99,11381,21,38769,1210,1914,448,0,0,255,4294967295
2025/07/05/17:48:12.295086,9531,1751712492,181147008,/wgs84,3,-72871432,1127959490,21440,57,89,99,11381,21,38769,1210,1914,448,0,0,255,4294967295
2025/07/05/17:48:12.437917,9532,1751712492,381147008,/wgs84,3,-72871433,1127959508,21420,59,92,102,10272,20,38749,1214,1920,404,0,0,255,4294967295
2025/07/05/17:48:12.556267,9533,1751712492,381147008,/wgs84,3,-72871433,1127959508,21420,59,92,102,10272,20,38749,1214,1920,404,0,0,255,4294967295
2025/07/05/17:48:12.654278,9534,1751712492,581147008,/wgs84,3,-72871436,1127959528,21380,57,89,120,10269,21,38709,1218,1928,463,0,0,255,4294967295
2025/07/05/17:48:12.734101,9535,1751712492,581147008,/wgs84,3,-72871436,1127959528,21380,57,89,120,10269,21,38709,1218,1928,463,0,0,255,4294967295
2025/07/05/17:48:12.833686,9536,1751712492,781147008,/wgs84,3,-72871440,1127959545,21500,57,89,80,11121,21,38829,1223,1936,508,0,0,255,4294967295
2025/07/05/17:48:12.917107,9537,1751712492,781147008,/wgs84,3,-72871440,1127959545,21500,57,89,80,11121,21,38829,1223,1936,508,0,0,255,4294967295
2025/07/05/17:48:13.033878,9538,1751712492,981147008,/wgs84,3,-72871443,1127959558,21610,57,89,82,11185,21,38939,1227,1943,486,0,0,255,4294967295
2025/07/05/17:48:13.114934,9539,1751712492,981147008,/wgs84,3,-72871443,1127959558,21610,57,89,82,11185,21,38939,1227,1943,486,0,0,255,4294967295
2025/07/05/17:48:13.195494,9540,1751712493,181147008,/wgs84,3,-72871449,1127959574,21650,57,89,104,11631,21,38979,1232,1945,503,0,0,255,4294967295
2025/07/05/17:48:13.274062,9541,1751712493,181147008,/wgs84,3,-72871449,1127959574,21650,57,89,104,11631,21,38979,1232,1945,503,0,0,255,4294967295
2025/07/05/17:48:13.395910,9542,1751712493,381147008,/wgs84,3,-72871457,1127959592,21670,57,89,120,11784,21,38999,1238,1948,537,0,0,255,4294967295
2025/07/05/17:48:13.574255,9543,1751712493,381147008,/wgs84,3,-72871457,1127959592,21670,57,89,120,11784,21,38999,1238,1948,537,0,0,255,4294967295
2025/07/05/17:48:13.695081,9544,1751712493,581147008,/wgs84,3,-72871468,1127959614,21690,57,89,124,11565,21,39020,1240,1934,428,0,0,255,4294967295
2025/07/05/17:48:13.795764,9545,1751712493,781147008,/wgs84,3,-72871474,1127959636,21700,57,89,122,11452,21,39029,1238,1919,380,0,0,255,4294967295
2025/07/05/17:48:13.874331,9546,1751712493,781147008,/wgs84,3,-72871474,1127959636,21700,57,89,122,11452,21,39029,1238,1919,380,0,0,255,4294967295
2025/07/05/17:48:13.996017,9547,1751712493,981147008,/wgs84,3,-72871483,1127959659,21800,56,87,134,11601,22,39129,1233,1910,352,0,0,255,4294967295
2025/07/05/17:48:14.095354,9548,1751712493,981147008,/wgs84,3,-72871483,1127959659,21800,56,87,134,11601,22,39129,1233,1910,352,0,0,255,4294967295
2025/07/05/17:48:14.173844,9549,1751712493,981147008,/wgs84,3,-72871483,1127959659,21800,56,87,134,11601,22,39129,1233,1910,352,0,0,255,4294967295
2025/07/05/17:48:14.254615,9550,1751712494,181147008,/wgs84,3,-72871490,1127959683,21750,57,87,139,10493,21,39079,1228,1890,342,0,0,255,4294967295
2025/07/05/17:48:14.354120,9551,1751712494,181147008,/wgs84,3,-72871490,1127959683,21750,57,87,139,10493,21,39079,1228,1890,342,0,0,255,4294967295
2025/07/05/17:48:14.515300,9552,1751712494,381147008,/wgs84,3,-72871489,1127959709,21720,58,90,131,9989,21,39049,1225,1877,353,0,0,255,4294967295
2025/07/05/17:48:14.617624,9553,1751712494,581147008,/wgs84,3,-72871488,1127959732,21600,59,92,137,9481,20,38929,1220,1869,323,0,0,255,4294967295
2025/07/05/17:48:14.695553,9554,1751712494,581147008,/wgs84,3,-72871488,1127959732,21600,59,92,137,9481,20,38929,1220,1869,323,0,0,255,4294967295
2025/07/05/17:48:14.796259,9555,1751712494,781147008,/wgs84,3,-72871487,1127959758,21720,59,92,132,9347,20,39049,1214,1856,298,0,0,255,4294967295
2025/07/05/17:48:14.874716,9556,1751712494,781147008,/wgs84,3,-72871487,1127959758,21720,59,92,132,9347,20,39049,1214,1856,298,0,0,255,4294967295
2025/07/05/17:48:14.995666,9557,1751712494,981147008,/wgs84,3,-72871492,1127959783,21700,58,90,133,10447,21,39029,1208,1842,367,0,0,255,4294967295
2025/07/05/17:48:15.074321,9558,1751712494,981147008,/wgs84,3,-72871492,1127959783,21700,58,90,133,10447,21,39029,1208,1842,367,0,0,255,4294967295
2025/07/05/17:48:15.174056,9559,1751712494,981147008,/wgs84,3,-72871492,1127959783,21700,58,90,133,10447,21,39029,1208,1842,367,0,0,255,4294967295
2025/07/05/17:48:15.295197,9560,1751712495,181147008,/wgs84,3,-72871500,1127959808,21760,56,87,153,10924,22,39089,1202,1828,363,0,0,255,4294967295
2025/07/05/17:48:15.374086,9561,1751712495,181147008,/wgs84,3,-72871500,1127959808,21760,56,87,153,10924,22,39089,1202,1828,363,0,0,255,4294967295
2025/07/05/17:48:15.554183,9562,1751712495,381147008,/wgs84,3,-72871504,1127959833,21900,56,87,121,10634,22,39229,1196,1818,310,0,0,255,4294967295
2025/07/05/17:48:15.654705,9563,1751712495,581147008,/wgs84,3,-72871508,1127959857,21950,58,90,147,10344,21,39279,1190,1808,327,0,0,255,4294967295
2025/07/05/17:48:15.734033,9564,1751712495,581147008,/wgs84,3,-72871508,1127959857,21950,58,90,147,10344,21,39279,1190,1808,327,0,0,255,4294967295
2025/07/05/17:48:15.834013,9565,1751712495,781147008,/wgs84,3,-72871512,1127959883,22070,56,87,150,10187,22,39399,1183,1796,294,0,0,255,4294967295
2025/07/05/17:48:15.914583,9566,1751712495,781147008,/wgs84,3,-72871512,1127959883,22070,56,87,150,10187,22,39399,1183,1796,294,0,0,255,4294967295
2025/07/05/17:48:16.017847,9567,1751712495,981147008,/wgs84,3,-72871514,1127959906,22190,56,87,134,9814,22,39519,1173,1785,260,0,0,255,4294967295
2025/07/05/17:48:16.095311,9568,1751712495,981147008,/wgs84,3,-72871514,1127959906,22190,56,87,134,9814,22,39519,1173,1785,260,0,0,255,4294967295
2025/07/05/17:48:16.195943,9569,1751712496,181147008,/wgs84,3,-72871517,1127959927,22190,56,87,148,9961,22,39519,1165,1772,298,0,0,255,4294967295
2025/07/05/17:48:16.274067,9570,1751712496,181147008,/wgs84,3,-72871517,1127959927,22190,56,87,148,9961,22,39519,1165,1772,298,0,0,255,4294967295
2025/07/05/17:48:16.396431,9571,1751712496,381147008,/wgs84,3,-72871519,1127959951,22310,56,87,140,10104,22,39639,1158,1761,306,0,0,255,4294967295
2025/07/05/17:48:16.515390,9572,1751712496,381147008,/wgs84,3,-72871519,1127959951,22310,56,87,140,10104,22,39639,1158,1761,306,0,0,255,4294967295
2025/07/05/17:48:16.617991,9573,1751712496,581147008,/wgs84,3,-72871523,1127959973,22330,58,90,137,10455,21,39659,1150,1750,302,0,0,255,4294967295
2025/07/05/17:48:16.694493,9574,1751712496,581147008,/wgs84,3,-72871523,1127959973,22330,58,90,137,10455,21,39659,1150,1750,302,0,0,255,4294967295
2025/07/05/17:48:16.795208,9575,1751712496,781147008,/wgs84,3,-72871531,1127959993,22270,56,87,136,10939,22,39599,1144,1740,345,0,0,255,4294967295
2025/07/05/17:48:16.874050,9576,1751712496,781147008,/wgs84,3,-72871531,1127959993,22270,56,87,136,10939,22,39599,1144,1740,345,0,0,255,4294967295
2025/07/05/17:48:16.995655,9577,1751712496,981147008,/wgs84,3,-72871540,1127960014,22310,56,87,143,11438,22,39639,1135,1728,302,0,0,255,4294967295
2025/07/05/17:48:17.095598,9578,1751712496,981147008,/wgs84,3,-72871540,1127960014,22310,56,87,143,11438,22,39639,1135,1728,302,0,0,255,4294967295
2025/07/05/17:48:17.195046,9579,1751712496,981147008,/wgs84,3,-72871540,1127960014,22310,56,87,143,11438,22,39639,1135,1728,302,0,0,255,4294967295
2025/07/05/17:48:17.274024,9580,1751712497,181147008,/wgs84,3,-72871548,1127960035,22350,58,90,137,11224,21,39679,1126,1718,295,0,0,255,4294967295
2025/07/05/17:48:17.354100,9581,1751712497,181147008,/wgs84,3,-72871548,1127960035,22350,58,90,137,11224,21,39679,1126,1718,295,0,0,255,4294967295
2025/07/05/17:48:17.515204,9582,1751712497,381147008,/wgs84,3,-72871554,1127960059,22300,58,90,154,10963,21,39630,1116,1709,255,0,0,255,4294967295
2025/07/05/17:48:17.617576,9583,1751712497,581147008,/wgs84,3,-72871557,1127960081,22300,58,90,148,10785,21,39629,1105,1698,237,0,0,255,4294967295
2025/07/05/17:48:17.694746,9584,1751712497,581147008,/wgs84,3,-72871557,1127960081,22300,58,90,148,10785,21,39629,1105,1698,237,0,0,255,4294967295
2025/07/05/17:48:17.774636,9585,1751712497,581147008,/wgs84,3,-72871557,1127960081,22300,58,90,148,10785,21,39629,1105,1698,237,0,0,255,4294967295
2025/07/05/17:48:17.894701,9586,1751712497,781147008,/wgs84,3,-72871563,1127960102,22320,58,90,137,11369,21,39649,1095,1687,275,0,0,255,4294967295
2025/07/05/17:48:17.996228,9587,1751712497,981147008,/wgs84,3,-72871572,1127960122,22330,58,90,151,11783,21,39659,1087,1678,271,0,0,255,4294967295
2025/07/05/17:48:18.073919,9588,1751712497,981147008,/wgs84,3,-72871572,1127960122,22330,58,90,151,11783,21,39659,1087,1678,271,0,0,255,4294967295
2025/07/05/17:48:18.195400,9589,1751712498,181147008,/wgs84,3,-72871583,1127960146,22260,58,90,147,11735,21,39589,1080,1668,296,0,0,255,4294967295
2025/07/05/17:48:18.294946,9590,1751712498,181147008,/wgs84,3,-72871583,1127960146,22260,58,90,147,11735,21,39589,1080,1668,296,0,0,255,4294967295
2025/07/05/17:48:18.373535,9591,1751712498,181147008,/wgs84,3,-72871583,1127960146,22260,58,90,147,11735,21,39589,1080,1668,296,0,0,255,4294967295
2025/07/05/17:48:18.554200,9592,1751712498,381147008,/wgs84,3,-72871592,1127960167,22190,58,90,141,11598,21,39519,1074,1659,316,0,0,255,4294967295
2025/07/05/17:48:18.653871,9593,1751712498,581147008,/wgs84,3,-72871602,1127960192,22170,58,90,149,11239,21,39499,1068,1653,305,0,0,255,4294967295
2025/07/05/17:48:18.773715,9594,1751712498,581147008,/wgs84,3,-72871602,1127960192,22170,58,90,149,11239,21,39499,1068,1653,305,0,0,255,4294967295
2025/07/05/17:48:18.853808,9595,1751712498,781147008,/wgs84,3,-72871608,1127960218,22200,58,90,155,10716,21,39529,1063,1646,315,0,0,255,4294967295
2025/07/05/17:48:18.953965,9596,1751712498,781147008,/wgs84,3,-72871608,1127960218,22200,58,90,155,10716,21,39529,1063,1646,315,0,0,255,4294967295
2025/07/05/17:48:19.074619,9597,1751712498,981147008,/wgs84,3,-72871613,1127960247,22120,58,90,145,10441,21,39449,1060,1639,348,0,0,255,4294967295
2025/07/05/17:48:19.154114,9598,1751712498,981147008,/wgs84,3,-72871613,1127960247,22120,58,90,145,10441,21,39449,1060,1639,348,0,0,255,4294967295
2025/07/05/17:48:19.253847,9599,1751712499,181147008,/wgs84,3,-72871620,1127960276,22080,58,90,142,10249,21,39409,1053,1632,267,0,0,255,4294967295
2025/07/05/17:48:19.353890,9600,1751712499,181147008,/wgs84,3,-72871620,1127960276,22080,58,90,142,10249,21,39409,1053,1632,267,0,0,255,4294967295
2025/07/05/17:48:19.515291,9601,1751712499,381147008,/wgs84,3,-72871631,1127960303,22000,58,90,139,10666,21,39329,1046,1625,270,0,0,255,4294967295
2025/07/05/17:48:19.617311,9602,1751712499,581147008,/wgs84,3,-72871643,1127960330,21950,58,90,160,11018,21,39279,1040,1615,294,0,0,255,4294967295
2025/07/05/17:48:19.694737,9603,1751712499,581147008,/wgs84,3,-72871643,1127960330,21950,58,90,160,11018,21,39279,1040,1615,294,0,0,255,4294967295
2025/07/05/17:48:19.795648,9604,1751712499,781147008,/wgs84,3,-72871653,1127960355,21910,58,90,144,10954,21,39239,1034,1606,296,0,0,255,4294967295
2025/07/05/17:48:19.873867,9605,1751712499,781147008,/wgs84,3,-72871653,1127960355,21910,58,90,144,10954,21,39239,1034,1606,296,0,0,255,4294967295
2025/07/05/17:48:19.996687,9606,1751712499,981147008,/wgs84,3,-72871659,1127960380,21870,58,90,153,10522,21,39200,1029,1600,308,0,0,255,4294967295
2025/07/05/17:48:20.095116,9607,1751712499,981147008,/wgs84,3,-72871659,1127960380,21870,58,90,153,10522,21,39200,1029,1600,308,0,0,255,4294967295
2025/07/05/17:48:20.173739,9608,1751712499,981147008,/wgs84,3,-72871659,1127960380,21870,58,90,153,10522,21,39200,1029,1600,308,0,0,255,4294967295
2025/07/05/17:48:20.294702,9609,1751712500,181147008,/wgs84,3,-72871663,1127960407,21760,58,90,142,10128,21,39090,1025,1593,326,0,0,255,4294967295
2025/07/05/17:48:20.417969,9610,1751712500,381147008,/wgs84,3,-72871669,1127960431,21660,58,90,134,10495,21,38989,1021,1588,330,0,0,255,4294967295
2025/07/05/17:48:20.574139,9611,1751712500,381147008,/wgs84,3,-72871669,1127960431,21660,58,90,134,10495,21,38989,1021,1588,330,0,0,255,4294967295
2025/07/05/17:48:20.653951,9612,1751712500,581147008,/wgs84,3,-72871677,1127960454,21620,58,90,154,10866,21,38949,1016,1580,308,0,0,255,4294967295
2025/07/05/17:48:20.753673,9613,1751712500,581147008,/wgs84,3,-72871677,1127960454,21620,58,90,154,10866,21,38949,1016,1580,308,0,0,255,4294967295
2025/07/05/17:48:20.853930,9614,1751712500,781147008,/wgs84,3,-72871684,1127960477,21640,58,90,148,10663,21,38969,1011,1573,281,0,0,255,4294967295
2025/07/05/17:48:20.954078,9615,1751712500,781147008,/wgs84,3,-72871684,1127960477,21640,58,90,148,10663,21,38969,1011,1573,281,0,0,255,4294967295
2025/07/05/17:48:21.053747,9616,1751712500,981147008,/wgs84,3,-72871690,1127960503,21640,58,90,146,10442,21,38970,1003,1568,251,0,0,255,4294967295
2025/07/05/17:48:21.153934,9617,1751712500,981147008,/wgs84,3,-72871690,1127960503,21640,58,90,146,10442,21,38970,1003,1568,251,0,0,255,4294967295
2025/07/05/17:48:21.253893,9618,1751712501,181147008,/wgs84,3,-72871696,1127960529,21610,58,90,132,10244,21,38940,996,1563,261,0,0,255,4294967295
2025/07/05/17:48:21.353767,9619,1751712501,181147008,/wgs84,3,-72871696,1127960529,21610,58,90,132,10244,21,38940,996,1563,261,0,0,255,4294967295
2025/07/05/17:48:21.534181,9620,1751712501,381147008,/wgs84,3,-72871698,1127960555,21560,58,90,150,9673,21,38889,990,1559,265,0,0,255,4294967295
2025/07/05/17:48:21.633936,9621,1751712501,581147008,/wgs84,3,-72871698,1127960582,21540,58,90,153,9470,21,38869,985,1554,276,0,0,255,4294967295
2025/07/05/17:48:21.715093,9622,1751712501,581147008,/wgs84,3,-72871698,1127960582,21540,58,90,153,9470,21,38869,985,1554,276,0,0,255,4294967295
2025/07/05/17:48:21.817441,9623,1751712501,781147008,/wgs84,3,-72871699,1127960609,21510,58,90,129,9170,21,38839,982,1550,274,0,0,255,4294967295
2025/07/05/17:48:21.914626,9624,1751712501,781147008,/wgs84,3,-72871699,1127960609,21510,58,90,129,9170,21,38839,982,1550,274,0,0,255,4294967295
2025/07/05/17:48:22.017341,9625,1751712501,981147008,/wgs84,3,-72871697,1127960632,21550,58,90,129,8808,21,38879,979,1548,274,0,0,255,4294967295
2025/07/05/17:48:22.094565,9626,1751712501,981147008,/wgs84,3,-72871697,1127960632,21550,58,90,129,8808,21,38879,979,1548,274,0,0,255,4294967295
2025/07/05/17:48:22.173714,9627,1751712501,981147008,/wgs84,3,-72871697,1127960632,21550,58,90,129,8808,21,38879,979,1548,274,0,0,255,4294967295
2025/07/05/17:48:22.253561,9628,1751712502,181147008,/wgs84,3,-72871694,1127960657,21530,58,90,136,8268,21,38860,979,1545,307,0,0,255,4294967295
2025/07/05/17:48:22.395207,9629,1751712502,381147008,/wgs84,3,-72871690,1127960682,21480,58,90,143,8127,21,38810,979,1543,342,0,0,255,4294967295
2025/07/05/17:48:22.533746,9630,1751712502,381147008,/wgs84,3,-72871690,1127960682,21480,58,90,143,8127,21,38810,979,1543,342,0,0,255,4294967295
2025/07/05/17:48:22.633753,9631,1751712502,581147008,/wgs84,3,-72871684,1127960706,21560,56,87,134,7884,22,38890,980,1540,283,0,0,255,4294967295
2025/07/05/17:48:22.734060,9632,1751712502,581147008,/wgs84,3,-72871684,1127960706,21560,56,87,134,7884,22,38890,980,1540,283,0,0,255,4294967295
2025/07/05/17:48:22.833847,9633,1751712502,781147008,/wgs84,3,-72871677,1127960729,21560,56,87,137,7495,22,38890,981,1537,281,0,0,255,4294967295
2025/07/05/17:48:22.933961,9634,1751712502,781147008,/wgs84,3,-72871677,1127960729,21560,56,87,137,7495,22,38890,981,1537,281,0,0,255,4294967295
2025/07/05/17:48:23.017225,9635,1751712502,981147008,/wgs84,3,-72871669,1127960752,21530,56,87,139,7291,22,38859,981,1533,271,0,0,255,4294967295
2025/07/05/17:48:23.095339,9636,1751712502,981147008,/wgs84,3,-72871669,1127960752,21530,56,87,139,7291,22,38859,981,1533,271,0,0,255,4294967295
2025/07/05/17:48:23.195652,9637,1751712503,181147008,/wgs84,3,-72871660,1127960775,21500,58,90,133,6919,21,38829,982,1532,282,0,0,255,4294967295
2025/07/05/17:48:23.274173,9638,1751712503,181147008,/wgs84,3,-72871660,1127960775,21500,58,90,133,6919,21,38829,982,1532,282,0,0,255,4294967295
2025/07/05/17:48:23.353656,9639,1751712503,181147008,/wgs84,3,-72871660,1127960775,21500,58,90,133,6919,21,38829,982,1532,282,0,0,255,4294967295
2025/07/05/17:48:23.533662,9640,1751712503,381147008,/wgs84,3,-72871649,1127960796,21460,58,90,136,6312,21,38789,981,1531,227,0,0,255,4294967295
2025/07/05/17:48:23.633949,9641,1751712503,581147008,/wgs84,3,-72871635,1127960816,21480,56,87,127,5808,22,38809,979,1529,229,0,0,255,4294967295
2025/07/05/17:48:23.714977,9642,1751712503,581147008,/wgs84,3,-72871635,1127960816,21480,56,87,127,5808,22,38809,979,1529,229,0,0,255,4294967295
2025/07/05/17:48:23.817249,9643,1751712503,781147008,/wgs84,3,-72871619,1127960833,21540,56,87,138,5258,22,38869,977,1529,198,0,0,255,4294967295
2025/07/05/17:48:23.895217,9644,1751712503,781147008,/wgs84,3,-72871619,1127960833,21540,56,87,138,5258,22,38869,977,1529,198,0,0,255,4294967295
2025/07/05/17:48:24.017235,9645,1751712503,981147008,/wgs84,3,-72871604,1127960851,21520,56,87,125,5424,22,38849,974,1525,194,0,0,255,4294967295
2025/07/05/17:48:24.094738,9646,1751712503,981147008,/wgs84,3,-72871604,1127960851,21520,56,87,125,5424,22,38849,974,1525,194,0,0,255,4294967295
2025/07/05/17:48:24.174202,9647,1751712503,981147008,/wgs84,3,-72871604,1127960851,21520,56,87,125,5424,22,38849,974,1525,194,0,0,255,4294967295
2025/07/05/17:48:24.253629,9648,1751712504,181147008,/wgs84,3,-72871588,1127960867,21550,58,90,136,4305,21,38879,969,1523,193,0,0,255,4294967295
2025/07/05/17:48:24.354361,9649,1751712504,181147008,/wgs84,3,-72871588,1127960867,21550,58,90,136,4305,21,38879,969,1523,193,0,0,255,4294967295
2025/07/05/17:48:24.533991,9650,1751712504,381147008,/wgs84,3,-72871568,1127960879,21540,58,90,123,4035,21,38870,966,1521,200,0,0,255,4294967295
2025/07/05/17:48:24.654051,9651,1751712504,581147008,/wgs84,3,-72871549,1127960892,21560,58,90,133,3746,21,38890,971,1528,343,0,0,255,4294967295
2025/07/05/17:48:24.753672,9652,1751712504,581147008,/wgs84,3,-72871549,1127960892,21560,58,90,133,3746,21,38890,971,1528,343,0,0,255,4294967295
2025/07/05/17:48:24.853591,9653,1751712504,781147008,/wgs84,3,-72871530,1127960905,21590,58,90,129,3624,21,38920,981,1538,342,0,0,255,4294967295
2025/07/05/17:48:24.953513,9654,1751712504,781147008,/wgs84,3,-72871530,1127960905,21590,58,90,129,3624,21,38920,981,1538,342,0,0,255,4294967295
2025/07/05/17:48:25.053671,9655,1751712504,981147008,/wgs84,3,-72871509,1127960916,21600,58,90,126,2684,21,38929,985,1536,193,0,0,255,4294967295
2025/07/05/17:48:25.153559,9656,1751712504,981147008,/wgs84,3,-72871509,1127960916,21600,58,90,126,2684,21,38929,985,1536,193,0,0,255,4294967295
2025/07/05/17:48:25.253805,9657,1751712505,181147008,/wgs84,3,-72871487,1127960926,21570,56,87,127,1998,22,38899,982,1533,196,0,0,255,4294967295
2025/07/05/17:48:25.353787,9658,1751712505,181147008,/wgs84,3,-72871487,1127960926,21570,56,87,127,1998,22,38899,982,1533,196,0,0,255,4294967295
2025/07/05/17:48:25.514588,9659,1751712505,381147008,/wgs84,3,-72871466,1127960933,21500,58,90,132,1852,21,38829,981,1532,209,0,0,255,4294967295
2025/07/05/17:48:25.614577,9660,1751712505,581147008,/wgs84,4,-72871442,1127960938,21460,58,90,134,1616,21,38789,975,1532,200,0,0,255,4294967295
2025/07/05/17:48:25.694508,9661,1751712505,581147008,/wgs84,4,-72871442,1127960938,21460,58,90,134,1616,21,38789,975,1532,200,0,0,255,4294967295
2025/07/05/17:48:25.794542,9662,1751712505,581147008,/wgs84,4,-72871442,1127960938,21460,58,90,134,1616,21,38789,975,1532,200,0,0,255,4294967295
2025/07/05/17:48:25.873832,9663,1751712505,781147008,/wgs84,4,-72871419,1127960947,21470,58,90,132,2265,21,38799,970,1531,166,0,0,255,4294967295
2025/07/05/17:48:25.995548,9664,1751712505,981147008,/wgs84,4,-72871397,1127960958,21450,58,90,146,2566,21,38780,967,1530,190,0,0,255,4294967295
2025/07/05/17:48:26.094651,9665,1751712505,981147008,/wgs84,4,-72871397,1127960958,21450,58,90,146,2566,21,38780,967,1530,190,0,0,255,4294967295
2025/07/05/17:48:26.173399,9666,1751712505,981147008,/wgs84,4,-72871397,1127960958,21450,58,90,146,2566,21,38780,967,1530,190,0,0,255,4294967295
2025/07/05/17:48:26.253759,9667,1751712506,181147008,/wgs84,4,-72871372,1127960965,21460,58,90,139,2001,21,38789,964,1527,197,0,0,255,4294967295
2025/07/05/17:48:26.353568,9668,1751712506,181147008,/wgs84,4,-72871372,1127960965,21460,58,90,139,2001,21,38789,964,1527,197,0,0,255,4294967295
2025/07/05/17:48:26.514571,9669,1751712506,381147008,/wgs84,4,-72871345,1127960970,21450,61,97,150,1477,20,38779,960,1523,195,0,0,255,4294967295
2025/07/05/17:48:26.615319,9670,1751712506,581147008,/wgs84,4,-72871317,1127960970,21430,59,93,138,956,21,38760,954,1517,191,0,0,255,4294967295
2025/07/05/17:48:26.694712,9671,1751712506,581147008,/wgs84,4,-72871317,1127960970,21430,59,93,138,956,21,38760,954,1517,191,0,0,255,4294967295
2025/07/05/17:48:26.773663,9672,1751712506,581147008,/wgs84,4,-72871317,1127960970,21430,59,93,138,956,21,38760,954,1517,191,0,0,255,4294967295
2025/07/05/17:48:26.873436,9673,1751712506,781147008,/wgs84,4,-72871291,1127960972,21510,59,93,136,1104,21,38840,949,1515,176,0,0,255,4294967295
2025/07/05/17:48:26.953712,9674,1751712506,781147008,/wgs84,4,-72871291,1127960972,21510,59,93,136,1104,21,38840,949,1515,176,0,0,255,4294967295
2025/07/05/17:48:27.053653,9675,1751712506,981147008,/wgs84,4,-72871266,1127960979,21480,59,93,144,1832,21,38810,943,1513,151,0,0,255,4294967295
2025/07/05/17:48:27.133621,9676,1751712506,981147008,/wgs84,4,-72871266,1127960979,21480,59,93,144,1832,21,38810,943,1513,151,0,0,255,4294967295
2025/07/05/17:48:27.236473,9677,1751712507,181147008,/wgs84,4,-72871243,1127960990,21460,59,93,144,1907,21,38789,939,1511,166,0,0,255,4294967295
2025/07/05/17:48:27.314623,9678,1751712507,181147008,/wgs84,4,-72871243,1127960990,21460,59,93,144,1907,21,38789,939,1511,166,0,0,255,4294967295
2025/07/05/17:48:27.495269,9679,1751712507,381147008,/wgs84,4,-72871219,1127960996,21420,59,93,141,1550,21,38749,936,1509,175,0,0,255,4294967295
2025/07/05/17:48:27.594874,9680,1751712507,381147008,/wgs84,4,-72871219,1127960996,21420,59,93,141,1550,21,38749,936,1509,175,0,0,255,4294967295
2025/07/05/17:48:27.673489,9681,1751712507,581147008,/wgs84,4,-72871193,1127960998,21470,59,93,141,1036,21,38800,933,1503,183,0,0,255,4294967295
2025/07/05/17:48:27.795497,9682,1751712507,781147008,/wgs84,4,-72871167,1127961002,21470,56,87,146,1188,22,38799,930,1500,165,0,0,255,4294967295
2025/07/05/17:48:27.894487,9683,1751712507,781147008,/wgs84,4,-72871167,1127961002,21470,56,87,146,1188,22,38799,930,1500,165,0,0,255,4294967295
2025/07/05/17:48:27.994197,9684,1751712507,781147008,/wgs84,4,-72871167,1127961002,21470,56,87,146,1188,22,38799,930,1500,165,0,0,255,4294967295
2025/07/05/17:48:28.094903,9685,1751712507,981147008,/wgs84,4,-72871141,1127961007,21470,56,87,144,1508,22,38799,926,1499,149,0,0,255,4294967295
2025/07/05/17:48:28.195607,9686,1751712508,181147008,/wgs84,4,-72871115,1127961015,21450,59,93,149,1571,21,38779,922,1497,159,0,0,255,4294967295
2025/07/05/17:48:28.273520,9687,1751712508,181147008,/wgs84,4,-72871115,1127961015,21450,59,93,149,1571,21,38779,922,1497,159,0,0,255,4294967295
2025/07/05/17:48:28.395304,9688,1751712508,181147008,/wgs84,4,-72871115,1127961015,21450,59,93,149,1571,21,38779,922,1497,159,0,0,255,4294967295
2025/07/05/17:48:28.553396,9689,1751712508,381147008,/wgs84,4,-72871090,1127961022,21440,59,93,146,1495,21,38769,919,1493,188,0,0,255,4294967295
2025/07/05/17:48:28.633190,9690,1751712508,581147008,/wgs84,4,-72871066,1127961029,21380,59,93,146,1182,21,38710,915,1487,200,0,0,255,4294967295
2025/07/05/17:48:28.733387,9691,1751712508,581147008,/wgs84,4,-72871066,1127961029,21380,59,93,146,1182,21,38710,915,1487,200,0,0,255,4294967295
2025/07/05/17:48:28.853644,9692,1751712508,781147008,/wgs84,4,-72871043,1127961034,21300,59,93,142,945,21,38629,910,1483,206,0,0,255,4294967295
2025/07/05/17:48:28.995017,9693,1751712508,981147008,/wgs84,4,-72871017,1127961038,21280,59,93,146,1191,21,38609,908,1483,183,0,0,255,4294967295
2025/07/05/17:48:29.094561,9694,1751712508,981147008,/wgs84,4,-72871017,1127961038,21280,59,93,146,1191,21,38609,908,1483,183,0,0,255,4294967295
2025/07/05/17:48:29.175287,9695,1751712508,981147008,/wgs84,4,-72871017,1127961038,21280,59,93,146,1191,21,38609,908,1483,183,0,0,255,4294967295
2025/07/05/17:48:29.295237,9696,1751712509,181147008,/wgs84,4,-72870990,1127961045,21270,59,93,157,1439,21,38600,905,1484,179,0,0,255,4294967295
2025/07/05/17:48:29.418264,9697,1751712509,381147008,/wgs84,4,-72870963,1127961052,21220,59,93,155,1271,21,38550,905,1486,206,0,0,255,4294967295
2025/07/05/17:48:29.575137,9698,1751712509,381147008,/wgs84,4,-72870963,1127961052,21220,59,93,155,1271,21,38550,905,1486,206,0,0,255,4294967295
2025/07/05/17:48:29.654736,9699,1751712509,581147008,/wgs84,4,-72870937,1127961056,21180,59,93,145,938,21,38510,906,1488,221,0,0,255,4294967295
2025/07/05/17:48:29.753908,9700,1751712509,581147008,/wgs84,4,-72870937,1127961056,21180,59,93,145,938,21,38510,906,1488,221,0,0,255,4294967295
2025/07/05/17:48:29.853808,9701,1751712509,781147008,/wgs84,4,-72870912,1127961059,21130,59,93,144,629,21,38459,908,1490,222,0,0,255,4294967295
2025/07/05/17:48:29.935086,9702,1751712509,781147008,/wgs84,4,-72870912,1127961059,21130,59,93,144,629,21,38459,908,1490,222,0,0,255,4294967295
2025/07/05/17:48:30.036254,9703,1751712509,981147008,/wgs84,4,-72870887,1127961063,21100,59,93,135,946,21,38430,909,1494,204,0,0,255,4294967295
2025/07/05/17:48:30.114388,9704,1751712509,981147008,/wgs84,4,-72870887,1127961063,21100,59,93,135,946,21,38430,909,1494,204,0,0,255,4294967295
2025/07/05/17:48:30.195275,9705,1751712510,181147008,/wgs84,4,-72870864,1127961069,21080,59,93,144,1268,21,38410,911,1498,213,0,0,255,4294967295
2025/07/05/17:48:30.294800,9706,1751712510,181147008,/wgs84,4,-72870864,1127961069,21080,59,93,144,1268,21,38410,911,1498,213,0,0,255,4294967295
2025/07/05/17:48:30.375743,9707,1751712510,181147008,/wgs84,4,-72870864,1127961069,21080,59,93,144,1268,21,38410,911,1498,213,0,0,255,4294967295
2025/07/05/17:48:30.555207,9708,1751712510,381147008,/wgs84,4,-72870839,1127961077,21050,59,93,145,1507,21,38379,912,1502,202,0,0,255,4294967295
2025/07/05/17:48:30.655366,9709,1751712510,581147008,/wgs84,4,-72870814,1127961082,21050,59,93,149,1007,21,38379,914,1504,241,0,0,255,4294967295
2025/07/05/17:48:30.733361,9710,1751712510,581147008,/wgs84,4,-72870814,1127961082,21050,59,93,149,1007,21,38379,914,1504,241,0,0,255,4294967295
2025/07/05/17:48:30.833836,9711,1751712510,781147008,/wgs84,4,-72870788,1127961085,21030,59,93,146,938,21,38359,915,1504,202,0,0,255,4294967295
2025/07/05/17:48:30.914370,9712,1751712510,781147008,/wgs84,4,-72870788,1127961085,21030,59,93,146,938,21,38359,915,1504,202,0,0,255,4294967295
2025/07/05/17:48:31.016896,9713,1751712510,981147008,/wgs84,4,-72870762,1127961089,21010,59,93,141,845,21,38340,917,1507,216,0,0,255,4294967295
2025/07/05/17:48:31.094598,9714,1751712510,981147008,/wgs84,4,-72870762,1127961089,21010,59,93,141,845,21,38340,917,1507,216,0,0,255,4294967295
2025/07/05/17:48:31.195504,9715,1751712511,181147008,/wgs84,4,-72870737,1127961093,21020,59,93,139,1123,21,38350,919,1513,220,0,0,255,4294967295
2025/07/05/17:48:31.275000,9716,1751712511,181147008,/wgs84,4,-72870737,1127961093,21020,59,93,139,1123,21,38350,919,1513,220,0,0,255,4294967295
2025/07/05/17:48:31.395662,9717,1751712511,381147008,/wgs84,4,-72870713,1127961101,20990,59,93,144,1593,21,38320,922,1514,184,0,0,255,4294967295
2025/07/05/17:48:31.575055,9718,1751712511,381147008,/wgs84,4,-72870713,1127961101,20990,59,93,144,1593,21,38320,922,1514,184,0,0,255,4294967295
2025/07/05/17:48:31.675943,9719,1751712511,581147008,/wgs84,4,-72870688,1127961108,20970,59,93,141,1540,21,38300,925,1514,212,0,0,255,4294967295
2025/07/05/17:48:31.795196,9720,1751712511,781147008,/wgs84,4,-72870663,1127961114,20940,59,93,145,1376,21,38270,928,1514,213,0,0,255,4294967295
2025/07/05/17:48:31.875440,9721,1751712511,781147008,/wgs84,4,-72870663,1127961114,20940,59,93,145,1376,21,38270,928,1514,213,0,0,255,4294967295
2025/07/05/17:48:31.995267,9722,1751712511,981147008,/wgs84,4,-72870639,1127961120,20910,59,93,138,1206,21,38240,930,1513,230,0,0,255,4294967295
2025/07/05/17:48:32.093915,9723,1751712511,981147008,/wgs84,4,-72870639,1127961120,20910,59,93,138,1206,21,38240,930,1513,230,0,0,255,4294967295
2025/07/05/17:48:32.175120,9724,1751712511,981147008,/wgs84,4,-72870639,1127961120,20910,59,93,138,1206,21,38240,930,1513,230,0,0,255,4294967295
2025/07/05/17:48:32.274971,9725,1751712512,181147008,/wgs84,4,-72870614,1127961123,20880,59,93,141,858,21,38210,932,1515,267,0,0,255,4294967295
2025/07/05/17:48:32.354144,9726,1751712512,181147008,/wgs84,4,-72870614,1127961123,20880,59,93,141,858,21,38210,932,1515,267,0,0,255,4294967295
2025/07/05/17:48:32.533341,9727,1751712512,381147008,/wgs84,4,-72870588,1127961124,20880,59,93,139,360,21,38209,936,1517,254,0,0,255,4294967295
2025/07/05/17:48:32.633933,9728,1751712512,581147008,/wgs84,4,-72870563,1127961123,20840,59,93,131,122,21,38170,939,1519,256,0,0,255,4294967295
2025/07/05/17:48:32.714852,9729,1751712512,581147008,/wgs84,4,-72870563,1127961123,20840,59,93,131,122,21,38170,939,1519,256,0,0,255,4294967295
2025/07/05/17:48:32.817126,9730,1751712512,781147008,/wgs84,4,-72870539,1127961120,20860,59,93,132,35517,21,38190,942,1522,283,0,0,255,4294967295
2025/07/05/17:48:32.894286,9731,1751712512,781147008,/wgs84,4,-72870539,1127961120,20860,59,93,132,35517,21,38190,942,1522,283,0,0,255,4294967295
2025/07/05/17:48:32.995400,9732,1751712512,981147008,/wgs84,4,-72870514,1127961113,20910,59,93,150,34777,21,38239,945,1526,319,0,0,255,4294967295
2025/07/05/17:48:33.075160,9733,1751712512,981147008,/wgs84,4,-72870514,1127961113,20910,59,93,150,34777,21,38239,945,1526,319,0,0,255,4294967295
2025/07/05/17:48:33.195343,9734,1751712513,181147008,/wgs84,4,-72870489,1127961107,20920,59,93,128,34852,21,38250,949,1530,291,0,0,255,4294967295
2025/07/05/17:48:33.294318,9735,1751712513,181147008,/wgs84,4,-72870489,1127961107,20920,59,93,128,34852,21,38250,949,1530,291,0,0,255,4294967295
2025/07/05/17:48:33.374929,9736,1751712513,181147008,/wgs84,4,-72870489,1127961107,20920,59,93,128,34852,21,38250,949,1530,291,0,0,255,4294967295
2025/07/05/17:48:33.555914,9737,1751712513,381147008,/wgs84,4,-72870466,1127961099,20950,59,93,127,34400,21,38279,952,1534,299,0,0,255,4294967295
2025/07/05/17:48:33.655501,9738,1751712513,581147008,/wgs84,4,-72870443,1127961089,20990,59,93,133,34109,21,38319,954,1539,298,0,0,255,4294967295
2025/07/05/17:48:33.775052,9739,1751712513,581147008,/wgs84,4,-72870443,1127961089,20990,59,93,133,34109,21,38319,954,1539,298,0,0,255,4294967295
2025/07/05/17:48:33.854066,9740,1751712513,781147008,/wgs84,4,-72870421,1127961079,21040,59,93,132,33685,21,38370,956,1546,333,0,0,255,4294967295
2025/07/05/17:48:33.975119,9741,1751712513,781147008,/wgs84,4,-72870421,1127961079,21040,59,93,132,33685,21,38370,956,1546,333,0,0,255,4294967295
2025/07/05/17:48:34.075253,9742,1751712513,981147008,/wgs84,4,-72870400,1127961067,21080,59,93,131,33369,21,38410,958,1553,337,0,0,255,4294967295
2025/07/05/17:48:34.194193,9743,1751712513,981147008,/wgs84,4,-72870400,1127961067,21080,59,93,131,33369,21,38410,958,1553,337,0,0,255,4294967295
2025/07/05/17:48:34.274841,9744,1751712514,181147008,/wgs84,4,-72870380,1127961054,21110,59,93,132,32748,21,38440,961,1560,362,0,0,255,4294967295
2025/07/05/17:48:34.394628,9745,1751712514,181147008,/wgs84,4,-72870380,1127961054,21110,59,93,132,32748,21,38440,961,1560,362,0,0,255,4294967295
2025/07/05/17:48:34.595094,9746,1751712514,381147008,/wgs84,4,-72870360,1127961038,21140,59,93,136,32073,21,38469,962,1564,378,0,0,255,4294967295
2025/07/05/17:48:34.675480,9747,1751712514,581147008,/wgs84,4,-72870342,1127961020,21120,59,93,130,31603,21,38450,964,1569,383,0,0,255,4294967295
2025/07/05/17:48:34.775984,9748,1751712514,581147008,/wgs84,4,-72870342,1127961020,21120,59,93,130,31603,21,38450,964,1569,383,0,0,255,4294967295
2025/07/05/17:48:34.853448,9749,1751712514,781147008,/wgs84,4,-72870326,1127961002,21150,59,93,129,31418,21,38480,966,1574,400,0,0,255,4294967295
2025/07/05/17:48:34.995182,9750,1751712514,981147008,/wgs84,4,-72870310,1127960984,21140,59,93,130,31154,21,38469,968,1578,395,0,0,255,4294967295
2025/07/05/17:48:35.094194,9751,1751712514,981147008,/wgs84,4,-72870310,1127960984,21140,59,93,130,31154,21,38469,968,1578,395,0,0,255,4294967295
2025/07/05/17:48:35.175393,9752,1751712514,981147008,/wgs84,4,-72870310,1127960984,21140,59,93,130,31154,21,38469,968,1578,395,0,0,255,4294967295
2025/07/05/17:48:35.274935,9753,1751712515,181147008,/wgs84,4,-72870294,1127960965,21120,59,93,130,30515,21,38450,971,1582,406,0,0,255,4294967295
2025/07/05/17:48:35.418292,9754,1751712515,381147008,/wgs84,4,-72870282,1127960943,21180,59,93,145,30019,21,38510,973,1583,420,0,0,255,4294967295
2025/07/05/17:48:35.574688,9755,1751712515,381147008,/wgs84,4,-72870282,1127960943,21180,59,93,145,30019,21,38510,973,1583,420,0,0,255,4294967295
2025/07/05/17:48:35.675671,9756,1751712515,581147008,/wgs84,4,-72870271,1127960921,21160,59,93,138,29682,21,38490,974,1583,382,0,0,255,4294967295
2025/07/05/17:48:35.774705,9757,1751712515,581147008,/wgs84,4,-72870271,1127960921,21160,59,93,138,29682,21,38490,974,1583,382,0,0,255,4294967295
2025/07/05/17:48:35.874862,9758,1751712515,781147008,/wgs84,4,-72870262,1127960899,21150,59,93,134,29375,21,38480,975,1583,378,0,0,255,4294967295
2025/07/05/17:48:35.994380,9759,1751712515,781147008,/wgs84,4,-72870262,1127960899,21150,59,93,134,29375,21,38480,975,1583,378,0,0,255,4294967295
2025/07/05/17:48:36.114773,9760,1751712515,981147008,/wgs84,4,-72870254,1127960877,21180,59,93,137,29283,21,38510,976,1583,383,0,0,255,4294967295
2025/07/05/17:48:36.214934,9761,1751712516,181147008,/wgs84,4,-72870244,1127960855,21170,59,93,142,29489,21,38500,976,1584,370,0,0,255,4294967295
2025/07/05/17:48:36.294487,9762,1751712516,181147008,/wgs84,4,-72870244,1127960855,21170,59,93,142,29489,21,38500,976,1584,370,0,0,255,4294967295
2025/07/05/17:48:36.436417,9763,1751712516,381147008,/wgs84,4,-72870234,1127960831,21150,59,93,149,29274,21,38480,977,1584,384,0,0,255,4294967295
2025/07/05/17:48:36.594361,9764,1751712516,381147008,/wgs84,4,-72870234,1127960831,21150,59,93,149,29274,21,38480,977,1584,384,0,0,255,4294967295
2025/07/05/17:48:36.674510,9765,1751712516,581147008,/wgs84,4,-72870227,1127960806,21080,59,93,149,28785,21,38410,977,1585,349,0,0,255,4294967295
2025/07/05/17:48:36.794918,9766,1751712516,781147008,/wgs84,4,-72870224,1127960780,21080,59,93,139,28357,21,38409,979,1588,383,0,0,255,4294967295
2025/07/05/17:48:36.894895,9767,1751712516,781147008,/wgs84,4,-72870224,1127960780,21080,59,93,139,28357,21,38409,979,1588,383,0,0,255,4294967295
2025/07/05/17:48:36.995216,9768,1751712516,781147008,/wgs84,4,-72870224,1127960780,21080,59,93,139,28357,21,38409,979,1588,383,0,0,255,4294967295
2025/07/05/17:48:37.094270,9769,1751712516,981147008,/wgs84,4,-72870223,1127960755,21100,59,93,136,27740,21,38430,981,1589,370,0,0,255,4294967295
2025/07/05/17:48:37.195589,9770,1751712516,981147008,/wgs84,4,-72870223,1127960755,21100,59,93,136,27740,21,38430,981,1589,370,0,0,255,4294967295
2025/07/05/17:48:37.274763,9771,1751712517,181147008,/wgs84,4,-72870220,1127960730,21050,59,93,135,28047,21,38380,983,1591,396,0,0,255,4294967295
2025/07/05/17:48:37.394225,9772,1751712517,181147008,/wgs84,4,-72870220,1127960730,21050,59,93,135,28047,21,38380,983,1591,396,0,0,255,4294967295
2025/07/05/17:48:37.553472,9773,1751712517,381147008,/wgs84,4,-72870213,1127960706,21070,59,93,146,28403,21,38400,985,1593,393,0,0,255,4294967295
2025/07/05/17:48:37.655406,9774,1751712517,581147008,/wgs84,4,-72870205,1127960682,21010,59,93,138,28668,21,38340,987,1595,389,0,0,255,4294967295
2025/07/05/17:48:37.753105,9775,1751712517,581147008,/wgs84,4,-72870205,1127960682,21010,59,93,138,28668,21,38340,987,1595,389,0,0,255,4294967295
2025/07/05/17:48:37.853322,9776,1751712517,781147008,/wgs84,4,-72870197,1127960658,20940,59,93,146,28698,21,38270,989,1597,385,0,0,255,4294967295
2025/07/05/17:48:37.994661,9777,1751712517,781147008,/wgs84,4,-72870197,1127960658,20940,59,93,146,28698,21,38270,989,1597,385,0,0,255,4294967295
2025/07/05/17:48:38.075123,9778,1751712517,981147008,/wgs84,4,-72870192,1127960632,20850,59,93,147,28309,21,38179,988,1597,335,0,0,255,4294967295
2025/07/05/17:48:38.174958,9779,1751712517,981147008,/wgs84,4,-72870192,1127960632,20850,59,93,147,28309,21,38179,988,1597,335,0,0,255,4294967295
2025/07/05/17:48:38.294952,9780,1751712518,181147008,/wgs84,4,-72870190,1127960608,20810,61,97,145,28085,20,38140,988,1597,372,0,0,255,4294967295
2025/07/05/17:48:38.418854,9781,1751712518,381147008,/wgs84,4,-72870188,1127960584,20830,61,97,128,27575,20,38159,990,1597,369,0,0,255,4294967295
2025/07/05/17:48:38.594507,9782,1751712518,381147008,/wgs84,4,-72870188,1127960584,20830,61,97,128,27575,20,38159,990,1597,369,0,0,255,4294967295
2025/07/05/17:48:38.675400,9783,1751712518,581147008,/wgs84,4,-72870190,1127960561,20770,61,97,129,27103,20,38100,989,1593,330,0,0,255,4294967295
