time,.header.seq,.header.stamp.secs,.header.stamp.nsecs,.header.frame_id,.status.status,.status.service,.latitude,.longitude,.altitude,.position_covariance,.position_covariance_type
2025/07/05/17:47:55.655797,8830,1751712475,660147008,base_link,0,1,-7.2870772,112.7959212,53.64515848267966,"(1.846881, 0.0, 0.0, 0.0, 1.846881, 0.0, 0.0, 0.0, 6.0516)",2
2025/07/05/17:47:55.757504,8831,1751712475,760147008,base_link,0,1,-7.2870775,112.795921,53.64515709681227,"(1.846881, 0.0, 0.0, 0.0, 1.846881, 0.0, 0.0, 0.0, 6.041764000000001)",2
2025/07/05/17:47:55.854597,8832,1751712475,860147008,base_link,0,1,-7.2870779,112.7959208,53.635155457132925,"(1.846881, 0.0, 0.0, 0.0, 1.846881, 0.0, 0.0, 0.0, 6.041764000000001)",2
2025/07/05/17:47:55.974336,8833,1751712475,980147008,base_link,0,1,-7.2870783,112.7959206,53.62515381745601,"(1.8523209999999999, 0.0, 0.0, 0.0, 1.8523209999999999, 0.0, 0.0, 0.0, 6.0516)",2
2025/07/05/17:47:56.074863,8834,1751712476,80147008,base_link,0,1,-7.2870787,112.7959204,53.61515217778158,"(1.8523209999999999, 0.0, 0.0, 0.0, 1.8523209999999999, 0.0, 0.0, 0.0, 6.0516)",2
2025/07/05/17:47:56.174991,8835,1751712476,180147008,base_link,0,1,-7.2870791,112.7959203,53.61515085032171,"(1.8604960000000004, 0.0, 0.0, 0.0, 1.8604960000000004, 0.0, 0.0, 0.0, 6.076224999999999)",2
2025/07/05/17:47:56.274864,8836,1751712476,280147008,base_link,0,1,-7.2870795,112.7959201,53.60514921065215,"(1.8604960000000004, 0.0, 0.0, 0.0, 1.8604960000000004, 0.0, 0.0, 0.0, 6.076224999999999)",2
2025/07/05/17:47:56.416294,8837,1751712476,422147008,base_link,0,1,-7.2870801,112.7959198,53.605146751152326,"(1.868689, 0.0, 0.0, 0.0, 1.868689, 0.0, 0.0, 0.0, 6.017208999999999)",2
2025/07/05/17:47:56.574936,8838,1751712476,580147008,base_link,0,1,-7.2870809,112.7959194,53.595143471827896,"(1.868689, 0.0, 0.0, 0.0, 1.868689, 0.0, 0.0, 0.0, 5.982916000000001)",2
2025/07/05/17:47:56.675060,8839,1751712476,681147008,base_link,0,1,-7.2870814,112.7959192,53.59514157836088,"(1.8387360000000001, 0.0, 0.0, 0.0, 1.8387360000000001, 0.0, 0.0, 0.0, 5.885476000000001)",2
2025/07/05/17:47:56.754777,8840,1751712476,760147008,base_link,0,1,-7.2870817,112.7959189,53.59513988030187,"(1.8387360000000001, 0.0, 0.0, 0.0, 1.8387360000000001, 0.0, 0.0, 0.0, 5.885476000000001)",2
2025/07/05/17:47:56.854622,8841,1751712476,860147008,base_link,0,1,-7.2870822,112.7959186,53.595137674629655,"(1.8387360000000001, 0.0, 0.0, 0.0, 1.8387360000000001, 0.0, 0.0, 0.0, 5.885476000000001)",2
2025/07/05/17:47:56.974888,8842,1751712476,980147008,base_link,0,1,-7.2870827,112.7959183,53.5951354689615,"(1.8117160000000003, 0.0, 0.0, 0.0, 1.8117160000000003, 0.0, 0.0, 0.0, 5.779216)",2
2025/07/05/17:47:57.054869,8843,1751712477,60147008,base_link,0,1,-7.2870831,112.7959182,53.58513414152539,"(1.8117160000000003, 0.0, 0.0, 0.0, 1.8117160000000003, 0.0, 0.0, 0.0, 5.779216)",2
2025/07/05/17:47:57.134678,8844,1751712477,140147008,base_link,0,1,-7.2870835,112.795918,53.58513250188052,"(1.787569, 0.0, 0.0, 0.0, 1.787569, 0.0, 0.0, 0.0, 5.645376)",2
2025/07/05/17:47:57.237488,8845,1751712477,243147008,base_link,0,1,-7.2870839,112.7959178,53.595130862238165,"(1.787569, 0.0, 0.0, 0.0, 1.787569, 0.0, 0.0, 0.0, 5.645376)",2
2025/07/05/17:47:57.315197,8846,1751712477,321147008,base_link,0,1,-7.2870844,112.7959176,53.595128968794,"(1.760929, 0.0, 0.0, 0.0, 1.760929, 0.0, 0.0, 0.0, 5.494336)",2
2025/07/05/17:47:57.437659,8847,1751712477,443147008,base_link,0,1,-7.287085,112.7959174,53.58512682155016,"(1.760929, 0.0, 0.0, 0.0, 1.760929, 0.0, 0.0, 0.0, 5.494336)",2
2025/07/05/17:47:57.574809,8848,1751712477,580147008,base_link,0,1,-7.2870857,112.7959172,53.58512442050916,"(1.739761, 0.0, 0.0, 0.0, 1.739761, 0.0, 0.0, 0.0, 5.391684000000001)",2
2025/07/05/17:47:57.654833,8849,1751712477,660147008,base_link,0,1,-7.2870861,112.795917,53.59512278088002,"(1.708249, 0.0, 0.0, 0.0, 1.708249, 0.0, 0.0, 0.0, 5.2992040000000005)",2
2025/07/05/17:47:57.754985,8850,1751712477,760147008,base_link,0,1,-7.2870865,112.7959168,53.60512114125334,"(1.708249, 0.0, 0.0, 0.0, 1.708249, 0.0, 0.0, 0.0, 5.2992040000000005)",2
2025/07/05/17:47:57.855075,8851,1751712477,860147008,base_link,0,1,-7.287087,112.7959166,53.605119247828476,"(1.6926009999999998, 0.0, 0.0, 0.0, 1.6926009999999998, 0.0, 0.0, 0.0, 5.267024999999999)",2
2025/07/05/17:47:57.996046,8852,1751712478,2147008,base_link,0,1,-7.2870877,112.7959163,53.61511653459799,"(1.6926009999999998, 0.0, 0.0, 0.0, 1.6926009999999998, 0.0, 0.0, 0.0, 5.267024999999999)",2
2025/07/05/17:47:58.074836,8853,1751712478,80147008,base_link,0,1,-7.2870881,112.7959162,53.62511520719082,"(1.687401, 0.0, 0.0, 0.0, 1.687401, 0.0, 0.0, 0.0, 5.2441)",2
2025/07/05/17:47:58.154257,8854,1751712478,160147008,base_link,0,1,-7.2870885,112.7959161,53.62511387978586,"(1.687401, 0.0, 0.0, 0.0, 1.687401, 0.0, 0.0, 0.0, 5.2441)",2
2025/07/05/17:47:58.254271,8855,1751712478,260147008,base_link,0,1,-7.287089,112.7959159,53.635111986375705,"(1.6848040000000002, 0.0, 0.0, 0.0, 1.6848040000000002, 0.0, 0.0, 0.0, 5.239521000000001)",2
2025/07/05/17:47:58.354717,8856,1751712478,360147008,base_link,0,1,-7.2870895,112.7959158,53.635110405178665,"(1.6848040000000002, 0.0, 0.0, 0.0, 1.6848040000000002, 0.0, 0.0, 0.0, 5.239521000000001)",2
2025/07/05/17:47:58.534030,8857,1751712478,540147008,base_link,0,1,-7.2870904,112.7959156,53.64510749659071,"(1.6848040000000002, 0.0, 0.0, 0.0, 1.6848040000000002, 0.0, 0.0, 0.0, 5.239521000000001)",2
2025/07/05/17:47:58.614762,8858,1751712478,621147008,base_link,0,1,-7.2870908,112.7959155,53.64510616919874,"(1.6770249999999998, 0.0, 0.0, 0.0, 1.6770249999999998, 0.0, 0.0, 0.0, 5.1801759999999994)",2
2025/07/05/17:47:58.715515,8859,1751712478,721147008,base_link,0,1,-7.2870913,112.7959154,53.64510458801392,"(1.6666809999999999, 0.0, 0.0, 0.0, 1.6666809999999999, 0.0, 0.0, 0.0, 5.098564)",2
2025/07/05/17:47:58.815227,8860,1751712478,821147008,base_link,0,1,-7.2870918,112.7959153,53.645103006832684,"(1.6666809999999999, 0.0, 0.0, 0.0, 1.6666809999999999, 0.0, 0.0, 0.0, 5.098564)",2
2025/07/05/17:47:58.915617,8861,1751712478,921147008,base_link,0,1,-7.2870923,112.7959154,53.64510205007146,"(1.6512249999999997, 0.0, 0.0, 0.0, 1.6512249999999997, 0.0, 0.0, 0.0, 5.035536000000001)",2
2025/07/05/17:47:59.034781,8862,1751712479,40147008,base_link,0,1,-7.2870928,112.7959154,53.635100781104796,"(1.6512249999999997, 0.0, 0.0, 0.0, 1.6512249999999997, 0.0, 0.0, 0.0, 5.035536000000001)",2
2025/07/05/17:47:59.134797,8863,1751712479,140147008,base_link,0,1,-7.2870933,112.7959155,53.6350998243492,"(1.643524, 0.0, 0.0, 0.0, 1.643524, 0.0, 0.0, 0.0, 5.013120999999999)",2
2025/07/05/17:47:59.254806,8864,1751712479,260147008,base_link,0,1,-7.2870939,112.7959155,53.635098301596656,"(1.643524, 0.0, 0.0, 0.0, 1.643524, 0.0, 0.0, 0.0, 5.013120999999999)",2
2025/07/05/17:47:59.354484,8865,1751712479,360147008,base_link,0,1,-7.2870944,112.7959156,53.635097344847026,"(1.633284, 0.0, 0.0, 0.0, 1.633284, 0.0, 0.0, 0.0, 4.955076)",2
2025/07/05/17:47:59.554713,8866,1751712479,560147008,base_link,0,1,-7.2870954,112.7959157,53.635095119148616,"(1.6205289999999997, 0.0, 0.0, 0.0, 1.6205289999999997, 0.0, 0.0, 0.0, 4.892944000000001)",2
2025/07/05/17:47:59.654552,8867,1751712479,660147008,base_link,0,1,-7.2870959,112.7959157,53.63509385020032,"(1.6205289999999997, 0.0, 0.0, 0.0, 1.6205289999999997, 0.0, 0.0, 0.0, 4.892944000000001)",2
2025/07/05/17:47:59.754947,8868,1751712479,760147008,base_link,0,1,-7.2870963,112.7959158,53.635093147250615,"(1.6002249999999998, 0.0, 0.0, 0.0, 1.6002249999999998, 0.0, 0.0, 0.0, 4.804864000000001)",2
2025/07/05/17:47:59.854926,8869,1751712479,860147008,base_link,0,1,-7.2870968,112.7959158,53.625091878307586,"(1.6002249999999998, 0.0, 0.0, 0.0, 1.6002249999999998, 0.0, 0.0, 0.0, 4.804864000000001)",2
2025/07/05/17:47:59.974939,8870,1751712479,980147008,base_link,0,1,-7.2870973,112.7959158,53.61509060936761,"(1.5901209999999997, 0.0, 0.0, 0.0, 1.5901209999999997, 0.0, 0.0, 0.0, 4.695888999999999)",2
2025/07/05/17:48:00.054474,8871,1751712480,60147008,base_link,0,1,-7.2870976,112.7959158,53.61508984800513,"(1.5876000000000001, 0.0, 0.0, 0.0, 1.5876000000000001, 0.0, 0.0, 0.0, 4.635409)",2
2025/07/05/17:48:00.154851,8872,1751712480,160147008,base_link,0,1,-7.287098,112.7959158,53.60508883285679,"(1.5876000000000001, 0.0, 0.0, 0.0, 1.5876000000000001, 0.0, 0.0, 0.0, 4.635409)",2
2025/07/05/17:48:00.234390,8873,1751712480,240147008,base_link,0,1,-7.2870983,112.7959157,53.59508775929089,"(1.5876000000000001, 0.0, 0.0, 0.0, 1.5876000000000001, 0.0, 0.0, 0.0, 4.635409)",2
2025/07/05/17:48:00.334112,8874,1751712480,340147008,base_link,0,1,-7.2870986,112.7959156,53.59508668572636,"(1.5850809999999997, 0.0, 0.0, 0.0, 1.5850809999999997, 0.0, 0.0, 0.0, 4.575320999999999)",2
2025/07/05/17:48:00.496035,8875,1751712480,501147008,base_link,0,1,-7.2870991,112.7959154,53.58508479238638,"(1.5850809999999997, 0.0, 0.0, 0.0, 1.5850809999999997, 0.0, 0.0, 0.0, 4.575320999999999)",2
2025/07/05/17:48:00.618044,8876,1751712480,624147008,base_link,0,1,-7.2870994,112.7959151,53.57508309441406,"(1.5876000000000001, 0.0, 0.0, 0.0, 1.5876000000000001, 0.0, 0.0, 0.0, 4.519875999999999)",2
2025/07/05/17:48:00.695250,8877,1751712480,701147008,base_link,0,1,-7.2870997,112.795915,53.565082020854476,"(1.5901209999999997, 0.0, 0.0, 0.0, 1.5901209999999997, 0.0, 0.0, 0.0, 4.443664)",2
2025/07/05/17:48:00.774961,8878,1751712480,780147008,base_link,0,1,-7.2870999,112.795915,53.565081513285804,"(1.5901209999999997, 0.0, 0.0, 0.0, 1.5901209999999997, 0.0, 0.0, 0.0, 4.443664)",2
2025/07/05/17:48:00.854060,8879,1751712480,860147008,base_link,0,1,-7.2871003,112.7959149,53.56508018594462,"(1.602756, 0.0, 0.0, 0.0, 1.602756, 0.0, 0.0, 0.0, 4.4268160000000005)",2
2025/07/05/17:48:00.955901,8880,1751712480,960147008,base_link,0,1,-7.2871007,112.7959148,53.55507885860568,"(1.602756, 0.0, 0.0, 0.0, 1.602756, 0.0, 0.0, 0.0, 4.4268160000000005)",2
2025/07/05/17:48:01.054816,8881,1751712481,60147008,base_link,0,1,-7.2871011,112.7959146,53.55507721906382,"(1.602756, 0.0, 0.0, 0.0, 1.602756, 0.0, 0.0, 0.0, 4.4268160000000005)",2
2025/07/05/17:48:01.153983,8882,1751712481,160147008,base_link,0,1,-7.2871015,112.7959145,53.545075891729404,"(1.6103609999999997, 0.0, 0.0, 0.0, 1.6103609999999997, 0.0, 0.0, 0.0, 4.4226090000000005)",2
2025/07/05/17:48:01.254789,8883,1751712481,260147008,base_link,0,1,-7.2871019,112.7959144,53.54507456439729,"(1.6103609999999997, 0.0, 0.0, 0.0, 1.6103609999999997, 0.0, 0.0, 0.0, 4.4226090000000005)",2
2025/07/05/17:48:01.354706,8884,1751712481,360147008,base_link,0,1,-7.2871023,112.7959143,53.54507323706742,"(1.6002249999999998, 0.0, 0.0, 0.0, 1.6002249999999998, 0.0, 0.0, 0.0, 4.397409)",2
2025/07/05/17:48:01.554578,8885,1751712481,560147008,base_link,0,1,-7.2871032,112.7959142,53.54507064083891,"(1.6002249999999998, 0.0, 0.0, 0.0, 1.6002249999999998, 0.0, 0.0, 0.0, 4.397409)",2
2025/07/05/17:48:01.654853,8886,1751712481,660147008,base_link,0,1,-7.2871036,112.7959142,53.54506962572041,"(1.5876000000000001, 0.0, 0.0, 0.0, 1.5876000000000001, 0.0, 0.0, 0.0, 4.322241000000001)",2
2025/07/05/17:48:01.754266,8887,1751712481,760147008,base_link,0,1,-7.2871041,112.7959142,53.54506835682506,"(1.582564, 0.0, 0.0, 0.0, 1.582564, 0.0, 0.0, 0.0, 4.251843999999999)",2
2025/07/05/17:48:01.854285,8888,1751712481,860147008,base_link,0,1,-7.2871046,112.7959142,53.54506708793276,"(1.5850809999999997, 0.0, 0.0, 0.0, 1.5850809999999997, 0.0, 0.0, 0.0, 4.2436)",2
2025/07/05/17:48:01.974891,8889,1751712481,980147008,base_link,0,1,-7.2871051,112.7959142,53.54506581904352,"(1.5850809999999997, 0.0, 0.0, 0.0, 1.5850809999999997, 0.0, 0.0, 0.0, 4.2436)",2
2025/07/05/17:48:02.055204,8890,1751712482,60147008,base_link,0,1,-7.2871055,112.7959141,53.545064491730734,"(1.5901209999999997, 0.0, 0.0, 0.0, 1.5901209999999997, 0.0, 0.0, 0.0, 4.231249)",2
2025/07/05/17:48:02.154222,8891,1751712482,160147008,base_link,0,1,-7.2871059,112.7959141,53.54506347662363,"(1.5901209999999997, 0.0, 0.0, 0.0, 1.5901209999999997, 0.0, 0.0, 0.0, 4.231249)",2
2025/07/05/17:48:02.254719,8892,1751712482,260147008,base_link,0,1,-7.2871064,112.795914,53.545061895539256,"(1.5901209999999997, 0.0, 0.0, 0.0, 1.5901209999999997, 0.0, 0.0, 0.0, 4.231249)",2
2025/07/05/17:48:02.354540,8893,1751712482,360147008,base_link,0,1,-7.2871069,112.795914,53.53506062666139,"(1.597696, 0.0, 0.0, 0.0, 1.597696, 0.0, 0.0, 0.0, 4.223025000000001)",2
2025/07/05/17:48:02.554998,8894,1751712482,560147008,base_link,0,1,-7.2871079,112.7959141,53.53505840111745,"(1.6103609999999997, 0.0, 0.0, 0.0, 1.6103609999999997, 0.0, 0.0, 0.0, 4.198401)",2
2025/07/05/17:48:02.654623,8895,1751712482,660147008,base_link,0,1,-7.2871084,112.7959141,53.53505713224854,"(1.6154409999999997, 0.0, 0.0, 0.0, 1.6154409999999997, 0.0, 0.0, 0.0, 4.137155999999999)",2
2025/07/05/17:48:02.754464,8896,1751712482,760147008,base_link,0,1,-7.2871089,112.7959142,53.54505617558491,"(1.6154409999999997, 0.0, 0.0, 0.0, 1.6154409999999997, 0.0, 0.0, 0.0, 4.137155999999999)",2
2025/07/05/17:48:02.854728,8897,1751712482,860147008,base_link,0,1,-7.2871094,112.7959142,53.54505490672191,"(1.6154409999999997, 0.0, 0.0, 0.0, 1.6154409999999997, 0.0, 0.0, 0.0, 4.137155999999999)",2
2025/07/05/17:48:02.974705,8898,1751712482,980147008,base_link,0,1,-7.2871099,112.7959142,53.54505363786195,"(1.6205289999999997, 0.0, 0.0, 0.0, 1.6205289999999997, 0.0, 0.0, 0.0, 4.064256)",2
2025/07/05/17:48:03.054006,8899,1751712483,60147008,base_link,0,1,-7.2871103,112.7959142,53.54505262277616,"(1.6256249999999999, 0.0, 0.0, 0.0, 1.6256249999999999, 0.0, 0.0, 0.0, 4.028049)",2
2025/07/05/17:48:03.154966,8900,1751712483,160147008,base_link,0,1,-7.2871108,112.7959142,53.545051353921714,"(1.6256249999999999, 0.0, 0.0, 0.0, 1.6256249999999999, 0.0, 0.0, 0.0, 4.028049)",2
2025/07/05/17:48:03.254607,8901,1751712483,260147008,base_link,0,1,-7.2871113,112.7959142,53.54505008507031,"(1.6256249999999999, 0.0, 0.0, 0.0, 1.6256249999999999, 0.0, 0.0, 0.0, 4.028049)",2
2025/07/05/17:48:03.354326,8902,1751712483,360147008,base_link,0,1,-7.2871118,112.7959142,53.55504881622194,"(1.633284, 0.0, 0.0, 0.0, 1.633284, 0.0, 0.0, 0.0, 4.004001)",2
2025/07/05/17:48:03.534170,8903,1751712483,540147008,base_link,0,1,-7.2871126,112.7959142,53.55504678607092,"(1.633284, 0.0, 0.0, 0.0, 1.633284, 0.0, 0.0, 0.0, 4.004001)",2
2025/07/05/17:48:03.637452,8904,1751712483,640147008,base_link,0,1,-7.287113,112.7959142,53.55504577099832,"(1.6358409999999999, 0.0, 0.0, 0.0, 1.6358409999999999, 0.0, 0.0, 0.0, 3.9880090000000004)",2
2025/07/05/17:48:03.734837,8905,1751712483,740147008,base_link,0,1,-7.2871134,112.7959142,53.55504475592771,"(1.643524, 0.0, 0.0, 0.0, 1.643524, 0.0, 0.0, 0.0, 3.992004)",2
2025/07/05/17:48:03.834496,8906,1751712483,840147008,base_link,0,1,-7.2871139,112.7959142,53.55504348709219,"(1.643524, 0.0, 0.0, 0.0, 1.643524, 0.0, 0.0, 0.0, 3.992004)",2
2025/07/05/17:48:03.954112,8907,1751712483,960147008,base_link,0,1,-7.2871144,112.7959142,53.56504221825969,"(1.6486560000000001, 0.0, 0.0, 0.0, 1.6486560000000001, 0.0, 0.0, 0.0, 3.9640810000000006)",2
2025/07/05/17:48:04.054805,8908,1751712484,60147008,base_link,0,1,-7.2871147,112.7959143,53.56504176916164,"(1.6486560000000001, 0.0, 0.0, 0.0, 1.6486560000000001, 0.0, 0.0, 0.0, 3.9640810000000006)",2
2025/07/05/17:48:04.153928,8909,1751712484,160147008,base_link,0,1,-7.2871151,112.7959143,53.56504075409916,"(1.6486560000000001, 0.0, 0.0, 0.0, 1.6486560000000001, 0.0, 0.0, 0.0, 3.9164410000000003)",2
2025/07/05/17:48:04.254236,8910,1751712484,260147008,base_link,0,1,-7.2871155,112.7959143,53.56503973903861,"(1.653796, 0.0, 0.0, 0.0, 1.653796, 0.0, 0.0, 0.0, 3.896676)",2
2025/07/05/17:48:04.354506,8911,1751712484,360147008,base_link,0,1,-7.2871159,112.7959144,53.57503903617948,"(1.653796, 0.0, 0.0, 0.0, 1.653796, 0.0, 0.0, 0.0, 3.896676)",2
2025/07/05/17:48:04.555793,8912,1751712484,560147008,base_link,0,1,-7.2871169,112.7959147,53.57503743513829,"(1.669264, 0.0, 0.0, 0.0, 1.669264, 0.0, 0.0, 0.0, 3.8927290000000005)",2
2025/07/05/17:48:04.654794,8913,1751712484,660147008,base_link,0,1,-7.2871174,112.7959149,53.57503679072071,"(1.669264, 0.0, 0.0, 0.0, 1.669264, 0.0, 0.0, 0.0, 3.8927290000000005)",2
2025/07/05/17:48:04.754215,8914,1751712484,760147008,base_link,0,1,-7.2871179,112.795915,53.575035834106764,"(1.679616, 0.0, 0.0, 0.0, 1.679616, 0.0, 0.0, 0.0, 3.8533690000000003)",2
2025/07/05/17:48:04.854645,8915,1751712484,860147008,base_link,0,1,-7.2871184,112.7959151,53.57503487749549,"(1.679616, 0.0, 0.0, 0.0, 1.679616, 0.0, 0.0, 0.0, 3.8533690000000003)",2
2025/07/05/17:48:04.974948,8916,1751712484,981147008,base_link,0,1,-7.2871189,112.7959152,53.57503392088683,"(1.671849, 0.0, 0.0, 0.0, 1.671849, 0.0, 0.0, 0.0, 3.794704)",2
2025/07/05/17:48:05.053719,8917,1751712485,60147008,base_link,0,1,-7.2871192,112.7959153,53.57503347180208,"(1.6641000000000001, 0.0, 0.0, 0.0, 1.6641000000000001, 0.0, 0.0, 0.0, 3.728761)",2
2025/07/05/17:48:05.154010,8918,1751712485,160147008,base_link,0,1,-7.2871196,112.7959155,53.58503308115557,"(1.6641000000000001, 0.0, 0.0, 0.0, 1.6641000000000001, 0.0, 0.0, 0.0, 3.728761)",2
2025/07/05/17:48:05.255174,8919,1751712485,260147008,base_link,0,1,-7.28712,112.7959156,53.58503237831265,"(1.6641000000000001, 0.0, 0.0, 0.0, 1.6641000000000001, 0.0, 0.0, 0.0, 3.728761)",2
2025/07/05/17:48:05.354358,8920,1751712485,360147008,base_link,0,1,-7.2871204,112.7959157,53.58503167547137,"(1.6615209999999998, 0.0, 0.0, 0.0, 1.6615209999999998, 0.0, 0.0, 0.0, 3.7056250000000004)",2
2025/07/05/17:48:05.554720,8921,1751712485,560147008,base_link,0,1,-7.2871212,112.7959159,53.59503026979377,"(1.643524, 0.0, 0.0, 0.0, 1.643524, 0.0, 0.0, 0.0, 3.655744)",2
2025/07/05/17:48:05.654266,8922,1751712485,660147008,base_link,0,1,-7.2871216,112.795916,53.59502956695738,"(1.6078240000000001, 0.0, 0.0, 0.0, 1.6078240000000001, 0.0, 0.0, 0.0, 3.613801)",2
2025/07/05/17:48:05.755084,8923,1751712485,760147008,base_link,0,1,-7.287122,112.7959162,53.605029176319256,"(1.6078240000000001, 0.0, 0.0, 0.0, 1.6078240000000001, 0.0, 0.0, 0.0, 3.613801)",2
2025/07/05/17:48:05.854704,8924,1751712485,860147008,base_link,0,1,-7.2871225,112.7959164,53.605028531925065,"(1.6078240000000001, 0.0, 0.0, 0.0, 1.6078240000000001, 0.0, 0.0, 0.0, 3.613801)",2
2025/07/05/17:48:05.996103,8925,1751712486,2147008,base_link,0,1,-7.2871232,112.7959167,53.615027692216145,"(1.5700089999999998, 0.0, 0.0, 0.0, 1.5700089999999998, 0.0, 0.0, 0.0, 3.5721)",2
2025/07/05/17:48:06.074849,8926,1751712486,80147008,base_link,0,1,-7.2871236,112.7959169,53.615027301583055,"(1.542564, 0.0, 0.0, 0.0, 1.542564, 0.0, 0.0, 0.0, 3.5494559999999997)",2
2025/07/05/17:48:06.174796,8927,1751712486,180147008,base_link,0,1,-7.287124,112.7959173,53.61502753534238,"(1.542564, 0.0, 0.0, 0.0, 1.542564, 0.0, 0.0, 0.0, 3.5494559999999997)",2
2025/07/05/17:48:06.254011,8928,1751712486,260147008,base_link,0,1,-7.2871244,112.7959175,53.625027144711396,"(1.5030759999999999, 0.0, 0.0, 0.0, 1.5030759999999999, 0.0, 0.0, 0.0, 3.515625)",2
2025/07/05/17:48:06.354152,8929,1751712486,360147008,base_link,0,1,-7.2871248,112.7959179,53.62502737847174,"(1.5030759999999999, 0.0, 0.0, 0.0, 1.5030759999999999, 0.0, 0.0, 0.0, 3.515625)",2
2025/07/05/17:48:06.534548,8930,1751712486,540147008,base_link,0,1,-7.2871255,112.7959183,53.625026850969135,"(1.5030759999999999, 0.0, 0.0, 0.0, 1.5030759999999999, 0.0, 0.0, 0.0, 3.515625)",2
2025/07/05/17:48:06.633950,8931,1751712486,640147008,base_link,0,1,-7.287126,112.7959185,53.625026206588416,"(1.4737959999999999, 0.0, 0.0, 0.0, 1.4737959999999999, 0.0, 0.0, 0.0, 3.508129)",2
2025/07/05/17:48:06.714730,8932,1751712486,720147008,base_link,0,1,-7.2871263,112.7959187,53.6250260697164,"(1.4713690000000001, 0.0, 0.0, 0.0, 1.4713690000000001, 0.0, 0.0, 0.0, 3.508129)",2
2025/07/05/17:48:06.818970,8933,1751712486,824147008,base_link,0,1,-7.2871268,112.7959189,53.625025425338976,"(1.4713690000000001, 0.0, 0.0, 0.0, 1.4713690000000001, 0.0, 0.0, 0.0, 3.508129)",2
2025/07/05/17:48:06.895230,8934,1751712486,901147008,base_link,0,1,-7.2871272,112.795919,53.635024722522246,"(1.4713690000000001, 0.0, 0.0, 0.0, 1.4713690000000001, 0.0, 0.0, 0.0, 3.5043840000000004)",2
2025/07/05/17:48:06.998053,8935,1751712487,2147008,base_link,0,1,-7.2871276,112.7959193,53.635024644094415,"(1.4713690000000001, 0.0, 0.0, 0.0, 1.4713690000000001, 0.0, 0.0, 0.0, 3.5043840000000004)",2
2025/07/05/17:48:07.075004,8936,1751712487,80147008,base_link,0,1,-7.2871279,112.7959195,53.63502450722572,"(1.4568490000000003, 0.0, 0.0, 0.0, 1.4568490000000003, 0.0, 0.0, 0.0, 3.4894240000000005)",2
2025/07/05/17:48:07.174780,8937,1751712487,180147008,base_link,0,1,-7.2871283,112.7959197,53.63502411660605,"(1.4568490000000003, 0.0, 0.0, 0.0, 1.4568490000000003, 0.0, 0.0, 0.0, 3.4894240000000005)",2
2025/07/05/17:48:07.254283,8938,1751712487,260147008,base_link,0,1,-7.2871286,112.7959199,53.63502397973869,"(1.4376010000000001, 0.0, 0.0, 0.0, 1.4376010000000001, 0.0, 0.0, 0.0, 3.4707689999999998)",2
2025/07/05/17:48:07.354474,8939,1751712487,360147008,base_link,0,1,-7.2871291,112.7959201,53.63502333537053,"(1.4376010000000001, 0.0, 0.0, 0.0, 1.4376010000000001, 0.0, 0.0, 0.0, 3.4707689999999998)",2
2025/07/05/17:48:07.534241,8940,1751712487,540147008,base_link,0,1,-7.2871298,112.7959207,53.62502343227433,"(1.420864, 0.0, 0.0, 0.0, 1.420864, 0.0, 0.0, 0.0, 3.433609)",2
2025/07/05/17:48:07.636902,8941,1751712487,643147008,base_link,0,1,-7.2871302,112.7959211,53.62502366604426,"(1.420864, 0.0, 0.0, 0.0, 1.420864, 0.0, 0.0, 0.0, 3.433609)",2
2025/07/05/17:48:07.734907,8942,1751712487,740147008,base_link,0,1,-7.2871306,112.7959214,53.635023587622555,"(1.3994890000000002, 0.0, 0.0, 0.0, 1.3994890000000002, 0.0, 0.0, 0.0, 3.3819209999999997)",2
2025/07/05/17:48:07.834968,8943,1751712487,840147008,base_link,0,1,-7.2871309,112.7959218,53.63502407514224,"(1.3994890000000002, 0.0, 0.0, 0.0, 1.3994890000000002, 0.0, 0.0, 0.0, 3.3819209999999997)",2
2025/07/05/17:48:07.954730,8944,1751712487,960147008,base_link,0,1,-7.2871313,112.7959222,53.635024308912904,"(1.385329, 0.0, 0.0, 0.0, 1.385329, 0.0, 0.0, 0.0, 3.359889)",2
2025/07/05/17:48:08.057418,8945,1751712488,60147008,base_link,0,1,-7.2871317,112.7959225,53.63502423049266,"(1.3782759999999998, 0.0, 0.0, 0.0, 1.3782759999999998, 0.0, 0.0, 0.0, 3.367225)",2
2025/07/05/17:48:08.153732,8946,1751712488,160147008,base_link,0,1,-7.2871322,112.7959229,53.625024210516244,"(1.3782759999999998, 0.0, 0.0, 0.0, 1.3782759999999998, 0.0, 0.0, 0.0, 3.367225)",2
2025/07/05/17:48:08.254620,8947,1751712488,260147008,base_link,0,1,-7.2871326,112.7959233,53.6250244442883,"(1.3782759999999998, 0.0, 0.0, 0.0, 1.3782759999999998, 0.0, 0.0, 0.0, 3.367225)",2
2025/07/05/17:48:08.354553,8948,1751712488,360147008,base_link,0,1,-7.2871331,112.7959238,53.62502473650383,"(1.3688999999999998, 0.0, 0.0, 0.0, 1.3688999999999998, 0.0, 0.0, 0.0, 3.367225)",2
2025/07/05/17:48:08.555022,8949,1751712488,560147008,base_link,0,1,-7.2871337,112.7959248,53.62502633592203,"(1.3595559999999998, 0.0, 0.0, 0.0, 1.3595559999999998, 0.0, 0.0, 0.0, 3.359889)",2
2025/07/05/17:48:08.654518,8950,1751712488,660147008,base_link,0,1,-7.287134,112.7959253,53.62502713562995,"(1.3525690000000001, 0.0, 0.0, 0.0, 1.3525690000000001, 0.0, 0.0, 0.0, 3.3819209999999997)",2
2025/07/05/17:48:08.753916,8951,1751712488,760147008,base_link,0,1,-7.2871343,112.7959259,53.625028247526444,"(1.3525690000000001, 0.0, 0.0, 0.0, 1.3525690000000001, 0.0, 0.0, 0.0, 3.3819209999999997)",2
2025/07/05/17:48:08.833903,8952,1751712488,840147008,base_link,0,1,-7.2871345,112.7959263,53.62502898879001,"(1.3525690000000001, 0.0, 0.0, 0.0, 1.3525690000000001, 0.0, 0.0, 0.0, 3.3819209999999997)",2
2025/07/05/17:48:08.934471,8953,1751712488,940147008,base_link,0,1,-7.2871349,112.7959267,53.63502922256072,"(1.3525690000000001, 0.0, 0.0, 0.0, 1.3525690000000001, 0.0, 0.0, 0.0, 3.4188009999999998)",2
2025/07/05/17:48:09.034131,8954,1751712489,40147008,base_link,0,1,-7.2871351,112.7959271,53.63502996382337,"(1.3525690000000001, 0.0, 0.0, 0.0, 1.3525690000000001, 0.0, 0.0, 0.0, 3.4188009999999998)",2
2025/07/05/17:48:09.134288,8955,1751712489,140147008,base_link,0,1,-7.2871354,112.7959275,53.635030451339645,"(1.3548959999999999, 0.0, 0.0, 0.0, 1.3548959999999999, 0.0, 0.0, 0.0, 3.441025)",2
2025/07/05/17:48:09.233776,8956,1751712489,240147008,base_link,0,1,-7.2871356,112.7959278,53.63503088041301,"(1.3548959999999999, 0.0, 0.0, 0.0, 1.3548959999999999, 0.0, 0.0, 0.0, 3.441025)",2
2025/07/05/17:48:09.334223,8957,1751712489,340147008,base_link,0,1,-7.2871359,112.7959282,53.6350313679288,"(1.3572250000000001, 0.0, 0.0, 0.0, 1.3572250000000001, 0.0, 0.0, 0.0, 3.4670440000000005)",2
2025/07/05/17:48:09.495245,8958,1751712489,501147008,base_link,0,1,-7.2871365,112.7959289,53.63503203077195,"(1.3572250000000001, 0.0, 0.0, 0.0, 1.3572250000000001, 0.0, 0.0, 0.0, 3.4670440000000005)",2
2025/07/05/17:48:09.595940,8959,1751712489,602147008,base_link,0,1,-7.2871368,112.7959293,53.63503251828709,"(1.3618890000000001, 0.0, 0.0, 0.0, 1.3618890000000001, 0.0, 0.0, 0.0, 3.4894240000000005)",2
2025/07/05/17:48:09.675318,8960,1751712489,680147008,base_link,0,1,-7.2871371,112.7959297,53.63503300580206,"(1.3665610000000001, 0.0, 0.0, 0.0, 1.3665610000000001, 0.0, 0.0, 0.0, 3.5118760000000004)",2
2025/07/05/17:48:09.776107,8961,1751712489,780147008,base_link,0,1,-7.2871375,112.7959303,53.645033863945926,"(1.3665610000000001, 0.0, 0.0, 0.0, 1.3665610000000001, 0.0, 0.0, 0.0, 3.5118760000000004)",2
2025/07/05/17:48:09.855376,8962,1751712489,860147008,base_link,0,1,-7.2871378,112.7959308,53.635034663646536,"(1.3688999999999998, 0.0, 0.0, 0.0, 1.3688999999999998, 0.0, 0.0, 0.0, 3.508129)",2
2025/07/05/17:48:09.954881,8963,1751712489,960147008,base_link,0,1,-7.2871382,112.7959314,53.63503552178881,"(1.3688999999999998, 0.0, 0.0, 0.0, 1.3688999999999998, 0.0, 0.0, 0.0, 3.508129)",2
2025/07/05/17:48:10.054809,8964,1751712490,60147008,base_link,0,1,-7.2871385,112.795932,53.63503663367368,"(1.3688999999999998, 0.0, 0.0, 0.0, 1.3688999999999998, 0.0, 0.0, 0.0, 3.508129)",2
2025/07/05/17:48:10.154031,8965,1751712490,160147008,base_link,0,1,-7.2871387,112.7959327,53.63503831148657,"(1.373584, 0.0, 0.0, 0.0, 1.373584, 0.0, 0.0, 0.0, 3.515625)",2
2025/07/05/17:48:10.254080,8966,1751712490,260147008,base_link,0,1,-7.2871389,112.7959335,53.63504030148286,"(1.3806250000000002, 0.0, 0.0, 0.0, 1.3806250000000002, 0.0, 0.0, 0.0, 3.5118760000000004)",2
2025/07/05/17:48:10.354881,8967,1751712490,360147008,base_link,0,1,-7.2871391,112.7959343,53.635042291476594,"(1.3806250000000002, 0.0, 0.0, 0.0, 1.3806250000000002, 0.0, 0.0, 0.0, 3.5118760000000004)",2
2025/07/05/17:48:10.514841,8968,1751712490,521147008,base_link,0,1,-7.2871392,112.7959358,53.63504672050445,"(1.390041, 0.0, 0.0, 0.0, 1.390041, 0.0, 0.0, 0.0, 3.493161)",2
2025/07/05/17:48:10.617389,8969,1751712490,624147008,base_link,0,1,-7.2871393,112.7959367,53.63504927641998,"(1.390041, 0.0, 0.0, 0.0, 1.390041, 0.0, 0.0, 0.0, 3.493161)",2
2025/07/05/17:48:10.714180,8970,1751712490,721147008,base_link,0,1,-7.2871395,112.7959377,53.63505189077188,"(1.3994890000000002, 0.0, 0.0, 0.0, 1.3994890000000002, 0.0, 0.0, 0.0, 3.493161)",2
2025/07/05/17:48:10.817270,8971,1751712490,824147008,base_link,0,1,-7.2871396,112.7959387,53.63505475886487,"(1.3994890000000002, 0.0, 0.0, 0.0, 1.3994890000000002, 0.0, 0.0, 0.0, 3.493161)",2
2025/07/05/17:48:10.895401,8972,1751712490,902147008,base_link,0,1,-7.2871398,112.7959394,53.63505643665934,"(1.406596, 0.0, 0.0, 0.0, 1.406596, 0.0, 0.0, 0.0, 3.5043840000000004)",2
2025/07/05/17:48:11.017653,8973,1751712491,24147008,base_link,0,1,-7.2871399,112.7959405,53.63505961692928,"(1.406596, 0.0, 0.0, 0.0, 1.406596, 0.0, 0.0, 0.0, 3.5043840000000004)",2
2025/07/05/17:48:11.094609,8974,1751712491,101147008,base_link,0,1,-7.2871401,112.7959413,53.635061606901644,"(1.411344, 0.0, 0.0, 0.0, 1.411344, 0.0, 0.0, 0.0, 3.515625)",2
2025/07/05/17:48:11.195765,8975,1751712491,202147008,base_link,0,1,-7.2871402,112.7959422,53.63506416279935,"(1.411344, 0.0, 0.0, 0.0, 1.411344, 0.0, 0.0, 0.0, 3.515625)",2
2025/07/05/17:48:11.274819,8976,1751712491,280147008,base_link,0,1,-7.2871405,112.795943,53.62506589902094,"(1.420864, 0.0, 0.0, 0.0, 1.420864, 0.0, 0.0, 0.0, 3.545689)",2
2025/07/05/17:48:11.356257,8977,1751712491,360147008,base_link,0,1,-7.2871407,112.7959437,53.625067576803616,"(1.420864, 0.0, 0.0, 0.0, 1.420864, 0.0, 0.0, 0.0, 3.545689)",2
2025/07/05/17:48:11.554600,8978,1751712491,560147008,base_link,0,1,-7.2871413,112.7959452,53.625070737053534,"(1.430416, 0.0, 0.0, 0.0, 1.430416, 0.0, 0.0, 0.0, 3.568321)",2
2025/07/05/17:48:11.633835,8979,1751712491,640147008,base_link,0,1,-7.2871415,112.7959458,53.62507210264914,"(1.430416, 0.0, 0.0, 0.0, 1.430416, 0.0, 0.0, 0.0, 3.568321)",2
2025/07/05/17:48:11.733986,8980,1751712491,740147008,base_link,0,1,-7.2871419,112.7959465,53.62507327293355,"(1.4376010000000001, 0.0, 0.0, 0.0, 1.4376010000000001, 0.0, 0.0, 0.0, 3.591025)",2
2025/07/05/17:48:11.817133,8981,1751712491,824147008,base_link,0,1,-7.2871422,112.7959471,53.62507438478107,"(1.4376010000000001, 0.0, 0.0, 0.0, 1.4376010000000001, 0.0, 0.0, 0.0, 3.591025)",2
2025/07/05/17:48:11.916515,8982,1751712491,921147008,base_link,0,1,-7.2871427,112.7959479,53.635075613497605,"(1.4472090000000002, 0.0, 0.0, 0.0, 1.4472090000000002, 0.0, 0.0, 0.0, 3.613801)",2
2025/07/05/17:48:12.018686,8983,1751712492,24147008,base_link,0,1,-7.2871431,112.7959488,53.6350774081364,"(1.4472090000000002, 0.0, 0.0, 0.0, 1.4472090000000002, 0.0, 0.0, 0.0, 3.613801)",2
2025/07/05/17:48:12.094671,8984,1751712492,101147008,base_link,0,1,-7.2871434,112.7959495,53.645078832158234,"(1.4544359999999998, 0.0, 0.0, 0.0, 1.4544359999999998, 0.0, 0.0, 0.0, 3.629025)",2
2025/07/05/17:48:12.195835,8985,1751712492,202147008,base_link,0,1,-7.2871437,112.7959505,53.645081192714756,"(1.4544359999999998, 0.0, 0.0, 0.0, 1.4544359999999998, 0.0, 0.0, 0.0, 3.629025)",2
2025/07/05/17:48:12.275260,8986,1751712492,280147008,base_link,0,1,-7.2871439,112.7959512,53.64508287047643,"(1.4641, 0.0, 0.0, 0.0, 1.4641, 0.0, 0.0, 0.0, 3.6633959999999997)",2
2025/07/05/17:48:12.374038,8987,1751712492,380147008,base_link,0,1,-7.2871441,112.7959522,53.6550854847708,"(1.4641, 0.0, 0.0, 0.0, 1.4641, 0.0, 0.0, 0.0, 3.6633959999999997)",2
2025/07/05/17:48:12.533864,8988,1751712492,540147008,base_link,0,1,-7.2871444,112.7959537,53.665089406205226,"(1.4737959999999999, 0.0, 0.0, 0.0, 1.4737959999999999, 0.0, 0.0, 0.0, 3.6864)",2
2025/07/05/17:48:12.635717,8989,1751712492,640147008,base_link,0,1,-7.2871446,112.7959546,53.66509170831276,"(1.4737959999999999, 0.0, 0.0, 0.0, 1.4737959999999999, 0.0, 0.0, 0.0, 3.6864)",2
2025/07/05/17:48:12.714584,8990,1751712492,721147008,base_link,0,1,-7.2871448,112.7959553,53.66509338606315,"(1.4835239999999998, 0.0, 0.0, 0.0, 1.4835239999999998, 0.0, 0.0, 0.0, 3.7171839999999996)",2
2025/07/05/17:48:12.817778,8991,1751712492,824147008,base_link,0,1,-7.2871452,112.7959562,53.67509518067517,"(1.4835239999999998, 0.0, 0.0, 0.0, 1.4835239999999998, 0.0, 0.0, 0.0, 3.7171839999999996)",2
2025/07/05/17:48:12.894831,8992,1751712492,901147008,base_link,0,1,-7.2871455,112.7959567,53.67509598032338,"(1.4957290000000003, 0.0, 0.0, 0.0, 1.4957290000000003, 0.0, 0.0, 0.0, 3.748096)",2
2025/07/05/17:48:13.017152,8993,1751712493,24147008,base_link,0,1,-7.287146,112.7959576,53.6850975211862,"(1.4957290000000003, 0.0, 0.0, 0.0, 1.4957290000000003, 0.0, 0.0, 0.0, 3.748096)",2
2025/07/05/17:48:13.095020,8994,1751712493,101147008,base_link,0,1,-7.2871462,112.7959581,53.685098574576664,"(1.5055290000000001, 0.0, 0.0, 0.0, 1.5055290000000001, 0.0, 0.0, 0.0, 3.775249)",2
2025/07/05/17:48:13.175103,8995,1751712493,180147008,base_link,0,1,-7.2871465,112.7959587,53.695099686397356,"(1.5055290000000001, 0.0, 0.0, 0.0, 1.5055290000000001, 0.0, 0.0, 0.0, 3.775249)",2
2025/07/05/17:48:13.254327,8996,1751712493,260147008,base_link,0,1,-7.2871468,112.7959593,53.70510079821683,"(1.517824, 0.0, 0.0, 0.0, 1.517824, 0.0, 0.0, 0.0, 3.7830250000000003)",2
2025/07/05/17:48:13.354613,8997,1751712493,360147008,base_link,0,1,-7.2871471,112.79596,53.715102222209815,"(1.517824, 0.0, 0.0, 0.0, 1.517824, 0.0, 0.0, 0.0, 3.7830250000000003)",2
2025/07/05/17:48:13.553698,8998,1751712493,560147008,base_link,0,1,-7.2871479,112.7959617,53.73510549922527,"(1.532644, 0.0, 0.0, 0.0, 1.532644, 0.0, 0.0, 0.0, 3.794704)",2
2025/07/05/17:48:13.654780,8999,1751712493,660147008,base_link,0,1,-7.2871482,112.7959627,53.74510785973321,"(1.532644, 0.0, 0.0, 0.0, 1.532644, 0.0, 0.0, 0.0, 3.794704)",2
2025/07/05/17:48:13.754053,9000,1751712493,760147008,base_link,0,1,-7.2871486,112.7959637,53.7451099664935,"(1.5376, 0.0, 0.0, 0.0, 1.5376, 0.0, 0.0, 0.0, 3.740356)",2
2025/07/05/17:48:13.853647,9001,1751712493,860147008,base_link,0,1,-7.2871489,112.7959648,53.755112639166384,"(1.532644, 0.0, 0.0, 0.0, 1.532644, 0.0, 0.0, 0.0, 3.682561)",2
2025/07/05/17:48:13.954909,9002,1751712493,960147008,base_link,0,1,-7.2871492,112.7959659,53.76511531183452,"(1.532644, 0.0, 0.0, 0.0, 1.532644, 0.0, 0.0, 0.0, 3.682561)",2
2025/07/05/17:48:14.054182,9003,1751712494,60147008,base_link,0,1,-7.2871494,112.795967,53.77511823824172,"(1.5202890000000002, 0.0, 0.0, 0.0, 1.5202890000000002, 0.0, 0.0, 0.0, 3.6481)",2
2025/07/05/17:48:14.154284,9004,1751712494,160147008,base_link,0,1,-7.2871497,112.7959682,53.785121223072,"(1.5202890000000002, 0.0, 0.0, 0.0, 1.5202890000000002, 0.0, 0.0, 0.0, 3.6481)",2
2025/07/05/17:48:14.233881,9005,1751712494,240147008,base_link,0,1,-7.2871498,112.7959692,53.78512409104255,"(1.5202890000000002, 0.0, 0.0, 0.0, 1.5202890000000002, 0.0, 0.0, 0.0, 3.6481)",2
2025/07/05/17:48:14.334862,9006,1751712494,340147008,base_link,0,1,-7.28715,112.7959705,53.79512764177796,"(1.507984, 0.0, 0.0, 0.0, 1.507984, 0.0, 0.0, 0.0, 3.5721)",2
2025/07/05/17:48:14.474961,9007,1751712494,480147008,base_link,0,1,-7.28715,112.7959723,53.79513326084945,"(1.507984, 0.0, 0.0, 0.0, 1.507984, 0.0, 0.0, 0.0, 3.5721)",2
2025/07/05/17:48:14.595747,9008,1751712494,601147008,base_link,0,1,-7.2871499,112.7959739,53.80513850931813,"(1.5006250000000003, 0.0, 0.0, 0.0, 1.5006250000000003, 0.0, 0.0, 0.0, 3.523129)",2
2025/07/05/17:48:14.674735,9009,1751712494,680147008,base_link,0,1,-7.2871499,112.795975,53.80514194318634,"(1.4884, 0.0, 0.0, 0.0, 1.4884, 0.0, 0.0, 0.0, 3.493161)",2
2025/07/05/17:48:14.775037,9010,1751712494,780147008,base_link,0,1,-7.2871499,112.7959763,53.80514600139004,"(1.4884, 0.0, 0.0, 0.0, 1.4884, 0.0, 0.0, 0.0, 3.493161)",2
2025/07/05/17:48:14.854784,9011,1751712494,860147008,base_link,0,1,-7.2871499,112.7959773,53.80514912308199,"(1.4737959999999999, 0.0, 0.0, 0.0, 1.4737959999999999, 0.0, 0.0, 0.0, 3.4447360000000002)",2
2025/07/05/17:48:14.974751,9012,1751712494,981147008,base_link,0,1,-7.2871502,112.7959788,53.805153044371664,"(1.4737959999999999, 0.0, 0.0, 0.0, 1.4737959999999999, 0.0, 0.0, 0.0, 3.4447360000000002)",2
2025/07/05/17:48:15.053965,9013,1751712495,60147008,base_link,0,1,-7.2871504,112.7959797,53.805155346391885,"(1.459264, 0.0, 0.0, 0.0, 1.459264, 0.0, 0.0, 0.0, 3.392964)",2
2025/07/05/17:48:15.153950,9014,1751712495,160147008,base_link,0,1,-7.2871508,112.7959809,53.80515807741692,"(1.459264, 0.0, 0.0, 0.0, 1.459264, 0.0, 0.0, 0.0, 3.392964)",2
2025/07/05/17:48:15.254013,9015,1751712495,260147008,base_link,0,1,-7.2871512,112.7959821,53.8051608084363,"(1.459264, 0.0, 0.0, 0.0, 1.459264, 0.0, 0.0, 0.0, 3.392964)",2
2025/07/05/17:48:15.354098,9016,1751712495,360147008,base_link,0,1,-7.2871516,112.7959834,53.80516385161671,"(1.444804, 0.0, 0.0, 0.0, 1.444804, 0.0, 0.0, 0.0, 3.341584)",2
2025/07/05/17:48:15.534645,9017,1751712495,540147008,base_link,0,1,-7.2871518,112.7959857,53.81517052394753,"(1.444804, 0.0, 0.0, 0.0, 1.444804, 0.0, 0.0, 0.0, 3.341584)",2
2025/07/05/17:48:15.633911,9018,1751712495,640147008,base_link,0,1,-7.2871519,112.795987,53.825174328354855,"(1.430416, 0.0, 0.0, 0.0, 1.430416, 0.0, 0.0, 0.0, 3.305124)",2
2025/07/05/17:48:15.714590,9019,1751712495,721147008,base_link,0,1,-7.2871519,112.795988,53.835177450009766,"(1.4161, 0.0, 0.0, 0.0, 1.4161, 0.0, 0.0, 0.0, 3.268864)",2
2025/07/05/17:48:15.817469,9020,1751712495,824147008,base_link,0,1,-7.287152,112.7959894,53.83518156657253,"(1.4161, 0.0, 0.0, 0.0, 1.4161, 0.0, 0.0, 0.0, 3.268864)",2
2025/07/05/17:48:15.894986,9021,1751712495,901147008,base_link,0,1,-7.2871521,112.7959905,53.84518474663534,"(1.3994890000000002, 0.0, 0.0, 0.0, 1.3994890000000002, 0.0, 0.0, 0.0, 3.225616)",2
2025/07/05/17:48:15.995722,9022,1751712496,2147008,base_link,0,1,-7.2871522,112.7959919,53.85518886318673,"(1.3994890000000002, 0.0, 0.0, 0.0, 1.3994890000000002, 0.0, 0.0, 0.0, 3.225616)",2
2025/07/05/17:48:16.074900,9023,1751712496,80147008,base_link,0,1,-7.2871523,112.7959929,53.86519173107659,"(1.3759290000000002, 0.0, 0.0, 0.0, 1.3759290000000002, 0.0, 0.0, 0.0, 3.186225)",2
2025/07/05/17:48:16.173758,9024,1751712496,180147008,base_link,0,1,-7.2871525,112.7959943,53.87519559386615,"(1.3759290000000002, 0.0, 0.0, 0.0, 1.3759290000000002, 0.0, 0.0, 0.0, 3.186225)",2
2025/07/05/17:48:16.254072,9025,1751712496,260147008,base_link,0,1,-7.2871526,112.7959953,53.885198461747706,"(1.3572250000000001, 0.0, 0.0, 0.0, 1.3572250000000001, 0.0, 0.0, 0.0, 3.139984)",2
2025/07/05/17:48:16.354873,9026,1751712496,360147008,base_link,0,1,-7.2871529,112.7959966,53.89520175861152,"(1.3572250000000001, 0.0, 0.0, 0.0, 1.3572250000000001, 0.0, 0.0, 0.0, 3.139984)",2
2025/07/05/17:48:16.495672,9027,1751712496,502147008,base_link,0,1,-7.2871535,112.7959983,53.905205542863335,"(1.3409639999999998, 0.0, 0.0, 0.0, 1.3409639999999998, 0.0, 0.0, 0.0, 3.1011209999999996)",2
2025/07/05/17:48:16.595440,9028,1751712496,602147008,base_link,0,1,-7.2871541,112.7959994,53.905207454135954,"(1.3409639999999998, 0.0, 0.0, 0.0, 1.3409639999999998, 0.0, 0.0, 0.0, 3.1011209999999996)",2
2025/07/05/17:48:16.674578,9029,1751712496,681147008,base_link,0,1,-7.2871545,112.7960003,53.92520924858384,"(1.3224999999999998, 0.0, 0.0, 0.0, 1.3224999999999998, 0.0, 0.0, 0.0, 3.0625)",2
2025/07/05/17:48:16.774103,9030,1751712496,780147008,base_link,0,1,-7.287155,112.7960014,53.92521141359917,"(1.3224999999999998, 0.0, 0.0, 0.0, 1.3224999999999998, 0.0, 0.0, 0.0, 3.0625)",2
2025/07/05/17:48:16.853967,9031,1751712496,860147008,base_link,0,1,-7.2871554,112.7960024,53.93521352020036,"(1.3087359999999997, 0.0, 0.0, 0.0, 1.3087359999999997, 0.0, 0.0, 0.0, 3.0276)",2
2025/07/05/17:48:16.974289,9032,1751712496,980147008,base_link,0,1,-7.2871558,112.7960038,53.93521687543588,"(1.3087359999999997, 0.0, 0.0, 0.0, 1.3087359999999997, 0.0, 0.0, 0.0, 3.0276)",2
2025/07/05/17:48:17.074852,9033,1751712497,80147008,base_link,0,1,-7.2871561,112.796005,53.945219860096074,"(1.288225, 0.0, 0.0, 0.0, 1.288225, 0.0, 0.0, 0.0, 2.9859839999999997)",2
2025/07/05/17:48:17.174166,9034,1751712497,180147008,base_link,0,1,-7.2871564,112.7960063,53.945223156909265,"(1.288225, 0.0, 0.0, 0.0, 1.288225, 0.0, 0.0, 0.0, 2.9859839999999997)",2
2025/07/05/17:48:17.253893,9035,1751712497,260147008,base_link,0,1,-7.2871567,112.7960072,53.94522520508315,"(1.288225, 0.0, 0.0, 0.0, 1.288225, 0.0, 0.0, 0.0, 2.9859839999999997)",2
2025/07/05/17:48:17.334039,9036,1751712497,340147008,base_link,0,1,-7.2871569,112.7960082,53.94522781916237,"(1.2678759999999998, 0.0, 0.0, 0.0, 1.2678759999999998, 0.0, 0.0, 0.0, 2.951524)",2
2025/07/05/17:48:17.474602,9037,1751712497,480147008,base_link,0,1,-7.2871574,112.7960099,53.935231857086926,"(1.2678759999999998, 0.0, 0.0, 0.0, 1.2678759999999998, 0.0, 0.0, 0.0, 2.951524)",2
2025/07/05/17:48:17.595563,9038,1751712497,602147008,base_link,0,1,-7.287158,112.7960112,53.93523439262284,"(1.2454560000000003, 0.0, 0.0, 0.0, 1.2454560000000003, 0.0, 0.0, 0.0, 2.920681)",2
2025/07/05/17:48:17.674229,9039,1751712497,681147008,base_link,0,1,-7.2871584,112.7960121,53.93523618702877,"(1.221025, 0.0, 0.0, 0.0, 1.221025, 0.0, 0.0, 0.0, 2.8832039999999997)",2
2025/07/05/17:48:17.753964,9040,1751712497,760147008,base_link,0,1,-7.2871589,112.7960129,53.93523741552553,"(1.221025, 0.0, 0.0, 0.0, 1.221025, 0.0, 0.0, 0.0, 2.8832039999999997)",2
2025/07/05/17:48:17.854694,9041,1751712497,860147008,base_link,0,1,-7.2871595,112.7960139,53.93523901458146,"(1.221025, 0.0, 0.0, 0.0, 1.221025, 0.0, 0.0, 0.0, 2.8832039999999997)",2
2025/07/05/17:48:17.973902,9042,1751712497,980147008,base_link,0,1,-7.2871603,112.7960152,53.93524104259975,"(1.199025, 0.0, 0.0, 0.0, 1.199025, 0.0, 0.0, 0.0, 2.845969)",2
2025/07/05/17:48:18.053836,9043,1751712498,60147008,base_link,0,1,-7.2871607,112.796016,53.93524252483848,"(1.1815689999999999, 0.0, 0.0, 0.0, 1.1815689999999999, 0.0, 0.0, 0.0, 2.8156839999999996)",2
2025/07/05/17:48:18.153943,9044,1751712498,160147008,base_link,0,1,-7.2871613,112.7960171,53.93524443603871,"(1.1815689999999999, 0.0, 0.0, 0.0, 1.1815689999999999, 0.0, 0.0, 0.0, 2.8156839999999996)",2
2025/07/05/17:48:18.254006,9045,1751712498,260147008,base_link,0,1,-7.2871618,112.7960182,53.93524660098341,"(1.1664, 0.0, 0.0, 0.0, 1.1664, 0.0, 0.0, 0.0, 2.782224)",2
2025/07/05/17:48:18.353974,9046,1751712498,360147008,base_link,0,1,-7.2871623,112.7960193,53.92524876592351,"(1.1664, 0.0, 0.0, 0.0, 1.1664, 0.0, 0.0, 0.0, 2.782224)",2
2025/07/05/17:48:18.533866,9047,1751712498,540147008,base_link,0,1,-7.2871629,112.7960214,53.915253798631795,"(1.1664, 0.0, 0.0, 0.0, 1.1664, 0.0, 0.0, 0.0, 2.782224)",2
2025/07/05/17:48:18.633852,9048,1751712498,640147008,base_link,0,1,-7.287163,112.7960226,53.90525729070418,"(1.1534760000000002, 0.0, 0.0, 0.0, 1.1534760000000002, 0.0, 0.0, 0.0, 2.752281)",2
2025/07/05/17:48:18.733845,9049,1751712498,740147008,base_link,0,1,-7.287163,112.7960238,53.90526103652112,"(1.140624, 0.0, 0.0, 0.0, 1.140624, 0.0, 0.0, 0.0, 2.732409)",2
2025/07/05/17:48:18.833863,9050,1751712498,840147008,base_link,0,1,-7.2871631,112.7960251,53.90526484073518,"(1.140624, 0.0, 0.0, 0.0, 1.140624, 0.0, 0.0, 0.0, 2.732409)",2
2025/07/05/17:48:18.933864,9051,1751712498,940147008,base_link,0,1,-7.2871632,112.7960264,53.89526864494381,"(1.1299689999999998, 0.0, 0.0, 0.0, 1.1299689999999998, 0.0, 0.0, 0.0, 2.709316)",2
2025/07/05/17:48:19.033832,9052,1751712499,40147008,base_link,0,1,-7.2871634,112.7960276,53.88527188324639,"(1.1299689999999998, 0.0, 0.0, 0.0, 1.1299689999999998, 0.0, 0.0, 0.0, 2.709316)",2
2025/07/05/17:48:19.134914,9053,1751712499,140147008,base_link,0,1,-7.2871637,112.7960289,53.875275179942776,"(1.1236000000000002, 0.0, 0.0, 0.0, 1.1236000000000002, 0.0, 0.0, 0.0, 2.686321)",2
2025/07/05/17:48:19.233877,9054,1751712499,240147008,base_link,0,1,-7.2871641,112.7960301,53.87527791073293,"(1.1236000000000002, 0.0, 0.0, 0.0, 1.1236000000000002, 0.0, 0.0, 0.0, 2.686321)",2
2025/07/05/17:48:19.334125,9055,1751712499,340147008,base_link,0,1,-7.2871645,112.7960313,53.875280641517406,"(1.108809, 0.0, 0.0, 0.0, 1.108809, 0.0, 0.0, 0.0, 2.6634239999999996)",2
2025/07/05/17:48:19.454057,9056,1751712499,460147008,base_link,0,1,-7.287165,112.7960327,53.87528374284187,"(1.108809, 0.0, 0.0, 0.0, 1.108809, 0.0, 0.0, 0.0, 2.6634239999999996)",2
2025/07/05/17:48:19.595424,9057,1751712499,602147008,base_link,0,1,-7.2871656,112.7960345,53.87528783899788,"(1.094116, 0.0, 0.0, 0.0, 1.094116, 0.0, 0.0, 0.0, 2.640625)",2
2025/07/05/17:48:19.674003,9058,1751712499,680147008,base_link,0,1,-7.2871658,112.7960355,53.86529045296835,"(1.0816000000000001, 0.0, 0.0, 0.0, 1.0816000000000001, 0.0, 0.0, 0.0, 2.608225)",2
2025/07/05/17:48:19.773869,9059,1751712499,780147008,base_link,0,1,-7.2871661,112.7960368,53.86529374962409,"(1.0816000000000001, 0.0, 0.0, 0.0, 1.0816000000000001, 0.0, 0.0, 0.0, 2.608225)",2
2025/07/05/17:48:19.853866,9060,1751712499,860147008,base_link,0,1,-7.2871662,112.7960379,53.865296929482824,"(1.069156, 0.0, 0.0, 0.0, 1.069156, 0.0, 0.0, 0.0, 2.5792360000000003)",2
2025/07/05/17:48:19.973920,9061,1751712499,980147008,base_link,0,1,-7.2871663,112.7960395,53.85530167006616,"(1.069156, 0.0, 0.0, 0.0, 1.069156, 0.0, 0.0, 0.0, 2.5792360000000003)",2
2025/07/05/17:48:20.054016,9062,1751712500,60147008,base_link,0,1,-7.2871664,112.7960406,53.85530484991509,"(1.058841, 0.0, 0.0, 0.0, 1.058841, 0.0, 0.0, 0.0, 2.5600000000000005)",2
2025/07/05/17:48:20.154075,9063,1751712500,160147008,base_link,0,1,-7.2871666,112.7960419,53.84530840029785,"(1.058841, 0.0, 0.0, 0.0, 1.058841, 0.0, 0.0, 0.0, 2.5600000000000005)",2
2025/07/05/17:48:20.253703,9064,1751712500,260147008,base_link,0,1,-7.2871669,112.7960432,53.83531169692223,"(1.058841, 0.0, 0.0, 0.0, 1.058841, 0.0, 0.0, 0.0, 2.5600000000000005)",2
2025/07/05/17:48:20.353966,9065,1751712500,360147008,base_link,0,1,-7.2871674,112.7960445,53.82531448603576,"(1.050625, 0.0, 0.0, 0.0, 1.050625, 0.0, 0.0, 0.0, 2.537649)",2
2025/07/05/17:48:20.554001,9066,1751712500,560147008,base_link,0,1,-7.2871683,112.7960469,53.815319693709256,"(1.0424409999999997, 0.0, 0.0, 0.0, 1.0424409999999997, 0.0, 0.0, 0.0, 2.5217440000000004)",2
2025/07/05/17:48:20.633611,9067,1751712500,640147008,base_link,0,1,-7.2871687,112.7960479,53.80532180012857,"(1.0424409999999997, 0.0, 0.0, 0.0, 1.0424409999999997, 0.0, 0.0, 0.0, 2.5217440000000004)",2
2025/07/05/17:48:20.733771,9068,1751712500,740147008,base_link,0,1,-7.2871692,112.7960491,53.80532427707628,"(1.032256, 0.0, 0.0, 0.0, 1.032256, 0.0, 0.0, 0.0, 2.4964000000000004)",2
2025/07/05/17:48:20.833571,9069,1751712500,840147008,base_link,0,1,-7.2871696,112.7960504,53.79532731991137,"(1.032256, 0.0, 0.0, 0.0, 1.032256, 0.0, 0.0, 0.0, 2.4964000000000004)",2
2025/07/05/17:48:20.934898,9070,1751712500,940147008,base_link,0,1,-7.28717,112.7960517,53.79533036273984,"(1.0221209999999998, 0.0, 0.0, 0.0, 1.0221209999999998, 0.0, 0.0, 0.0, 2.474329)",2
2025/07/05/17:48:21.033698,9071,1751712501,40147008,base_link,0,1,-7.2871703,112.796053,53.79533365931321,"(1.0221209999999998, 0.0, 0.0, 0.0, 1.0221209999999998, 0.0, 0.0, 0.0, 2.474329)",2
2025/07/05/17:48:21.133818,9072,1751712501,140147008,base_link,0,1,-7.2871705,112.7960542,53.80533689749207,"(1.0060089999999997, 0.0, 0.0, 0.0, 1.0060089999999997, 0.0, 0.0, 0.0, 2.4586240000000004)",2
2025/07/05/17:48:21.233701,9073,1751712501,240147008,base_link,0,1,-7.2871707,112.7960555,53.80534044780519,"(1.0060089999999997, 0.0, 0.0, 0.0, 1.0060089999999997, 0.0, 0.0, 0.0, 2.4586240000000004)",2
2025/07/05/17:48:21.333802,9074,1751712501,340147008,base_link,0,1,-7.2871708,112.7960568,53.80534425186478,"(0.992016, 0.0, 0.0, 0.0, 0.992016, 0.0, 0.0, 0.0, 2.4429689999999997)",2
2025/07/05/17:48:21.495724,9075,1751712501,501147008,base_link,0,1,-7.2871708,112.7960588,53.81535049464301,"(0.992016, 0.0, 0.0, 0.0, 0.992016, 0.0, 0.0, 0.0, 2.4429689999999997)",2
2025/07/05/17:48:21.617248,9076,1751712501,624147008,base_link,0,1,-7.2871708,112.7960603,53.815355176719436,"(0.9801, 0.0, 0.0, 0.0, 0.9801, 0.0, 0.0, 0.0, 2.430481)",2
2025/07/05/17:48:21.694963,9077,1751712501,701147008,base_link,0,1,-7.2871707,112.7960614,53.80535886399282,"(0.970225, 0.0, 0.0, 0.0, 0.970225, 0.0, 0.0, 0.0, 2.4149160000000003)",2
2025/07/05/17:48:21.795548,9078,1751712501,802147008,base_link,0,1,-7.2871707,112.7960627,53.80536292178404,"(0.970225, 0.0, 0.0, 0.0, 0.970225, 0.0, 0.0, 0.0, 2.4149160000000003)",2
2025/07/05/17:48:21.894452,9079,1751712501,901147008,base_link,0,1,-7.2871705,112.7960639,53.80536717494469,"(0.964324, 0.0, 0.0, 0.0, 0.964324, 0.0, 0.0, 0.0, 2.4025000000000003)",2
2025/07/05/17:48:21.995556,9080,1751712502,2147008,base_link,0,1,-7.2871704,112.7960651,53.805371174347314,"(0.964324, 0.0, 0.0, 0.0, 0.964324, 0.0, 0.0, 0.0, 2.4025000000000003)",2
2025/07/05/17:48:22.073742,9081,1751712502,80147008,base_link,0,1,-7.2871702,112.7960661,53.80537480323035,"(0.958441, 0.0, 0.0, 0.0, 0.958441, 0.0, 0.0, 0.0, 2.396304)",2
2025/07/05/17:48:22.153708,9082,1751712502,160147008,base_link,0,1,-7.28717,112.796067,53.805378119976,"(0.958441, 0.0, 0.0, 0.0, 0.958441, 0.0, 0.0, 0.0, 2.396304)",2
2025/07/05/17:48:22.233581,9083,1751712502,240147008,base_link,0,1,-7.2871698,112.796068,53.79538174885787,"(0.958441, 0.0, 0.0, 0.0, 0.958441, 0.0, 0.0, 0.0, 2.396304)",2
2025/07/05/17:48:22.333545,9084,1751712502,340147008,base_link,0,1,-7.2871694,112.7960691,53.79538619739328,"(0.958441, 0.0, 0.0, 0.0, 0.958441, 0.0, 0.0, 0.0, 2.387025)",2
2025/07/05/17:48:22.514416,9085,1751712502,521147008,base_link,0,1,-7.2871687,112.7960713,53.785394840709415,"(0.958441, 0.0, 0.0, 0.0, 0.958441, 0.0, 0.0, 0.0, 2.380849)",2
2025/07/05/17:48:22.617381,9086,1751712502,624147008,base_link,0,1,-7.2871683,112.7960725,53.78539960138602,"(0.958441, 0.0, 0.0, 0.0, 0.958441, 0.0, 0.0, 0.0, 2.380849)",2
2025/07/05/17:48:22.714962,9087,1751712502,721147008,base_link,0,1,-7.2871679,112.7960736,53.77540404992861,"(0.9603999999999999, 0.0, 0.0, 0.0, 0.9603999999999999, 0.0, 0.0, 0.0, 2.3716)",2
2025/07/05/17:48:22.817002,9088,1751712502,824147008,base_link,0,1,-7.2871674,112.7960748,53.77540906437254,"(0.9603999999999999, 0.0, 0.0, 0.0, 0.9603999999999999, 0.0, 0.0, 0.0, 2.3716)",2
2025/07/05/17:48:22.895620,9089,1751712502,902147008,base_link,0,1,-7.287167,112.7960757,53.77541288864906,"(0.962361, 0.0, 0.0, 0.0, 0.962361, 0.0, 0.0, 0.0, 2.3623689999999997)",2
2025/07/05/17:48:22.995548,9090,1751712503,2147008,base_link,0,1,-7.2871665,112.7960768,53.775417590964494,"(0.962361, 0.0, 0.0, 0.0, 0.962361, 0.0, 0.0, 0.0, 2.3623689999999997)",2
2025/07/05/17:48:23.074126,9091,1751712503,80147008,base_link,0,1,-7.287166,112.7960777,53.77542166901331,"(0.962361, 0.0, 0.0, 0.0, 0.962361, 0.0, 0.0, 0.0, 2.3500889999999997)",2
2025/07/05/17:48:23.173635,9092,1751712503,180147008,base_link,0,1,-7.2871655,112.7960788,53.775426371336934,"(0.962361, 0.0, 0.0, 0.0, 0.962361, 0.0, 0.0, 0.0, 2.3500889999999997)",2
2025/07/05/17:48:23.254005,9093,1751712503,260147008,base_link,0,1,-7.287165,112.7960796,53.7654301372592,"(0.964324, 0.0, 0.0, 0.0, 0.964324, 0.0, 0.0, 0.0, 2.347024)",2
2025/07/05/17:48:23.333671,9094,1751712503,340147008,base_link,0,1,-7.2871645,112.7960804,53.76543390318575,"(0.964324, 0.0, 0.0, 0.0, 0.964324, 0.0, 0.0, 0.0, 2.347024)",2
2025/07/05/17:48:23.514589,9095,1751712503,521147008,base_link,0,1,-7.2871633,112.7960822,53.75544256686541,"(0.964324, 0.0, 0.0, 0.0, 0.964324, 0.0, 0.0, 0.0, 2.347024)",2
2025/07/05/17:48:23.616981,9096,1751712503,624147008,base_link,0,1,-7.2871626,112.7960832,53.74544746462273,"(0.962361, 0.0, 0.0, 0.0, 0.962361, 0.0, 0.0, 0.0, 2.3439609999999997)",2
2025/07/05/17:48:23.694658,9097,1751712503,701147008,base_link,0,1,-7.287162,112.7960839,53.74545117220926,"(0.958441, 0.0, 0.0, 0.0, 0.958441, 0.0, 0.0, 0.0, 2.3378409999999996)",2
2025/07/05/17:48:23.795177,9098,1751712503,802147008,base_link,0,1,-7.2871612,112.7960848,53.735456011622674,"(0.958441, 0.0, 0.0, 0.0, 0.958441, 0.0, 0.0, 0.0, 2.3378409999999996)",2
2025/07/05/17:48:23.874138,9099,1751712503,880147008,base_link,0,1,-7.2871605,112.7960855,53.735459973000204,"(0.954529, 0.0, 0.0, 0.0, 0.954529, 0.0, 0.0, 0.0, 2.3378409999999996)",2
2025/07/05/17:48:23.995320,9100,1751712504,2147008,base_link,0,1,-7.2871595,112.7960865,53.72546563212558,"(0.954529, 0.0, 0.0, 0.0, 0.954529, 0.0, 0.0, 0.0, 2.3378409999999996)",2
2025/07/05/17:48:24.073937,9101,1751712504,80147008,base_link,0,1,-7.2871588,112.7960871,53.72546928138803,"(0.948676, 0.0, 0.0, 0.0, 0.948676, 0.0, 0.0, 0.0, 2.3256249999999996)",2
2025/07/05/17:48:24.153845,9102,1751712504,160147008,base_link,0,1,-7.2871582,112.7960878,53.72547298901432,"(0.948676, 0.0, 0.0, 0.0, 0.948676, 0.0, 0.0, 0.0, 2.3256249999999996)",2
2025/07/05/17:48:24.233601,9103,1751712504,240147008,base_link,0,1,-7.2871575,112.7960884,53.72547663829238,"(0.948676, 0.0, 0.0, 0.0, 0.948676, 0.0, 0.0, 0.0, 2.3256249999999996)",2
2025/07/05/17:48:24.333972,9104,1751712504,340147008,base_link,0,1,-7.2871565,112.796089,53.72548104892587,"(0.9389609999999999, 0.0, 0.0, 0.0, 0.9389609999999999, 0.0, 0.0, 0.0, 2.3195289999999997)",2
2025/07/05/17:48:24.494764,9105,1751712504,501147008,base_link,0,1,-7.287155,112.79609,53.71548797704221,"(0.9389609999999999, 0.0, 0.0, 0.0, 0.9389609999999999, 0.0, 0.0, 0.0, 2.3195289999999997)",2
2025/07/05/17:48:24.633982,9106,1751712504,640147008,base_link,0,1,-7.2871536,112.7960908,53.71549402713486,"(0.933156, 0.0, 0.0, 0.0, 0.933156, 0.0, 0.0, 0.0, 2.3134409999999996)",2
2025/07/05/17:48:24.733894,9107,1751712504,740147008,base_link,0,1,-7.2871525,112.7960913,53.715498379481936,"(0.9428409999999999, 0.0, 0.0, 0.0, 0.9428409999999999, 0.0, 0.0, 0.0, 2.334784)",2
2025/07/05/17:48:24.833609,9108,1751712504,840147008,base_link,0,1,-7.2871515,112.7960918,53.715502478057566,"(0.9428409999999999, 0.0, 0.0, 0.0, 0.9428409999999999, 0.0, 0.0, 0.0, 2.334784)",2
2025/07/05/17:48:24.933557,9109,1751712504,940147008,base_link,0,1,-7.2871504,112.7960922,53.71550651830247,"(0.962361, 0.0, 0.0, 0.0, 0.962361, 0.0, 0.0, 0.0, 2.365444)",2
2025/07/05/17:48:25.033533,9110,1751712505,40147008,base_link,0,1,-7.2871493,112.7960924,53.72550993428959,"(0.962361, 0.0, 0.0, 0.0, 0.962361, 0.0, 0.0, 0.0, 2.365444)",2
2025/07/05/17:48:25.133357,9111,1751712505,140147008,base_link,0,1,-7.2871482,112.7960926,53.725513350293056,"(0.970225, 0.0, 0.0, 0.0, 0.970225, 0.0, 0.0, 0.0, 2.359296)",2
2025/07/05/17:48:25.233367,9112,1751712505,240147008,base_link,0,1,-7.2871471,112.7960928,53.72551676631292,"(0.970225, 0.0, 0.0, 0.0, 0.970225, 0.0, 0.0, 0.0, 2.359296)",2
2025/07/05/17:48:25.333855,9113,1751712505,340147008,base_link,0,1,-7.2871459,112.796093,53.72552043614624,"(0.964324, 0.0, 0.0, 0.0, 0.964324, 0.0, 0.0, 0.0, 2.3500889999999997)",2
2025/07/05/17:48:25.453870,9114,1751712505,460147008,base_link,0,1,-7.2871446,112.7960934,53.71552498407623,"(0.964324, 0.0, 0.0, 0.0, 0.964324, 0.0, 0.0, 0.0, 2.3500889999999997)",2
2025/07/05/17:48:25.594651,9115,1751712505,601147008,base_link,0,1,-7.287143,112.7960942,53.71553154199193,"(0.962361, 0.0, 0.0, 0.0, 0.962361, 0.0, 0.0, 0.0, 2.347024)",2
2025/07/05/17:48:25.673579,9116,1751712505,680147008,base_link,0,1,-7.2871421,112.7960946,53.71553507476684,"(0.9506249999999999, 0.0, 0.0, 0.0, 0.9506249999999999, 0.0, 0.0, 0.0, 2.347024)",2
2025/07/05/17:48:25.773527,9117,1751712505,780147008,base_link,0,1,-7.2871411,112.7960951,53.71553917349791,"(0.9506249999999999, 0.0, 0.0, 0.0, 0.9506249999999999, 0.0, 0.0, 0.0, 2.347024)",2
2025/07/05/17:48:25.853396,9118,1751712505,860147008,base_link,0,1,-7.2871402,112.7960956,53.71554301843923,"(0.9506249999999999, 0.0, 0.0, 0.0, 0.9506249999999999, 0.0, 0.0, 0.0, 2.347024)",2
2025/07/05/17:48:25.973898,9119,1751712505,980147008,base_link,0,1,-7.2871389,112.7960962,53.70554819076044,"(0.9409, 0.0, 0.0, 0.0, 0.9409, 0.0, 0.0, 0.0, 2.3439609999999997)",2
2025/07/05/17:48:26.053609,9120,1751712506,60147008,base_link,0,1,-7.287138,112.7960967,53.705552035732566,"(0.935089, 0.0, 0.0, 0.0, 0.935089, 0.0, 0.0, 0.0, 2.3409)",2
2025/07/05/17:48:26.153502,9121,1751712506,160147008,base_link,0,1,-7.2871368,112.7960972,53.705556642146334,"(0.935089, 0.0, 0.0, 0.0, 0.935089, 0.0, 0.0, 0.0, 2.3409)",2
2025/07/05/17:48:26.233533,9122,1751712506,240147008,base_link,0,1,-7.2871358,112.7960974,53.70555980453405,"(0.935089, 0.0, 0.0, 0.0, 0.935089, 0.0, 0.0, 0.0, 2.3409)",2
2025/07/05/17:48:26.333411,9123,1751712506,340147008,base_link,0,1,-7.2871346,112.7960975,53.70556316241853,"(0.9292959999999999, 0.0, 0.0, 0.0, 0.9292959999999999, 0.0, 0.0, 0.0, 2.3317289999999997)",2
2025/07/05/17:48:26.473646,9124,1751712506,480147008,base_link,0,1,-7.2871328,112.7960977,53.70556835535116,"(0.9292959999999999, 0.0, 0.0, 0.0, 0.9292959999999999, 0.0, 0.0, 0.0, 2.3317289999999997)",2
2025/07/05/17:48:26.594476,9125,1751712506,601147008,base_link,0,1,-7.2871313,112.7960979,53.69557278687509,"(0.9216, 0.0, 0.0, 0.0, 0.9216, 0.0, 0.0, 0.0, 2.3195289999999997)",2
2025/07/05/17:48:26.674477,9126,1751712506,681147008,base_link,0,1,-7.2871303,112.7960982,53.69557626148014,"(0.9101159999999999, 0.0, 0.0, 0.0, 0.9101159999999999, 0.0, 0.0, 0.0, 2.3012889999999997)",2
2025/07/05/17:48:26.753562,9127,1751712506,760147008,base_link,0,1,-7.2871293,112.7960985,53.68557973609955,"(0.9101159999999999, 0.0, 0.0, 0.0, 0.9101159999999999, 0.0, 0.0, 0.0, 2.3012889999999997)",2
2025/07/05/17:48:26.853988,9128,1751712506,860147008,base_link,0,1,-7.287128,112.7960989,53.6955842843405,"(0.9101159999999999, 0.0, 0.0, 0.0, 0.9101159999999999, 0.0, 0.0, 0.0, 2.3012889999999997)",2
2025/07/05/17:48:26.933465,9129,1751712506,940147008,base_link,0,1,-7.287127,112.7960992,53.69558775899273,"(0.9006009999999999, 0.0, 0.0, 0.0, 0.9006009999999999, 0.0, 0.0, 0.0, 2.295225)",2
2025/07/05/17:48:27.036843,9130,1751712507,43147008,base_link,0,1,-7.2871258,112.7960996,53.695592053452344,"(0.9006009999999999, 0.0, 0.0, 0.0, 0.9006009999999999, 0.0, 0.0, 0.0, 2.295225)",2
2025/07/05/17:48:27.113917,9131,1751712507,120147008,base_link,0,1,-7.2871248,112.7960998,53.69559521599089,"(0.889249, 0.0, 0.0, 0.0, 0.889249, 0.0, 0.0, 0.0, 2.289169)",2
2025/07/05/17:48:27.214707,9132,1751712507,221147008,base_link,0,1,-7.2871235,112.7961,53.695599140024,"(0.889249, 0.0, 0.0, 0.0, 0.889249, 0.0, 0.0, 0.0, 2.289169)",2
2025/07/05/17:48:27.294192,9133,1751712507,301147008,base_link,0,1,-7.2871224,112.7961001,53.70560224427625,"(0.8817209999999999, 0.0, 0.0, 0.0, 0.8817209999999999, 0.0, 0.0, 0.0, 2.2831209999999995)",2
2025/07/05/17:48:27.436322,9134,1751712507,443147008,base_link,0,1,-7.2871206,112.7961003,53.70560743750319,"(0.8817209999999999, 0.0, 0.0, 0.0, 0.8817209999999999, 0.0, 0.0, 0.0, 2.2831209999999995)",2
2025/07/05/17:48:27.573822,9135,1751712507,580147008,base_link,0,1,-7.2871188,112.7961005,53.695612630772416,"(0.8760960000000001, 0.0, 0.0, 0.0, 0.8760960000000001, 0.0, 0.0, 0.0, 2.277081)",2
2025/07/05/17:48:27.653376,9136,1751712507,660147008,base_link,0,1,-7.2871178,112.7961007,53.69561579340481,"(0.8760960000000001, 0.0, 0.0, 0.0, 0.8760960000000001, 0.0, 0.0, 0.0, 2.277081)",2
2025/07/05/17:48:27.753862,9137,1751712507,760147008,base_link,0,1,-7.2871166,112.7961011,53.685620088018844,"(0.8704890000000001, 0.0, 0.0, 0.0, 0.8704890000000001, 0.0, 0.0, 0.0, 2.259009)",2
2025/07/05/17:48:27.853822,9138,1751712507,860147008,base_link,0,1,-7.2871153,112.7961016,53.68562494863982,"(0.8649000000000001, 0.0, 0.0, 0.0, 0.8649000000000001, 0.0, 0.0, 0.0, 2.25)",2
2025/07/05/17:48:27.973814,9139,1751712507,980147008,base_link,0,1,-7.2871138,112.7961021,53.69563031696518,"(0.8649000000000001, 0.0, 0.0, 0.0, 0.8649000000000001, 0.0, 0.0, 0.0, 2.25)",2
2025/07/05/17:48:28.074022,9140,1751712508,80147008,base_link,0,1,-7.2871125,112.7961025,53.695634865490376,"(0.8649000000000001, 0.0, 0.0, 0.0, 0.8649000000000001, 0.0, 0.0, 0.0, 2.25)",2
2025/07/05/17:48:28.173674,9141,1751712508,180147008,base_link,0,1,-7.2871112,112.7961029,53.695639414039846,"(0.8574760000000001, 0.0, 0.0, 0.0, 0.8574760000000001, 0.0, 0.0, 0.0, 2.2470010000000005)",2
2025/07/05/17:48:28.254386,9142,1751712508,260147008,base_link,0,1,-7.2871102,112.7961031,53.69564257677902,"(0.8500840000000001, 0.0, 0.0, 0.0, 0.8500840000000001, 0.0, 0.0, 0.0, 2.2410090000000005)",2
2025/07/05/17:48:28.354022,9143,1751712508,360147008,base_link,0,1,-7.2871088,112.7961032,53.705646442765854,"(0.8500840000000001, 0.0, 0.0, 0.0, 0.8500840000000001, 0.0, 0.0, 0.0, 2.2410090000000005)",2
2025/07/05/17:48:28.533836,9144,1751712508,540147008,base_link,0,1,-7.2871064,112.7961033,53.7056528472646,"(0.8500840000000001, 0.0, 0.0, 0.0, 0.8500840000000001, 0.0, 0.0, 0.0, 2.2410090000000005)",2
2025/07/05/17:48:28.617095,9145,1751712508,624147008,base_link,0,1,-7.2871053,112.7961034,53.7056559517663,"(0.8445610000000001, 0.0, 0.0, 0.0, 0.8445610000000001, 0.0, 0.0, 0.0, 2.2290490000000003)",2
2025/07/05/17:48:28.716048,9146,1751712508,721147008,base_link,0,1,-7.287104,112.7961037,53.7056601882925,"(0.8372250000000001, 0.0, 0.0, 0.0, 0.8372250000000001, 0.0, 0.0, 0.0, 2.2111690000000004)",2
