time,.header.seq,.header.stamp.secs,.header.stamp.nsecs,.header.frame_id,.status.status,.status.service,.latitude,.longitude,.altitude,.position_covariance,.position_covariance_type
2025/07/05/17:47:55.694995,9375,1751712475,585147008,base_link,0,1,-7.2870794,112.7959229,50.79515820639009,"(1.846881, 0.0, 0.0, 0.0, 1.846881, 0.0, 0.0, 0.0, 6.041764000000001)",2
2025/07/05/17:47:55.776117,9376,1751712475,585147008,base_link,0,1,-7.2870794,112.7959229,50.79515820639009,"(1.846881, 0.0, 0.0, 0.0, 1.846881, 0.0, 0.0, 0.0, 6.041764000000001)",2
2025/07/05/17:47:55.875201,9377,1751712475,785147008,base_link,0,1,-7.2870801,112.7959224,50.745154868651625,"(1.8523209999999999, 0.0, 0.0, 0.0, 1.8523209999999999, 0.0, 0.0, 0.0, 6.0516)",2
2025/07/05/17:47:55.996203,9378,1751712475,785147008,base_link,0,1,-7.2870801,112.7959224,50.745154868651625,"(1.8523209999999999, 0.0, 0.0, 0.0, 1.8523209999999999, 0.0, 0.0, 0.0, 6.0516)",2
2025/07/05/17:47:56.096259,9379,1751712475,985147008,base_link,0,1,-7.2870808,112.795922,50.70515184313216,"(1.8604960000000004, 0.0, 0.0, 0.0, 1.8604960000000004, 0.0, 0.0, 0.0, 6.076224999999999)",2
2025/07/05/17:47:56.196223,9380,1751712475,985147008,base_link,0,1,-7.2870808,112.795922,50.70515184313216,"(1.8604960000000004, 0.0, 0.0, 0.0, 1.8604960000000004, 0.0, 0.0, 0.0, 6.076224999999999)",2
2025/07/05/17:47:56.315164,9381,1751712476,185147008,base_link,0,1,-7.2870815,112.7959215,50.78514850540955,"(1.868689, 0.0, 0.0, 0.0, 1.868689, 0.0, 0.0, 0.0, 6.017208999999999)",2
2025/07/05/17:47:56.475210,9382,1751712476,385147008,base_link,0,1,-7.2870825,112.795921,50.825144406271086,"(1.868689, 0.0, 0.0, 0.0, 1.868689, 0.0, 0.0, 0.0, 5.982916000000001)",2
2025/07/05/17:47:56.615880,9383,1751712476,585147008,base_link,0,1,-7.2870837,112.7959204,50.77513948732529,"(1.8387360000000001, 0.0, 0.0, 0.0, 1.8387360000000001, 0.0, 0.0, 0.0, 5.885476000000001)",2
2025/07/05/17:47:56.695602,9384,1751712476,585147008,base_link,0,1,-7.2870837,112.7959204,50.77513948732529,"(1.8387360000000001, 0.0, 0.0, 0.0, 1.8387360000000001, 0.0, 0.0, 0.0, 5.885476000000001)",2
2025/07/05/17:47:56.774261,9385,1751712476,585147008,base_link,0,1,-7.2870837,112.7959204,50.77513948732529,"(1.8387360000000001, 0.0, 0.0, 0.0, 1.8387360000000001, 0.0, 0.0, 0.0, 5.885476000000001)",2
2025/07/05/17:47:56.874572,9386,1751712476,785147008,base_link,0,1,-7.2870846,112.7959198,50.70513532981532,"(1.8117160000000003, 0.0, 0.0, 0.0, 1.8117160000000003, 0.0, 0.0, 0.0, 5.779216)",2
2025/07/05/17:47:56.995637,9387,1751712476,785147008,base_link,0,1,-7.2870846,112.7959198,50.70513532981532,"(1.8117160000000003, 0.0, 0.0, 0.0, 1.8117160000000003, 0.0, 0.0, 0.0, 5.779216)",2
2025/07/05/17:47:57.074430,9388,1751712476,985147008,base_link,0,1,-7.2870856,112.7959194,50.74513154293483,"(1.787569, 0.0, 0.0, 0.0, 1.787569, 0.0, 0.0, 0.0, 5.645376)",2
2025/07/05/17:47:57.154567,9389,1751712476,985147008,base_link,0,1,-7.2870856,112.7959194,50.74513154293483,"(1.787569, 0.0, 0.0, 0.0, 1.787569, 0.0, 0.0, 0.0, 5.645376)",2
2025/07/05/17:47:57.254421,9390,1751712477,185147008,base_link,0,1,-7.2870869,112.7959191,50.89512730687325,"(1.760929, 0.0, 0.0, 0.0, 1.760929, 0.0, 0.0, 0.0, 5.494336)",2
2025/07/05/17:47:57.334649,9391,1751712477,185147008,base_link,0,1,-7.2870869,112.7959191,50.89512730687325,"(1.760929, 0.0, 0.0, 0.0, 1.760929, 0.0, 0.0, 0.0, 5.494336)",2
2025/07/05/17:47:57.496493,9392,1751712477,385147008,base_link,0,1,-7.287088,112.7959186,50.93512295401697,"(1.739761, 0.0, 0.0, 0.0, 1.739761, 0.0, 0.0, 0.0, 5.391684000000001)",2
2025/07/05/17:47:57.596494,9393,1751712477,585147008,base_link,0,1,-7.287089,112.7959179,50.79511823055996,"(1.708249, 0.0, 0.0, 0.0, 1.708249, 0.0, 0.0, 0.0, 5.2992040000000005)",2
2025/07/05/17:47:57.675208,9394,1751712477,585147008,base_link,0,1,-7.287089,112.7959179,50.79511823055996,"(1.708249, 0.0, 0.0, 0.0, 1.708249, 0.0, 0.0, 0.0, 5.2992040000000005)",2
2025/07/05/17:47:57.796302,9395,1751712477,785147008,base_link,0,1,-7.2870899,112.7959173,50.74511407312515,"(1.6926009999999998, 0.0, 0.0, 0.0, 1.6926009999999998, 0.0, 0.0, 0.0, 5.267024999999999)",2
2025/07/05/17:47:57.896421,9396,1751712477,785147008,base_link,0,1,-7.2870899,112.7959173,50.74511407312515,"(1.6926009999999998, 0.0, 0.0, 0.0, 1.6926009999999998, 0.0, 0.0, 0.0, 5.267024999999999)",2
2025/07/05/17:47:58.017812,9397,1751712477,985147008,base_link,0,1,-7.2870909,112.7959169,50.71511028632451,"(1.687401, 0.0, 0.0, 0.0, 1.687401, 0.0, 0.0, 0.0, 5.2441)",2
2025/07/05/17:47:58.095919,9398,1751712477,985147008,base_link,0,1,-7.2870909,112.7959169,50.71511028632451,"(1.687401, 0.0, 0.0, 0.0, 1.687401, 0.0, 0.0, 0.0, 5.2441)",2
2025/07/05/17:47:58.195898,9399,1751712478,185147008,base_link,0,1,-7.2870917,112.7959168,50.73510794375288,"(1.6848040000000002, 0.0, 0.0, 0.0, 1.6848040000000002, 0.0, 0.0, 0.0, 5.239521000000001)",2
2025/07/05/17:47:58.274196,9400,1751712478,185147008,base_link,0,1,-7.2870917,112.7959168,50.73510794375288,"(1.6848040000000002, 0.0, 0.0, 0.0, 1.6848040000000002, 0.0, 0.0, 0.0, 5.239521000000001)",2
2025/07/05/17:47:58.395995,9401,1751712478,185147008,base_link,0,1,-7.2870917,112.7959168,50.73510794375288,"(1.6848040000000002, 0.0, 0.0, 0.0, 1.6848040000000002, 0.0, 0.0, 0.0, 5.239521000000001)",2
2025/07/05/17:47:58.554183,9402,1751712478,385147008,base_link,0,1,-7.2870926,112.7959166,50.63510503518785,"(1.6770249999999998, 0.0, 0.0, 0.0, 1.6770249999999998, 0.0, 0.0, 0.0, 5.1801759999999994)",2
2025/07/05/17:47:58.637442,9403,1751712478,585147008,base_link,0,1,-7.2870936,112.7959164,50.49510187284149,"(1.6666809999999999, 0.0, 0.0, 0.0, 1.6666809999999999, 0.0, 0.0, 0.0, 5.098564)",2
2025/07/05/17:47:58.734146,9404,1751712478,585147008,base_link,0,1,-7.2870936,112.7959164,50.49510187284149,"(1.6666809999999999, 0.0, 0.0, 0.0, 1.6666809999999999, 0.0, 0.0, 0.0, 5.098564)",2
2025/07/05/17:47:58.838038,9405,1751712478,785147008,base_link,0,1,-7.2870946,112.7959165,50.52509964713043,"(1.6512249999999997, 0.0, 0.0, 0.0, 1.6512249999999997, 0.0, 0.0, 0.0, 5.035536000000001)",2
2025/07/05/17:47:58.934621,9406,1751712478,785147008,base_link,0,1,-7.2870946,112.7959165,50.52509964713043,"(1.6512249999999997, 0.0, 0.0, 0.0, 1.6512249999999997, 0.0, 0.0, 0.0, 5.035536000000001)",2
2025/07/05/17:47:59.054429,9407,1751712478,985147008,base_link,0,1,-7.2870956,112.7959169,50.54509835805076,"(1.643524, 0.0, 0.0, 0.0, 1.643524, 0.0, 0.0, 0.0, 5.013120999999999)",2
2025/07/05/17:47:59.174452,9408,1751712478,985147008,base_link,0,1,-7.2870956,112.7959169,50.54509835805076,"(1.643524, 0.0, 0.0, 0.0, 1.643524, 0.0, 0.0, 0.0, 5.013120999999999)",2
2025/07/05/17:47:59.274692,9409,1751712479,185147008,base_link,0,1,-7.2870966,112.7959166,50.46509488353606,"(1.633284, 0.0, 0.0, 0.0, 1.633284, 0.0, 0.0, 0.0, 4.955076)",2
2025/07/05/17:47:59.415739,9410,1751712479,386147008,base_link,0,1,-7.2870973,112.7959163,50.37509217039877,"(1.6205289999999997, 0.0, 0.0, 0.0, 1.6205289999999997, 0.0, 0.0, 0.0, 4.892944000000001)",2
2025/07/05/17:47:59.596016,9411,1751712479,386147008,base_link,0,1,-7.2870973,112.7959163,50.37509217039877,"(1.6205289999999997, 0.0, 0.0, 0.0, 1.6205289999999997, 0.0, 0.0, 0.0, 4.892944000000001)",2
2025/07/05/17:47:59.674585,9412,1751712479,586147008,base_link,0,1,-7.2870982,112.7959164,50.3550901985185,"(1.6002249999999998, 0.0, 0.0, 0.0, 1.6002249999999998, 0.0, 0.0, 0.0, 4.804864000000001)",2
2025/07/05/17:47:59.774435,9413,1751712479,586147008,base_link,0,1,-7.2870982,112.7959164,50.3550901985185,"(1.6002249999999998, 0.0, 0.0, 0.0, 1.6002249999999998, 0.0, 0.0, 0.0, 4.804864000000001)",2
2025/07/05/17:47:59.895716,9414,1751712479,786147008,base_link,0,1,-7.2870988,112.7959163,50.40508836359427,"(1.5901209999999997, 0.0, 0.0, 0.0, 1.5901209999999997, 0.0, 0.0, 0.0, 4.695888999999999)",2
2025/07/05/17:47:59.996439,9415,1751712479,986147008,base_link,0,1,-7.2870994,112.795916,50.43508590426398,"(1.5876000000000001, 0.0, 0.0, 0.0, 1.5876000000000001, 0.0, 0.0, 0.0, 4.635409)",2
2025/07/05/17:48:00.074800,9416,1751712479,986147008,base_link,0,1,-7.2870994,112.795916,50.43508590426398,"(1.5876000000000001, 0.0, 0.0, 0.0, 1.5876000000000001, 0.0, 0.0, 0.0, 4.635409)",2
2025/07/05/17:48:00.174311,9417,1751712479,986147008,base_link,0,1,-7.2870994,112.795916,50.43508590426398,"(1.5876000000000001, 0.0, 0.0, 0.0, 1.5876000000000001, 0.0, 0.0, 0.0, 4.635409)",2
2025/07/05/17:48:00.256217,9418,1751712480,186147008,base_link,0,1,-7.2870998,112.7959156,50.41508364030284,"(1.5850809999999997, 0.0, 0.0, 0.0, 1.5850809999999997, 0.0, 0.0, 0.0, 4.575320999999999)",2
2025/07/05/17:48:00.355131,9419,1751712480,186147008,base_link,0,1,-7.2870998,112.7959156,50.41508364030284,"(1.5850809999999997, 0.0, 0.0, 0.0, 1.5850809999999997, 0.0, 0.0, 0.0, 4.575320999999999)",2
2025/07/05/17:48:00.534324,9420,1751712480,386147008,base_link,0,1,-7.2871003,112.7959151,50.37508081035534,"(1.5876000000000001, 0.0, 0.0, 0.0, 1.5876000000000001, 0.0, 0.0, 0.0, 4.519875999999999)",2
2025/07/05/17:48:00.634193,9421,1751712480,586147008,base_link,0,1,-7.2871013,112.7959147,50.2250770237039,"(1.5901209999999997, 0.0, 0.0, 0.0, 1.5901209999999997, 0.0, 0.0, 0.0, 4.443664)",2
2025/07/05/17:48:00.715345,9422,1751712480,586147008,base_link,0,1,-7.2871013,112.7959147,50.2250770237039,"(1.5901209999999997, 0.0, 0.0, 0.0, 1.5901209999999997, 0.0, 0.0, 0.0, 4.443664)",2
2025/07/05/17:48:00.796415,9423,1751712480,784147008,base_link,0,1,-7.2871022,112.7959143,50.175073490848476,"(1.602756, 0.0, 0.0, 0.0, 1.602756, 0.0, 0.0, 0.0, 4.4268160000000005)",2
2025/07/05/17:48:00.895647,9424,1751712480,784147008,base_link,0,1,-7.2871022,112.7959143,50.175073490848476,"(1.602756, 0.0, 0.0, 0.0, 1.602756, 0.0, 0.0, 0.0, 4.4268160000000005)",2
2025/07/05/17:48:00.974218,9425,1751712480,784147008,base_link,0,1,-7.2871022,112.7959143,50.175073490848476,"(1.602756, 0.0, 0.0, 0.0, 1.602756, 0.0, 0.0, 0.0, 4.4268160000000005)",2
2025/07/05/17:48:01.095849,9426,1751712480,984147008,base_link,0,1,-7.2871031,112.7959142,50.20507089461883,"(1.6103609999999997, 0.0, 0.0, 0.0, 1.6103609999999997, 0.0, 0.0, 0.0, 4.4226090000000005)",2
2025/07/05/17:48:01.174827,9427,1751712480,984147008,base_link,0,1,-7.2871031,112.7959142,50.20507089461883,"(1.6103609999999997, 0.0, 0.0, 0.0, 1.6103609999999997, 0.0, 0.0, 0.0, 4.4226090000000005)",2
2025/07/05/17:48:01.274428,9428,1751712481,184147008,base_link,0,1,-7.2871041,112.7959144,50.20506898123317,"(1.6002249999999998, 0.0, 0.0, 0.0, 1.6002249999999998, 0.0, 0.0, 0.0, 4.397409)",2
2025/07/05/17:48:01.396390,9429,1751712481,184147008,base_link,0,1,-7.2871041,112.7959144,50.20506898123317,"(1.6002249999999998, 0.0, 0.0, 0.0, 1.6002249999999998, 0.0, 0.0, 0.0, 4.397409)",2
2025/07/05/17:48:01.574591,9430,1751712481,384147008,base_link,0,1,-7.2871051,112.7959144,50.055066443450826,"(1.5876000000000001, 0.0, 0.0, 0.0, 1.5876000000000001, 0.0, 0.0, 0.0, 4.322241000000001)",2
2025/07/05/17:48:01.675503,9431,1751712481,584147008,base_link,0,1,-7.2871062,112.7959142,49.84506302749787,"(1.582564, 0.0, 0.0, 0.0, 1.582564, 0.0, 0.0, 0.0, 4.251843999999999)",2
2025/07/05/17:48:01.796118,9432,1751712481,784147008,base_link,0,1,-7.287107,112.7959142,49.80506099729216,"(1.5850809999999997, 0.0, 0.0, 0.0, 1.5850809999999997, 0.0, 0.0, 0.0, 4.2436)",2
2025/07/05/17:48:01.874729,9433,1751712481,784147008,base_link,0,1,-7.287107,112.7959142,49.80506099729216,"(1.5850809999999997, 0.0, 0.0, 0.0, 1.5850809999999997, 0.0, 0.0, 0.0, 4.2436)",2
2025/07/05/17:48:01.996815,9434,1751712481,984147008,base_link,0,1,-7.2871077,112.795914,49.7950585964631,"(1.5901209999999997, 0.0, 0.0, 0.0, 1.5901209999999997, 0.0, 0.0, 0.0, 4.231249)",2
2025/07/05/17:48:02.095350,9435,1751712481,984147008,base_link,0,1,-7.2871077,112.795914,49.7950585964631,"(1.5901209999999997, 0.0, 0.0, 0.0, 1.5901209999999997, 0.0, 0.0, 0.0, 4.231249)",2
2025/07/05/17:48:02.174772,9436,1751712481,984147008,base_link,0,1,-7.2871077,112.795914,49.7950585964631,"(1.5901209999999997, 0.0, 0.0, 0.0, 1.5901209999999997, 0.0, 0.0, 0.0, 4.231249)",2
2025/07/05/17:48:02.295599,9437,1751712482,184147008,base_link,0,1,-7.2871087,112.7959137,49.89505512211902,"(1.597696, 0.0, 0.0, 0.0, 1.597696, 0.0, 0.0, 0.0, 4.223025000000001)",2
2025/07/05/17:48:02.418161,9438,1751712482,384147008,base_link,0,1,-7.2871098,112.7959136,49.96505201842188,"(1.6103609999999997, 0.0, 0.0, 0.0, 1.6103609999999997, 0.0, 0.0, 0.0, 4.198401)",2
2025/07/05/17:48:02.595963,9439,1751712482,584147008,base_link,0,1,-7.2871107,112.7959134,50.03504911007917,"(1.6154409999999997, 0.0, 0.0, 0.0, 1.6154409999999997, 0.0, 0.0, 0.0, 4.137155999999999)",2
2025/07/05/17:48:02.695389,9440,1751712482,584147008,base_link,0,1,-7.2871107,112.7959134,50.03504911007917,"(1.6154409999999997, 0.0, 0.0, 0.0, 1.6154409999999997, 0.0, 0.0, 0.0, 4.137155999999999)",2
2025/07/05/17:48:02.774342,9441,1751712482,584147008,base_link,0,1,-7.2871107,112.7959134,50.03504911007917,"(1.6154409999999997, 0.0, 0.0, 0.0, 1.6154409999999997, 0.0, 0.0, 0.0, 4.137155999999999)",2
2025/07/05/17:48:02.875383,9442,1751712482,784147008,base_link,0,1,-7.2871114,112.7959134,50.14504733368939,"(1.6205289999999997, 0.0, 0.0, 0.0, 1.6205289999999997, 0.0, 0.0, 0.0, 4.064256)",2
2025/07/05/17:48:02.996347,9443,1751712482,984147008,base_link,0,1,-7.2871123,112.7959132,50.13504442536612,"(1.6256249999999999, 0.0, 0.0, 0.0, 1.6256249999999999, 0.0, 0.0, 0.0, 4.028049)",2
2025/07/05/17:48:03.074883,9444,1751712482,984147008,base_link,0,1,-7.2871123,112.7959132,50.13504442536612,"(1.6256249999999999, 0.0, 0.0, 0.0, 1.6256249999999999, 0.0, 0.0, 0.0, 4.028049)",2
2025/07/05/17:48:03.174271,9445,1751712482,984147008,base_link,0,1,-7.2871123,112.7959132,50.13504442536612,"(1.6256249999999999, 0.0, 0.0, 0.0, 1.6256249999999999, 0.0, 0.0, 0.0, 4.028049)",2
2025/07/05/17:48:03.274651,9446,1751712483,184147008,base_link,0,1,-7.2871131,112.7959131,50.145042083022176,"(1.633284, 0.0, 0.0, 0.0, 1.633284, 0.0, 0.0, 0.0, 4.004001)",2
2025/07/05/17:48:03.374542,9447,1751712483,184147008,base_link,0,1,-7.2871131,112.7959131,50.145042083022176,"(1.633284, 0.0, 0.0, 0.0, 1.633284, 0.0, 0.0, 0.0, 4.004001)",2
2025/07/05/17:48:03.554377,9448,1751712483,384147008,base_link,0,1,-7.2871135,112.795913,50.01504075575299,"(1.6358409999999999, 0.0, 0.0, 0.0, 1.6358409999999999, 0.0, 0.0, 0.0, 3.9880090000000004)",2
2025/07/05/17:48:03.654594,9449,1751712483,584147008,base_link,0,1,-7.2871142,112.7959131,50.1450392915887,"(1.643524, 0.0, 0.0, 0.0, 1.643524, 0.0, 0.0, 0.0, 3.992004)",2
2025/07/05/17:48:03.775236,9450,1751712483,584147008,base_link,0,1,-7.2871142,112.7959131,50.1450392915887,"(1.643524, 0.0, 0.0, 0.0, 1.643524, 0.0, 0.0, 0.0, 3.992004)",2
2025/07/05/17:48:03.854241,9451,1751712483,784147008,base_link,0,1,-7.2871147,112.795913,50.235037710559894,"(1.6486560000000001, 0.0, 0.0, 0.0, 1.6486560000000001, 0.0, 0.0, 0.0, 3.9640810000000006)",2
2025/07/05/17:48:03.975112,9452,1751712483,784147008,base_link,0,1,-7.2871147,112.795913,50.235037710559894,"(1.6486560000000001, 0.0, 0.0, 0.0, 1.6486560000000001, 0.0, 0.0, 0.0, 3.9640810000000006)",2
2025/07/05/17:48:04.097225,9453,1751712483,984147008,base_link,0,1,-7.2871149,112.7959133,50.25503813962993,"(1.6486560000000001, 0.0, 0.0, 0.0, 1.6486560000000001, 0.0, 0.0, 0.0, 3.9164410000000003)",2
2025/07/05/17:48:04.195906,9454,1751712484,182147008,base_link,0,1,-7.2871153,112.7959135,50.285037748969955,"(1.653796, 0.0, 0.0, 0.0, 1.653796, 0.0, 0.0, 0.0, 3.896676)",2
2025/07/05/17:48:04.275214,9455,1751712484,182147008,base_link,0,1,-7.2871153,112.7959135,50.285037748969955,"(1.653796, 0.0, 0.0, 0.0, 1.653796, 0.0, 0.0, 0.0, 3.896676)",2
2025/07/05/17:48:04.396342,9456,1751712484,382147008,base_link,0,1,-7.2871163,112.795914,50.305036772325266,"(1.669264, 0.0, 0.0, 0.0, 1.669264, 0.0, 0.0, 0.0, 3.8927290000000005)",2
2025/07/05/17:48:04.574065,9457,1751712484,382147008,base_link,0,1,-7.2871163,112.795914,50.305036772325266,"(1.669264, 0.0, 0.0, 0.0, 1.669264, 0.0, 0.0, 0.0, 3.8927290000000005)",2
2025/07/05/17:48:04.695680,9458,1751712484,582147008,base_link,0,1,-7.2871171,112.7959143,50.385035678816024,"(1.679616, 0.0, 0.0, 0.0, 1.679616, 0.0, 0.0, 0.0, 3.8533690000000003)",2
2025/07/05/17:48:04.775455,9459,1751712484,582147008,base_link,0,1,-7.2871171,112.7959143,50.385035678816024,"(1.679616, 0.0, 0.0, 0.0, 1.679616, 0.0, 0.0, 0.0, 3.8533690000000003)",2
2025/07/05/17:48:04.917094,9460,1751712484,782147008,base_link,0,1,-7.2871174,112.795914,50.455033980930935,"(1.671849, 0.0, 0.0, 0.0, 1.671849, 0.0, 0.0, 0.0, 3.794704)",2
2025/07/05/17:48:04.996197,9461,1751712484,982147008,base_link,0,1,-7.2871181,112.7959142,50.69503282899416,"(1.6641000000000001, 0.0, 0.0, 0.0, 1.6641000000000001, 0.0, 0.0, 0.0, 3.728761)",2
2025/07/05/17:48:05.095408,9462,1751712484,982147008,base_link,0,1,-7.2871181,112.7959142,50.69503282899416,"(1.6641000000000001, 0.0, 0.0, 0.0, 1.6641000000000001, 0.0, 0.0, 0.0, 3.728761)",2
2025/07/05/17:48:05.174211,9463,1751712484,982147008,base_link,0,1,-7.2871181,112.7959142,50.69503282899416,"(1.6641000000000001, 0.0, 0.0, 0.0, 1.6641000000000001, 0.0, 0.0, 0.0, 3.728761)",2
2025/07/05/17:48:05.274552,9464,1751712485,182147008,base_link,0,1,-7.2871188,112.7959145,50.82503198926046,"(1.6615209999999998, 0.0, 0.0, 0.0, 1.6615209999999998, 0.0, 0.0, 0.0, 3.7056250000000004)",2
2025/07/05/17:48:05.418318,9465,1751712485,382147008,base_link,0,1,-7.2871196,112.7959144,50.91502964697884,"(1.643524, 0.0, 0.0, 0.0, 1.643524, 0.0, 0.0, 0.0, 3.655744)",2
2025/07/05/17:48:05.596037,9466,1751712485,582147008,base_link,0,1,-7.2871205,112.7959139,50.87502580215573,"(1.6078240000000001, 0.0, 0.0, 0.0, 1.6078240000000001, 0.0, 0.0, 0.0, 3.613801)",2
2025/07/05/17:48:05.695834,9467,1751712485,582147008,base_link,0,1,-7.2871205,112.7959139,50.87502580215573,"(1.6078240000000001, 0.0, 0.0, 0.0, 1.6078240000000001, 0.0, 0.0, 0.0, 3.613801)",2
2025/07/05/17:48:05.774111,9468,1751712485,582147008,base_link,0,1,-7.2871205,112.7959139,50.87502580215573,"(1.6078240000000001, 0.0, 0.0, 0.0, 1.6078240000000001, 0.0, 0.0, 0.0, 3.613801)",2
2025/07/05/17:48:05.894855,9469,1751712485,782147008,base_link,0,1,-7.2871216,112.7959134,50.675021449830936,"(1.5700089999999998, 0.0, 0.0, 0.0, 1.5700089999999998, 0.0, 0.0, 0.0, 3.5721)",2
2025/07/05/17:48:06.017872,9470,1751712485,982147008,base_link,0,1,-7.2871227,112.7959137,50.60501959510146,"(1.542564, 0.0, 0.0, 0.0, 1.542564, 0.0, 0.0, 0.0, 3.5494559999999997)",2
2025/07/05/17:48:06.095231,9471,1751712485,982147008,base_link,0,1,-7.2871227,112.7959137,50.60501959510146,"(1.542564, 0.0, 0.0, 0.0, 1.542564, 0.0, 0.0, 0.0, 3.5494559999999997)",2
2025/07/05/17:48:06.196379,9472,1751712486,182147008,base_link,0,1,-7.287124,112.7959143,50.63501816946419,"(1.5030759999999999, 0.0, 0.0, 0.0, 1.5030759999999999, 0.0, 0.0, 0.0, 3.515625)",2
2025/07/05/17:48:06.274480,9473,1751712486,182147008,base_link,0,1,-7.287124,112.7959143,50.63501816946419,"(1.5030759999999999, 0.0, 0.0, 0.0, 1.5030759999999999, 0.0, 0.0, 0.0, 3.515625)",2
2025/07/05/17:48:06.374325,9474,1751712486,182147008,base_link,0,1,-7.287124,112.7959143,50.63501816946419,"(1.5030759999999999, 0.0, 0.0, 0.0, 1.5030759999999999, 0.0, 0.0, 0.0, 3.515625)",2
2025/07/05/17:48:06.553977,9475,1751712486,382147008,base_link,0,1,-7.2871248,112.795915,50.65501832480356,"(1.4737959999999999, 0.0, 0.0, 0.0, 1.4737959999999999, 0.0, 0.0, 0.0, 3.508129)",2
2025/07/05/17:48:06.654000,9476,1751712486,582147008,base_link,0,1,-7.2871256,112.7959158,50.695018792340505,"(1.4713690000000001, 0.0, 0.0, 0.0, 1.4713690000000001, 0.0, 0.0, 0.0, 3.508129)",2
2025/07/05/17:48:06.734090,9477,1751712486,582147008,base_link,0,1,-7.2871256,112.7959158,50.695018792340505,"(1.4713690000000001, 0.0, 0.0, 0.0, 1.4713690000000001, 0.0, 0.0, 0.0, 3.508129)",2
2025/07/05/17:48:06.833853,9478,1751712486,782147008,base_link,0,1,-7.2871266,112.7959167,50.6450190645685,"(1.4713690000000001, 0.0, 0.0, 0.0, 1.4713690000000001, 0.0, 0.0, 0.0, 3.5043840000000004)",2
2025/07/05/17:48:06.915076,9479,1751712486,782147008,base_link,0,1,-7.2871266,112.7959167,50.6450190645685,"(1.4713690000000001, 0.0, 0.0, 0.0, 1.4713690000000001, 0.0, 0.0, 0.0, 3.5043840000000004)",2
2025/07/05/17:48:07.017020,9480,1751712486,982147008,base_link,0,1,-7.287127,112.7959179,50.52502179589281,"(1.4568490000000003, 0.0, 0.0, 0.0, 1.4568490000000003, 0.0, 0.0, 0.0, 3.4894240000000005)",2
2025/07/05/17:48:07.095344,9481,1751712486,982147008,base_link,0,1,-7.287127,112.7959179,50.52502179589281,"(1.4568490000000003, 0.0, 0.0, 0.0, 1.4568490000000003, 0.0, 0.0, 0.0, 3.4894240000000005)",2
2025/07/05/17:48:07.196391,9482,1751712487,182147008,base_link,0,1,-7.2871276,112.7959182,50.5850212099633,"(1.4376010000000001, 0.0, 0.0, 0.0, 1.4376010000000001, 0.0, 0.0, 0.0, 3.4707689999999998)",2
2025/07/05/17:48:07.274200,9483,1751712487,182147008,base_link,0,1,-7.2871276,112.7959182,50.5850212099633,"(1.4376010000000001, 0.0, 0.0, 0.0, 1.4376010000000001, 0.0, 0.0, 0.0, 3.4707689999999998)",2
2025/07/05/17:48:07.396264,9484,1751712487,382147008,base_link,0,1,-7.2871287,112.7959189,50.625020604056374,"(1.420864, 0.0, 0.0, 0.0, 1.420864, 0.0, 0.0, 0.0, 3.433609)",2
2025/07/05/17:48:07.554212,9485,1751712487,382147008,base_link,0,1,-7.2871287,112.7959189,50.625020604056374,"(1.420864, 0.0, 0.0, 0.0, 1.420864, 0.0, 0.0, 0.0, 3.433609)",2
2025/07/05/17:48:07.654924,9486,1751712487,582147008,base_link,0,1,-7.2871294,112.7959196,50.735021013155816,"(1.3994890000000002, 0.0, 0.0, 0.0, 1.3994890000000002, 0.0, 0.0, 0.0, 3.3819209999999997)",2
2025/07/05/17:48:07.753951,9487,1751712487,582147008,base_link,0,1,-7.2871294,112.7959196,50.735021013155816,"(1.3994890000000002, 0.0, 0.0, 0.0, 1.3994890000000002, 0.0, 0.0, 0.0, 3.3819209999999997)",2
2025/07/05/17:48:07.854244,9488,1751712487,782147008,base_link,0,1,-7.2871299,112.7959201,50.71502130537018,"(1.385329, 0.0, 0.0, 0.0, 1.385329, 0.0, 0.0, 0.0, 3.359889)",2
2025/07/05/17:48:07.995613,9489,1751712487,982147008,base_link,0,1,-7.2871308,112.7959209,50.68502151916521,"(1.3782759999999998, 0.0, 0.0, 0.0, 1.3782759999999998, 0.0, 0.0, 0.0, 3.367225)",2
2025/07/05/17:48:08.094636,9490,1751712487,982147008,base_link,0,1,-7.2871308,112.7959209,50.68502151916521,"(1.3782759999999998, 0.0, 0.0, 0.0, 1.3782759999999998, 0.0, 0.0, 0.0, 3.367225)",2
2025/07/05/17:48:08.175471,9491,1751712487,982147008,base_link,0,1,-7.2871308,112.7959209,50.68502151916521,"(1.3782759999999998, 0.0, 0.0, 0.0, 1.3782759999999998, 0.0, 0.0, 0.0, 3.367225)",2
2025/07/05/17:48:08.275811,9492,1751712488,182147008,base_link,0,1,-7.2871318,112.7959216,50.62502116702365,"(1.3688999999999998, 0.0, 0.0, 0.0, 1.3688999999999998, 0.0, 0.0, 0.0, 3.367225)",2
2025/07/05/17:48:08.418394,9493,1751712488,382147008,base_link,0,1,-7.2871326,112.7959226,50.5550222589538,"(1.3595559999999998, 0.0, 0.0, 0.0, 1.3595559999999998, 0.0, 0.0, 0.0, 3.359889)",2
2025/07/05/17:48:08.595709,9494,1751712488,582147008,base_link,0,1,-7.2871332,112.7959237,50.47502417056657,"(1.3525690000000001, 0.0, 0.0, 0.0, 1.3525690000000001, 0.0, 0.0, 0.0, 3.3819209999999997)",2
2025/07/05/17:48:08.695152,9495,1751712488,582147008,base_link,0,1,-7.2871332,112.7959237,50.47502417056657,"(1.3525690000000001, 0.0, 0.0, 0.0, 1.3525690000000001, 0.0, 0.0, 0.0, 3.3819209999999997)",2
2025/07/05/17:48:08.775966,9496,1751712488,582147008,base_link,0,1,-7.2871332,112.7959237,50.47502417056657,"(1.3525690000000001, 0.0, 0.0, 0.0, 1.3525690000000001, 0.0, 0.0, 0.0, 3.3819209999999997)",2
2025/07/05/17:48:08.854816,9497,1751712488,782147008,base_link,0,1,-7.2871339,112.7959249,50.46502614061844,"(1.3525690000000001, 0.0, 0.0, 0.0, 1.3525690000000001, 0.0, 0.0, 0.0, 3.4188009999999998)",2
2025/07/05/17:48:08.955129,9498,1751712488,782147008,base_link,0,1,-7.2871339,112.7959249,50.46502614061844,"(1.3525690000000001, 0.0, 0.0, 0.0, 1.3525690000000001, 0.0, 0.0, 0.0, 3.4188009999999998)",2
2025/07/05/17:48:09.054083,9499,1751712488,982147008,base_link,0,1,-7.2871341,112.7959258,50.42502844283028,"(1.3548959999999999, 0.0, 0.0, 0.0, 1.3548959999999999, 0.0, 0.0, 0.0, 3.441025)",2
2025/07/05/17:48:09.154786,9500,1751712488,982147008,base_link,0,1,-7.2871341,112.7959258,50.42502844283028,"(1.3548959999999999, 0.0, 0.0, 0.0, 1.3548959999999999, 0.0, 0.0, 0.0, 3.441025)",2
2025/07/05/17:48:09.255027,9501,1751712489,182147008,base_link,0,1,-7.2871345,112.7959266,50.405029925356835,"(1.3572250000000001, 0.0, 0.0, 0.0, 1.3572250000000001, 0.0, 0.0, 0.0, 3.4670440000000005)",2
2025/07/05/17:48:09.353989,9502,1751712489,182147008,base_link,0,1,-7.2871345,112.7959266,50.405029925356835,"(1.3572250000000001, 0.0, 0.0, 0.0, 1.3572250000000001, 0.0, 0.0, 0.0, 3.4670440000000005)",2
2025/07/05/17:48:09.516474,9503,1751712489,382147008,base_link,0,1,-7.2871352,112.7959276,50.335031271019645,"(1.3618890000000001, 0.0, 0.0, 0.0, 1.3618890000000001, 0.0, 0.0, 0.0, 3.4894240000000005)",2
2025/07/05/17:48:09.617345,9504,1751712489,582147008,base_link,0,1,-7.2871358,112.7959286,50.385032870425846,"(1.3665610000000001, 0.0, 0.0, 0.0, 1.3665610000000001, 0.0, 0.0, 0.0, 3.5118760000000004)",2
2025/07/05/17:48:09.695168,9505,1751712489,582147008,base_link,0,1,-7.2871358,112.7959286,50.385032870425846,"(1.3665610000000001, 0.0, 0.0, 0.0, 1.3665610000000001, 0.0, 0.0, 0.0, 3.5118760000000004)",2
2025/07/05/17:48:09.796237,9506,1751712489,782147008,base_link,0,1,-7.2871366,112.7959298,50.37503458671321,"(1.3688999999999998, 0.0, 0.0, 0.0, 1.3688999999999998, 0.0, 0.0, 0.0, 3.508129)",2
2025/07/05/17:48:09.894667,9507,1751712489,782147008,base_link,0,1,-7.2871366,112.7959298,50.37503458671321,"(1.3688999999999998, 0.0, 0.0, 0.0, 1.3688999999999998, 0.0, 0.0, 0.0, 3.508129)",2
2025/07/05/17:48:09.975367,9508,1751712489,782147008,base_link,0,1,-7.2871366,112.7959298,50.37503458671321,"(1.3688999999999998, 0.0, 0.0, 0.0, 1.3688999999999998, 0.0, 0.0, 0.0, 3.508129)",2
2025/07/05/17:48:10.094802,9509,1751712489,982147008,base_link,0,1,-7.2871372,112.7959309,50.345036498299805,"(1.373584, 0.0, 0.0, 0.0, 1.373584, 0.0, 0.0, 0.0, 3.515625)",2
2025/07/05/17:48:10.195393,9510,1751712490,182147008,base_link,0,1,-7.2871375,112.7959323,50.335040107675226,"(1.3806250000000002, 0.0, 0.0, 0.0, 1.3806250000000002, 0.0, 0.0, 0.0, 3.5118760000000004)",2
2025/07/05/17:48:10.275039,9511,1751712490,182147008,base_link,0,1,-7.2871375,112.7959323,50.335040107675226,"(1.3806250000000002, 0.0, 0.0, 0.0, 1.3806250000000002, 0.0, 0.0, 0.0, 3.5118760000000004)",2
2025/07/05/17:48:10.396173,9512,1751712490,382147008,base_link,0,1,-7.2871378,112.795934,50.335044653600036,"(1.390041, 0.0, 0.0, 0.0, 1.390041, 0.0, 0.0, 0.0, 3.493161)",2
2025/07/05/17:48:10.554855,9513,1751712490,382147008,base_link,0,1,-7.2871378,112.795934,50.335044653600036,"(1.390041, 0.0, 0.0, 0.0, 1.390041, 0.0, 0.0, 0.0, 3.493161)",2
2025/07/05/17:48:10.634490,9514,1751712490,582147008,base_link,0,1,-7.2871383,112.7959359,50.42504931639293,"(1.3994890000000002, 0.0, 0.0, 0.0, 1.3994890000000002, 0.0, 0.0, 0.0, 3.493161)",2
2025/07/05/17:48:10.733870,9515,1751712490,582147008,base_link,0,1,-7.2871383,112.7959359,50.42504931639293,"(1.3994890000000002, 0.0, 0.0, 0.0, 1.3994890000000002, 0.0, 0.0, 0.0, 3.493161)",2
2025/07/05/17:48:10.833870,9516,1751712490,782147008,base_link,0,1,-7.2871392,112.7959377,50.39505265200641,"(1.406596, 0.0, 0.0, 0.0, 1.406596, 0.0, 0.0, 0.0, 3.5043840000000004)",2
2025/07/05/17:48:10.933819,9517,1751712490,782147008,base_link,0,1,-7.2871392,112.7959377,50.39505265200641,"(1.406596, 0.0, 0.0, 0.0, 1.406596, 0.0, 0.0, 0.0, 3.5043840000000004)",2
2025/07/05/17:48:11.034040,9518,1751712490,982147008,base_link,0,1,-7.2871398,112.7959391,50.47505550010919,"(1.411344, 0.0, 0.0, 0.0, 1.411344, 0.0, 0.0, 0.0, 3.515625)",2
2025/07/05/17:48:11.114643,9519,1751712490,982147008,base_link,0,1,-7.2871398,112.7959391,50.47505550010919,"(1.411344, 0.0, 0.0, 0.0, 1.411344, 0.0, 0.0, 0.0, 3.515625)",2
2025/07/05/17:48:11.217965,9520,1751712491,181147008,base_link,0,1,-7.2871403,112.7959409,50.50505985068048,"(1.420864, 0.0, 0.0, 0.0, 1.420864, 0.0, 0.0, 0.0, 3.545689)",2
2025/07/05/17:48:11.294850,9521,1751712491,181147008,base_link,0,1,-7.2871403,112.7959409,50.50505985068048,"(1.420864, 0.0, 0.0, 0.0, 1.420864, 0.0, 0.0, 0.0, 3.545689)",2
2025/07/05/17:48:11.418948,9522,1751712491,381147008,base_link,0,1,-7.2871406,112.7959427,50.53506470872918,"(1.430416, 0.0, 0.0, 0.0, 1.430416, 0.0, 0.0, 0.0, 3.568321)",2
2025/07/05/17:48:11.575861,9523,1751712491,381147008,base_link,0,1,-7.2871406,112.7959427,50.53506470872918,"(1.430416, 0.0, 0.0, 0.0, 1.430416, 0.0, 0.0, 0.0, 3.568321)",2
2025/07/05/17:48:11.653904,9524,1751712491,581147008,base_link,0,1,-7.2871411,112.7959441,50.55506781054898,"(1.4376010000000001, 0.0, 0.0, 0.0, 1.4376010000000001, 0.0, 0.0, 0.0, 3.591025)",2
2025/07/05/17:48:11.754350,9525,1751712491,581147008,base_link,0,1,-7.2871411,112.7959441,50.55506781054898,"(1.4376010000000001, 0.0, 0.0, 0.0, 1.4376010000000001, 0.0, 0.0, 0.0, 3.591025)",2
2025/07/05/17:48:11.833499,9526,1751712491,781147008,base_link,0,1,-7.2871419,112.7959456,50.585070463307076,"(1.4472090000000002, 0.0, 0.0, 0.0, 1.4472090000000002, 0.0, 0.0, 0.0, 3.613801)",2
2025/07/05/17:48:11.933880,9527,1751712491,781147008,base_link,0,1,-7.2871419,112.7959456,50.585070463307076,"(1.4472090000000002, 0.0, 0.0, 0.0, 1.4472090000000002, 0.0, 0.0, 0.0, 3.613801)",2
2025/07/05/17:48:12.033821,9528,1751712491,981147008,base_link,0,1,-7.2871427,112.7959473,50.595073740417746,"(1.4544359999999998, 0.0, 0.0, 0.0, 1.4544359999999998, 0.0, 0.0, 0.0, 3.629025)",2
2025/07/05/17:48:12.116141,9529,1751712491,981147008,base_link,0,1,-7.2871427,112.7959473,50.595073740417746,"(1.4544359999999998, 0.0, 0.0, 0.0, 1.4544359999999998, 0.0, 0.0, 0.0, 3.629025)",2
2025/07/05/17:48:12.217494,9530,1751712492,181147008,base_link,0,1,-7.2871432,112.795949,50.695077778750715,"(1.4641, 0.0, 0.0, 0.0, 1.4641, 0.0, 0.0, 0.0, 3.6633959999999997)",2
2025/07/05/17:48:12.295023,9531,1751712492,181147008,base_link,0,1,-7.2871432,112.795949,50.695077778750715,"(1.4641, 0.0, 0.0, 0.0, 1.4641, 0.0, 0.0, 0.0, 3.6633959999999997)",2
2025/07/05/17:48:12.437720,9532,1751712492,381147008,base_link,0,1,-7.2871433,112.7959508,50.67508314423041,"(1.4737959999999999, 0.0, 0.0, 0.0, 1.4737959999999999, 0.0, 0.0, 0.0, 3.6864)",2
2025/07/05/17:48:12.555869,9533,1751712492,381147008,base_link,0,1,-7.2871433,112.7959508,50.67508314423041,"(1.4737959999999999, 0.0, 0.0, 0.0, 1.4737959999999999, 0.0, 0.0, 0.0, 3.6864)",2
2025/07/05/17:48:12.654184,9534,1751712492,581147008,base_link,0,1,-7.2871436,112.7959528,50.635088626565334,"(1.4835239999999998, 0.0, 0.0, 0.0, 1.4835239999999998, 0.0, 0.0, 0.0, 3.7171839999999996)",2
2025/07/05/17:48:12.734066,9535,1751712492,581147008,base_link,0,1,-7.2871436,112.7959528,50.635088626565334,"(1.4835239999999998, 0.0, 0.0, 0.0, 1.4835239999999998, 0.0, 0.0, 0.0, 3.7171839999999996)",2
2025/07/05/17:48:12.833537,9536,1751712492,781147008,base_link,0,1,-7.287144,112.7959545,50.75509291860729,"(1.4957290000000003, 0.0, 0.0, 0.0, 1.4957290000000003, 0.0, 0.0, 0.0, 3.748096)",2
2025/07/05/17:48:12.915911,9537,1751712492,781147008,base_link,0,1,-7.287144,112.7959545,50.75509291860729,"(1.4957290000000003, 0.0, 0.0, 0.0, 1.4957290000000003, 0.0, 0.0, 0.0, 3.748096)",2
2025/07/05/17:48:13.033794,9538,1751712492,981147008,base_link,0,1,-7.2871443,112.7959558,50.86509621567568,"(1.5055290000000001, 0.0, 0.0, 0.0, 1.5055290000000001, 0.0, 0.0, 0.0, 3.775249)",2
2025/07/05/17:48:13.114841,9539,1751712492,981147008,base_link,0,1,-7.2871443,112.7959558,50.86509621567568,"(1.5055290000000001, 0.0, 0.0, 0.0, 1.5055290000000001, 0.0, 0.0, 0.0, 3.775249)",2
2025/07/05/17:48:13.195457,9540,1751712493,181147008,base_link,0,1,-7.2871449,112.7959574,50.905099688029644,"(1.517824, 0.0, 0.0, 0.0, 1.517824, 0.0, 0.0, 0.0, 3.7830250000000003)",2
2025/07/05/17:48:13.273955,9541,1751712493,181147008,base_link,0,1,-7.2871449,112.7959574,50.905099688029644,"(1.517824, 0.0, 0.0, 0.0, 1.517824, 0.0, 0.0, 0.0, 3.7830250000000003)",2
2025/07/05/17:48:13.395860,9542,1751712493,381147008,base_link,0,1,-7.2871457,112.7959592,50.92510327723393,"(1.532644, 0.0, 0.0, 0.0, 1.532644, 0.0, 0.0, 0.0, 3.794704)",2
2025/07/05/17:48:13.574191,9543,1751712493,381147008,base_link,0,1,-7.2871457,112.7959592,50.92510327723393,"(1.532644, 0.0, 0.0, 0.0, 1.532644, 0.0, 0.0, 0.0, 3.794704)",2
2025/07/05/17:48:13.694977,9544,1751712493,581147008,base_link,0,1,-7.2871468,112.7959614,50.94510735388971,"(1.5376, 0.0, 0.0, 0.0, 1.5376, 0.0, 0.0, 0.0, 3.740356)",2
2025/07/05/17:48:13.795654,9545,1751712493,781147008,base_link,0,1,-7.2871474,112.7959636,50.9551126992521,"(1.532644, 0.0, 0.0, 0.0, 1.532644, 0.0, 0.0, 0.0, 3.682561)",2
2025/07/05/17:48:13.874258,9546,1751712493,781147008,base_link,0,1,-7.2871474,112.7959636,50.9551126992521,"(1.532644, 0.0, 0.0, 0.0, 1.532644, 0.0, 0.0, 0.0, 3.682561)",2
2025/07/05/17:48:13.995923,9547,1751712493,981147008,base_link,0,1,-7.2871483,112.7959659,51.05511759553322,"(1.5202890000000002, 0.0, 0.0, 0.0, 1.5202890000000002, 0.0, 0.0, 0.0, 3.6481)",2
2025/07/05/17:48:14.095336,9548,1751712493,981147008,base_link,0,1,-7.2871483,112.7959659,51.05511759553322,"(1.5202890000000002, 0.0, 0.0, 0.0, 1.5202890000000002, 0.0, 0.0, 0.0, 3.6481)",2
2025/07/05/17:48:14.173723,9549,1751712493,981147008,base_link,0,1,-7.2871483,112.7959659,51.05511759553322,"(1.5202890000000002, 0.0, 0.0, 0.0, 1.5202890000000002, 0.0, 0.0, 0.0, 3.6481)",2
2025/07/05/17:48:14.254523,9550,1751712494,181147008,base_link,0,1,-7.287149,112.7959683,51.005123311455066,"(1.507984, 0.0, 0.0, 0.0, 1.507984, 0.0, 0.0, 0.0, 3.5721)",2
2025/07/05/17:48:14.354025,9551,1751712494,181147008,base_link,0,1,-7.287149,112.7959683,51.005123311455066,"(1.507984, 0.0, 0.0, 0.0, 1.507984, 0.0, 0.0, 0.0, 3.5721)",2
2025/07/05/17:48:14.515241,9552,1751712494,381147008,base_link,0,1,-7.2871489,112.7959709,50.97513168166057,"(1.5006250000000003, 0.0, 0.0, 0.0, 1.5006250000000003, 0.0, 0.0, 0.0, 3.523129)",2
2025/07/05/17:48:14.617545,9553,1751712494,581147008,base_link,0,1,-7.2871488,112.7959732,50.855139115337984,"(1.4884, 0.0, 0.0, 0.0, 1.4884, 0.0, 0.0, 0.0, 3.493161)",2
2025/07/05/17:48:14.695512,9554,1751712494,581147008,base_link,0,1,-7.2871488,112.7959732,50.855139115337984,"(1.4884, 0.0, 0.0, 0.0, 1.4884, 0.0, 0.0, 0.0, 3.493161)",2
2025/07/05/17:48:14.796183,9555,1751712494,781147008,base_link,0,1,-7.2871487,112.7959758,50.97514748551262,"(1.4737959999999999, 0.0, 0.0, 0.0, 1.4737959999999999, 0.0, 0.0, 0.0, 3.4447360000000002)",2
2025/07/05/17:48:14.874621,9556,1751712494,781147008,base_link,0,1,-7.2871487,112.7959758,50.97514748551262,"(1.4737959999999999, 0.0, 0.0, 0.0, 1.4737959999999999, 0.0, 0.0, 0.0, 3.4447360000000002)",2
2025/07/05/17:48:14.995583,9557,1751712494,981147008,base_link,0,1,-7.2871492,112.7959783,50.95515402100817,"(1.459264, 0.0, 0.0, 0.0, 1.459264, 0.0, 0.0, 0.0, 3.392964)",2
2025/07/05/17:48:15.074205,9558,1751712494,981147008,base_link,0,1,-7.2871492,112.7959783,50.95515402100817,"(1.459264, 0.0, 0.0, 0.0, 1.459264, 0.0, 0.0, 0.0, 3.392964)",2
2025/07/05/17:48:15.173995,9559,1751712494,981147008,base_link,0,1,-7.2871492,112.7959783,50.95515402100817,"(1.459264, 0.0, 0.0, 0.0, 1.459264, 0.0, 0.0, 0.0, 3.392964)",2
2025/07/05/17:48:15.294934,9560,1751712495,181147008,base_link,0,1,-7.28715,112.7959808,51.015159795233714,"(1.444804, 0.0, 0.0, 0.0, 1.444804, 0.0, 0.0, 0.0, 3.341584)",2
2025/07/05/17:48:15.374012,9561,1751712495,181147008,base_link,0,1,-7.28715,112.7959808,51.015159795233714,"(1.444804, 0.0, 0.0, 0.0, 1.444804, 0.0, 0.0, 0.0, 3.341584)",2
2025/07/05/17:48:15.554087,9562,1751712495,381147008,base_link,0,1,-7.2871504,112.7959833,51.155166584429644,"(1.430416, 0.0, 0.0, 0.0, 1.430416, 0.0, 0.0, 0.0, 3.305124)",2
2025/07/05/17:48:15.654654,9563,1751712495,581147008,base_link,0,1,-7.2871508,112.7959857,51.20517306143621,"(1.4161, 0.0, 0.0, 0.0, 1.4161, 0.0, 0.0, 0.0, 3.268864)",2
2025/07/05/17:48:15.733846,9564,1751712495,581147008,base_link,0,1,-7.2871508,112.7959857,51.20517306143621,"(1.4161, 0.0, 0.0, 0.0, 1.4161, 0.0, 0.0, 0.0, 3.268864)",2
2025/07/05/17:48:15.833870,9565,1751712495,781147008,base_link,0,1,-7.2871512,112.7959883,51.32518016275274,"(1.3994890000000002, 0.0, 0.0, 0.0, 1.3994890000000002, 0.0, 0.0, 0.0, 3.225616)",2
2025/07/05/17:48:15.914508,9566,1751712495,781147008,base_link,0,1,-7.2871512,112.7959883,51.32518016275274,"(1.3994890000000002, 0.0, 0.0, 0.0, 1.3994890000000002, 0.0, 0.0, 0.0, 3.225616)",2
2025/07/05/17:48:16.017739,9567,1751712495,981147008,base_link,0,1,-7.2871514,112.7959906,51.44518683505143,"(1.3759290000000002, 0.0, 0.0, 0.0, 1.3759290000000002, 0.0, 0.0, 0.0, 3.186225)",2
2025/07/05/17:48:16.095263,9568,1751712495,981147008,base_link,0,1,-7.2871514,112.7959906,51.44518683505143,"(1.3759290000000002, 0.0, 0.0, 0.0, 1.3759290000000002, 0.0, 0.0, 0.0, 3.186225)",2
2025/07/05/17:48:16.195612,9569,1751712496,181147008,base_link,0,1,-7.2871517,112.7959927,51.44519262925317,"(1.3572250000000001, 0.0, 0.0, 0.0, 1.3572250000000001, 0.0, 0.0, 0.0, 3.139984)",2
2025/07/05/17:48:16.273972,9570,1751712496,181147008,base_link,0,1,-7.2871517,112.7959927,51.44519262925317,"(1.3572250000000001, 0.0, 0.0, 0.0, 1.3572250000000001, 0.0, 0.0, 0.0, 3.139984)",2
2025/07/05/17:48:16.396362,9571,1751712496,381147008,base_link,0,1,-7.2871519,112.7959951,51.56519961368093,"(1.3409639999999998, 0.0, 0.0, 0.0, 1.3409639999999998, 0.0, 0.0, 0.0, 3.1011209999999996)",2
2025/07/05/17:48:16.515250,9572,1751712496,381147008,base_link,0,1,-7.2871519,112.7959951,51.56519961368093,"(1.3409639999999998, 0.0, 0.0, 0.0, 1.3409639999999998, 0.0, 0.0, 0.0, 3.1011209999999996)",2
2025/07/05/17:48:16.617849,9573,1751712496,581147008,base_link,0,1,-7.2871523,112.7959973,51.58520546625978,"(1.3224999999999998, 0.0, 0.0, 0.0, 1.3224999999999998, 0.0, 0.0, 0.0, 3.0625)",2
2025/07/05/17:48:16.694438,9574,1751712496,581147008,base_link,0,1,-7.2871523,112.7959973,51.58520546625978,"(1.3224999999999998, 0.0, 0.0, 0.0, 1.3224999999999998, 0.0, 0.0, 0.0, 3.0625)",2
2025/07/05/17:48:16.795157,9575,1751712496,781147008,base_link,0,1,-7.2871531,112.7959993,51.52520967948796,"(1.3087359999999997, 0.0, 0.0, 0.0, 1.3087359999999997, 0.0, 0.0, 0.0, 3.0276)",2
2025/07/05/17:48:16.873975,9576,1751712496,781147008,base_link,0,1,-7.2871531,112.7959993,51.52520967948796,"(1.3087359999999997, 0.0, 0.0, 0.0, 1.3087359999999997, 0.0, 0.0, 0.0, 3.0276)",2
2025/07/05/17:48:16.995568,9577,1751712496,981147008,base_link,0,1,-7.287154,112.7960014,51.56521395110968,"(1.288225, 0.0, 0.0, 0.0, 1.288225, 0.0, 0.0, 0.0, 2.9859839999999997)",2
2025/07/05/17:48:17.095572,9578,1751712496,981147008,base_link,0,1,-7.287154,112.7960014,51.56521395110968,"(1.288225, 0.0, 0.0, 0.0, 1.288225, 0.0, 0.0, 0.0, 2.9859839999999997)",2
2025/07/05/17:48:17.194811,9579,1751712496,981147008,base_link,0,1,-7.287154,112.7960014,51.56521395110968,"(1.288225, 0.0, 0.0, 0.0, 1.288225, 0.0, 0.0, 0.0, 2.9859839999999997)",2
2025/07/05/17:48:17.273951,9580,1751712497,181147008,base_link,0,1,-7.2871548,112.7960035,51.60521847646613,"(1.2678759999999998, 0.0, 0.0, 0.0, 1.2678759999999998, 0.0, 0.0, 0.0, 2.951524)",2
2025/07/05/17:48:17.353881,9581,1751712497,181147008,base_link,0,1,-7.2871548,112.7960035,51.60521847646613,"(1.2678759999999998, 0.0, 0.0, 0.0, 1.2678759999999998, 0.0, 0.0, 0.0, 2.951524)",2
2025/07/05/17:48:17.515188,9582,1751712497,381147008,base_link,0,1,-7.2871554,112.7960059,51.5552244457855,"(1.2454560000000003, 0.0, 0.0, 0.0, 1.2454560000000003, 0.0, 0.0, 0.0, 2.920681)",2
2025/07/05/17:48:17.617488,9583,1751712497,581147008,base_link,0,1,-7.2871557,112.7960081,51.55523055202191,"(1.221025, 0.0, 0.0, 0.0, 1.221025, 0.0, 0.0, 0.0, 2.8832039999999997)",2
2025/07/05/17:48:17.694665,9584,1751712497,581147008,base_link,0,1,-7.2871557,112.7960081,51.55523055202191,"(1.221025, 0.0, 0.0, 0.0, 1.221025, 0.0, 0.0, 0.0, 2.8832039999999997)",2
2025/07/05/17:48:17.774426,9585,1751712497,581147008,base_link,0,1,-7.2871557,112.7960081,51.55523055202191,"(1.221025, 0.0, 0.0, 0.0, 1.221025, 0.0, 0.0, 0.0, 2.8832039999999997)",2
2025/07/05/17:48:17.894636,9586,1751712497,781147008,base_link,0,1,-7.2871563,112.7960102,51.57523558482601,"(1.199025, 0.0, 0.0, 0.0, 1.199025, 0.0, 0.0, 0.0, 2.845969)",2
2025/07/05/17:48:17.996168,9587,1751712497,981147008,base_link,0,1,-7.2871572,112.7960122,51.58523954419955,"(1.1815689999999999, 0.0, 0.0, 0.0, 1.1815689999999999, 0.0, 0.0, 0.0, 2.8156839999999996)",2
2025/07/05/17:48:18.073864,9588,1751712497,981147008,base_link,0,1,-7.2871572,112.7960122,51.58523954419955,"(1.1815689999999999, 0.0, 0.0, 0.0, 1.1815689999999999, 0.0, 0.0, 0.0, 2.8156839999999996)",2
2025/07/05/17:48:18.195357,9589,1751712498,181147008,base_link,0,1,-7.2871583,112.7960146,51.51524424467756,"(1.1664, 0.0, 0.0, 0.0, 1.1664, 0.0, 0.0, 0.0, 2.782224)",2
2025/07/05/17:48:18.294751,9590,1751712498,181147008,base_link,0,1,-7.2871583,112.7960146,51.51524424467756,"(1.1664, 0.0, 0.0, 0.0, 1.1664, 0.0, 0.0, 0.0, 2.782224)",2
2025/07/05/17:48:18.373482,9591,1751712498,181147008,base_link,0,1,-7.2871583,112.7960146,51.51524424467756,"(1.1664, 0.0, 0.0, 0.0, 1.1664, 0.0, 0.0, 0.0, 2.782224)",2
2025/07/05/17:48:18.554070,9592,1751712498,381147008,base_link,0,1,-7.2871592,112.7960167,51.44524851617271,"(1.1534760000000002, 0.0, 0.0, 0.0, 1.1534760000000002, 0.0, 0.0, 0.0, 2.752281)",2
2025/07/05/17:48:18.653814,9593,1751712498,581147008,base_link,0,1,-7.2871602,112.7960192,51.425253782514815,"(1.140624, 0.0, 0.0, 0.0, 1.140624, 0.0, 0.0, 0.0, 2.732409)",2
2025/07/05/17:48:18.773556,9594,1751712498,581147008,base_link,0,1,-7.2871602,112.7960192,51.425253782514815,"(1.140624, 0.0, 0.0, 0.0, 1.140624, 0.0, 0.0, 0.0, 2.732409)",2
2025/07/05/17:48:18.853756,9595,1751712498,781147008,base_link,0,1,-7.2871608,112.7960218,51.45526037598917,"(1.1299689999999998, 0.0, 0.0, 0.0, 1.1299689999999998, 0.0, 0.0, 0.0, 2.709316)",2
2025/07/05/17:48:18.953669,9596,1751712498,781147008,base_link,0,1,-7.2871608,112.7960218,51.45526037598917,"(1.1299689999999998, 0.0, 0.0, 0.0, 1.1299689999999998, 0.0, 0.0, 0.0, 2.709316)",2
2025/07/05/17:48:19.074542,9597,1751712498,981147008,base_link,0,1,-7.2871613,112.7960247,51.37526815964401,"(1.1236000000000002, 0.0, 0.0, 0.0, 1.1236000000000002, 0.0, 0.0, 0.0, 2.686321)",2
2025/07/05/17:48:19.154073,9598,1751712498,981147008,base_link,0,1,-7.2871613,112.7960247,51.37526815964401,"(1.1236000000000002, 0.0, 0.0, 0.0, 1.1236000000000002, 0.0, 0.0, 0.0, 2.686321)",2
2025/07/05/17:48:19.253762,9599,1751712499,181147008,base_link,0,1,-7.287162,112.7960276,51.33527543576325,"(1.108809, 0.0, 0.0, 0.0, 1.108809, 0.0, 0.0, 0.0, 2.6634239999999996)",2
2025/07/05/17:48:19.353780,9600,1751712499,181147008,base_link,0,1,-7.287162,112.7960276,51.33527543576325,"(1.108809, 0.0, 0.0, 0.0, 1.108809, 0.0, 0.0, 0.0, 2.6634239999999996)",2
2025/07/05/17:48:19.515102,9601,1751712499,381147008,base_link,0,1,-7.2871631,112.7960303,51.25528107254257,"(1.094116, 0.0, 0.0, 0.0, 1.094116, 0.0, 0.0, 0.0, 2.640625)",2
2025/07/05/17:48:19.617181,9602,1751712499,581147008,base_link,0,1,-7.2871643,112.796033,51.20528645554229,"(1.0816000000000001, 0.0, 0.0, 0.0, 1.0816000000000001, 0.0, 0.0, 0.0, 2.608225)",2
2025/07/05/17:48:19.694713,9603,1751712499,581147008,base_link,0,1,-7.2871643,112.796033,51.20528645554229,"(1.0816000000000001, 0.0, 0.0, 0.0, 1.0816000000000001, 0.0, 0.0, 0.0, 2.608225)",2
2025/07/05/17:48:19.795602,9604,1751712499,781147008,base_link,0,1,-7.2871653,112.7960355,51.1652917217223,"(1.069156, 0.0, 0.0, 0.0, 1.069156, 0.0, 0.0, 0.0, 2.5792360000000003)",2
2025/07/05/17:48:19.873776,9605,1751712499,781147008,base_link,0,1,-7.2871653,112.7960355,51.1652917217223,"(1.069156, 0.0, 0.0, 0.0, 1.069156, 0.0, 0.0, 0.0, 2.5792360000000003)",2
2025/07/05/17:48:19.996436,9606,1751712499,981147008,base_link,0,1,-7.2871659,112.796038,51.125298002882346,"(1.058841, 0.0, 0.0, 0.0, 1.058841, 0.0, 0.0, 0.0, 2.5600000000000005)",2
2025/07/05/17:48:20.095062,9607,1751712499,981147008,base_link,0,1,-7.2871659,112.796038,51.125298002882346,"(1.058841, 0.0, 0.0, 0.0, 1.058841, 0.0, 0.0, 0.0, 2.5600000000000005)",2
2025/07/05/17:48:20.173660,9608,1751712499,981147008,base_link,0,1,-7.2871659,112.796038,51.125298002882346,"(1.058841, 0.0, 0.0, 0.0, 1.058841, 0.0, 0.0, 0.0, 2.5600000000000005)",2
2025/07/05/17:48:20.294667,9609,1751712500,181147008,base_link,0,1,-7.2871663,112.7960407,51.01530541581225,"(1.050625, 0.0, 0.0, 0.0, 1.050625, 0.0, 0.0, 0.0, 2.537649)",2
2025/07/05/17:48:20.417877,9610,1751712500,381147008,base_link,0,1,-7.2871669,112.7960431,50.915311384777795,"(1.0424409999999997, 0.0, 0.0, 0.0, 1.0424409999999997, 0.0, 0.0, 0.0, 2.5217440000000004)",2
2025/07/05/17:48:20.574006,9611,1751712500,381147008,base_link,0,1,-7.2871669,112.7960431,50.915311384777795,"(1.0424409999999997, 0.0, 0.0, 0.0, 1.0424409999999997, 0.0, 0.0, 0.0, 2.5217440000000004)",2
2025/07/05/17:48:20.653871,9612,1751712500,581147008,base_link,0,1,-7.2871677,112.7960454,50.87531653407294,"(1.032256, 0.0, 0.0, 0.0, 1.032256, 0.0, 0.0, 0.0, 2.4964000000000004)",2
2025/07/05/17:48:20.753627,9613,1751712500,581147008,base_link,0,1,-7.2871677,112.7960454,50.87531653407294,"(1.032256, 0.0, 0.0, 0.0, 1.032256, 0.0, 0.0, 0.0, 2.4964000000000004)",2
2025/07/05/17:48:20.853882,9614,1751712500,781147008,base_link,0,1,-7.2871684,112.7960477,50.89532193709918,"(1.0221209999999998, 0.0, 0.0, 0.0, 1.0221209999999998, 0.0, 0.0, 0.0, 2.474329)",2
2025/07/05/17:48:20.954040,9615,1751712500,781147008,base_link,0,1,-7.2871684,112.7960477,50.89532193709918,"(1.0221209999999998, 0.0, 0.0, 0.0, 1.0221209999999998, 0.0, 0.0, 0.0, 2.474329)",2
2025/07/05/17:48:21.053610,9616,1751712500,981147008,base_link,0,1,-7.287169,112.7960503,50.89532853028173,"(1.0060089999999997, 0.0, 0.0, 0.0, 1.0060089999999997, 0.0, 0.0, 0.0, 2.4586240000000004)",2
2025/07/05/17:48:21.153720,9617,1751712500,981147008,base_link,0,1,-7.287169,112.7960503,50.89532853028173,"(1.0060089999999997, 0.0, 0.0, 0.0, 1.0060089999999997, 0.0, 0.0, 0.0, 2.4586240000000004)",2
2025/07/05/17:48:21.253707,9618,1751712501,181147008,base_link,0,1,-7.2871696,112.7960529,50.86533512343799,"(0.992016, 0.0, 0.0, 0.0, 0.992016, 0.0, 0.0, 0.0, 2.4429689999999997)",2
2025/07/05/17:48:21.353692,9619,1751712501,181147008,base_link,0,1,-7.2871696,112.7960529,50.86533512343799,"(0.992016, 0.0, 0.0, 0.0, 0.992016, 0.0, 0.0, 0.0, 2.4429689999999997)",2
2025/07/05/17:48:21.533891,9620,1751712501,381147008,base_link,0,1,-7.2871698,112.7960555,50.81534273158047,"(0.9801, 0.0, 0.0, 0.0, 0.9801, 0.0, 0.0, 0.0, 2.430481)",2
2025/07/05/17:48:21.633890,9621,1751712501,581147008,base_link,0,1,-7.2871698,112.7960582,50.795351159348606,"(0.970225, 0.0, 0.0, 0.0, 0.970225, 0.0, 0.0, 0.0, 2.4149160000000003)",2
2025/07/05/17:48:21.714922,9622,1751712501,581147008,base_link,0,1,-7.2871698,112.7960582,50.795351159348606,"(0.970225, 0.0, 0.0, 0.0, 0.970225, 0.0, 0.0, 0.0, 2.4149160000000003)",2
2025/07/05/17:48:21.817371,9623,1751712501,781147008,base_link,0,1,-7.2871699,112.7960609,50.76535933334141,"(0.964324, 0.0, 0.0, 0.0, 0.964324, 0.0, 0.0, 0.0, 2.4025000000000003)",2
2025/07/05/17:48:21.914542,9624,1751712501,781147008,base_link,0,1,-7.2871699,112.7960609,50.76535933334141,"(0.964324, 0.0, 0.0, 0.0, 0.964324, 0.0, 0.0, 0.0, 2.4025000000000003)",2
2025/07/05/17:48:22.017130,9625,1751712501,981147008,base_link,0,1,-7.2871697,112.7960632,50.805367020030374,"(0.958441, 0.0, 0.0, 0.0, 0.958441, 0.0, 0.0, 0.0, 2.396304)",2
2025/07/05/17:48:22.094455,9626,1751712501,981147008,base_link,0,1,-7.2871697,112.7960632,50.805367020030374,"(0.958441, 0.0, 0.0, 0.0, 0.958441, 0.0, 0.0, 0.0, 2.396304)",2
2025/07/05/17:48:22.173660,9627,1751712501,981147008,base_link,0,1,-7.2871697,112.7960632,50.805367020030374,"(0.958441, 0.0, 0.0, 0.0, 0.958441, 0.0, 0.0, 0.0, 2.396304)",2
2025/07/05/17:48:22.253527,9628,1751712502,181147008,base_link,0,1,-7.2871694,112.7960657,50.78537558474116,"(0.958441, 0.0, 0.0, 0.0, 0.958441, 0.0, 0.0, 0.0, 2.387025)",2
2025/07/05/17:48:22.395130,9629,1751712502,381147008,base_link,0,1,-7.287169,112.7960682,50.735384403200996,"(0.958441, 0.0, 0.0, 0.0, 0.958441, 0.0, 0.0, 0.0, 2.380849)",2
2025/07/05/17:48:22.533693,9630,1751712502,381147008,base_link,0,1,-7.287169,112.7960682,50.735384403200996,"(0.958441, 0.0, 0.0, 0.0, 0.958441, 0.0, 0.0, 0.0, 2.380849)",2
2025/07/05/17:48:22.633672,9631,1751712502,581147008,base_link,0,1,-7.2871684,112.7960706,50.81539341703876,"(0.9603999999999999, 0.0, 0.0, 0.0, 0.9603999999999999, 0.0, 0.0, 0.0, 2.3716)",2
2025/07/05/17:48:22.734002,9632,1751712502,581147008,base_link,0,1,-7.2871684,112.7960706,50.81539341703876,"(0.9603999999999999, 0.0, 0.0, 0.0, 0.9603999999999999, 0.0, 0.0, 0.0, 2.3716)",2
2025/07/05/17:48:22.833793,9633,1751712502,781147008,base_link,0,1,-7.2871677,112.7960729,50.81540237250303,"(0.962361, 0.0, 0.0, 0.0, 0.962361, 0.0, 0.0, 0.0, 2.3623689999999997)",2
2025/07/05/17:48:22.933906,9634,1751712502,781147008,base_link,0,1,-7.2871677,112.7960729,50.81540237250303,"(0.962361, 0.0, 0.0, 0.0, 0.962361, 0.0, 0.0, 0.0, 2.3623689999999997)",2
2025/07/05/17:48:23.017067,9635,1751712502,981147008,base_link,0,1,-7.2871669,112.7960752,50.78541158173579,"(0.962361, 0.0, 0.0, 0.0, 0.962361, 0.0, 0.0, 0.0, 2.3500889999999997)",2
2025/07/05/17:48:23.095224,9636,1751712502,981147008,base_link,0,1,-7.2871669,112.7960752,50.78541158173579,"(0.962361, 0.0, 0.0, 0.0, 0.962361, 0.0, 0.0, 0.0, 2.3500889999999997)",2
2025/07/05/17:48:23.195577,9637,1751712503,181147008,base_link,0,1,-7.287166,112.7960775,50.75542104474255,"(0.964324, 0.0, 0.0, 0.0, 0.964324, 0.0, 0.0, 0.0, 2.347024)",2
2025/07/05/17:48:23.274043,9638,1751712503,181147008,base_link,0,1,-7.287166,112.7960775,50.75542104474255,"(0.964324, 0.0, 0.0, 0.0, 0.964324, 0.0, 0.0, 0.0, 2.347024)",2
2025/07/05/17:48:23.353613,9639,1751712503,181147008,base_link,0,1,-7.287166,112.7960775,50.75542104474255,"(0.964324, 0.0, 0.0, 0.0, 0.964324, 0.0, 0.0, 0.0, 2.347024)",2
2025/07/05/17:48:23.533521,9640,1751712503,381147008,base_link,0,1,-7.2871649,112.7960796,50.7154303910278,"(0.962361, 0.0, 0.0, 0.0, 0.962361, 0.0, 0.0, 0.0, 2.3439609999999997)",2
2025/07/05/17:48:23.633883,9641,1751712503,581147008,base_link,0,1,-7.2871635,112.7960816,50.73544018651147,"(0.958441, 0.0, 0.0, 0.0, 0.958441, 0.0, 0.0, 0.0, 2.3378409999999996)",2
2025/07/05/17:48:23.714869,9642,1751712503,581147008,base_link,0,1,-7.2871635,112.7960816,50.73544018651147,"(0.958441, 0.0, 0.0, 0.0, 0.958441, 0.0, 0.0, 0.0, 2.3378409999999996)",2
2025/07/05/17:48:23.817122,9643,1751712503,781147008,base_link,0,1,-7.2871619,112.7960833,50.79544955317139,"(0.954529, 0.0, 0.0, 0.0, 0.954529, 0.0, 0.0, 0.0, 2.3378409999999996)",2
2025/07/05/17:48:23.895073,9644,1751712503,781147008,base_link,0,1,-7.2871619,112.7960833,50.79544955317139,"(0.954529, 0.0, 0.0, 0.0, 0.954529, 0.0, 0.0, 0.0, 2.3378409999999996)",2
2025/07/05/17:48:24.017179,9645,1751712503,981147008,base_link,0,1,-7.2871604,112.7960851,50.77545897823491,"(0.948676, 0.0, 0.0, 0.0, 0.948676, 0.0, 0.0, 0.0, 2.3256249999999996)",2
2025/07/05/17:48:24.094665,9646,1751712503,981147008,base_link,0,1,-7.2871604,112.7960851,50.77545897823491,"(0.948676, 0.0, 0.0, 0.0, 0.948676, 0.0, 0.0, 0.0, 2.3256249999999996)",2
2025/07/05/17:48:24.174151,9647,1751712503,981147008,base_link,0,1,-7.2871604,112.7960851,50.77545897823491,"(0.948676, 0.0, 0.0, 0.0, 0.948676, 0.0, 0.0, 0.0, 2.3256249999999996)",2
2025/07/05/17:48:24.253507,9648,1751712504,181147008,base_link,0,1,-7.2871588,112.7960867,50.805468032845695,"(0.9389609999999999, 0.0, 0.0, 0.0, 0.9389609999999999, 0.0, 0.0, 0.0, 2.3195289999999997)",2
2025/07/05/17:48:24.354298,9649,1751712504,181147008,base_link,0,1,-7.2871588,112.7960867,50.805468032845695,"(0.9389609999999999, 0.0, 0.0, 0.0, 0.9389609999999999, 0.0, 0.0, 0.0, 2.3195289999999997)",2
2025/07/05/17:48:24.533864,9650,1751712504,381147008,base_link,0,1,-7.2871568,112.7960879,50.79547685408321,"(0.933156, 0.0, 0.0, 0.0, 0.933156, 0.0, 0.0, 0.0, 2.3134409999999996)",2
2025/07/05/17:48:24.653929,9651,1751712504,581147008,base_link,0,1,-7.2871549,112.7960892,50.8154857337361,"(0.9428409999999999, 0.0, 0.0, 0.0, 0.9428409999999999, 0.0, 0.0, 0.0, 2.334784)",2
2025/07/05/17:48:24.753653,9652,1751712504,581147008,base_link,0,1,-7.2871549,112.7960892,50.8154857337361,"(0.9428409999999999, 0.0, 0.0, 0.0, 0.9428409999999999, 0.0, 0.0, 0.0, 2.334784)",2
2025/07/05/17:48:24.853483,9653,1751712504,781147008,base_link,0,1,-7.287153,112.7960905,50.84549461344761,"(0.962361, 0.0, 0.0, 0.0, 0.962361, 0.0, 0.0, 0.0, 2.365444)",2
2025/07/05/17:48:24.953422,9654,1751712504,781147008,base_link,0,1,-7.287153,112.7960905,50.84549461344761,"(0.962361, 0.0, 0.0, 0.0, 0.962361, 0.0, 0.0, 0.0, 2.365444)",2
2025/07/05/17:48:25.053593,9655,1751712504,981147008,base_link,0,1,-7.2871509,112.7960916,50.855503376523735,"(0.970225, 0.0, 0.0, 0.0, 0.970225, 0.0, 0.0, 0.0, 2.359296)",2
2025/07/05/17:48:25.153512,9656,1751712504,981147008,base_link,0,1,-7.2871509,112.7960916,50.855503376523735,"(0.970225, 0.0, 0.0, 0.0, 0.970225, 0.0, 0.0, 0.0, 2.359296)",2
2025/07/05/17:48:25.253701,9657,1751712505,181147008,base_link,0,1,-7.2871487,112.7960926,50.82551208132396,"(0.964324, 0.0, 0.0, 0.0, 0.964324, 0.0, 0.0, 0.0, 2.3500889999999997)",2
2025/07/05/17:48:25.353770,9658,1751712505,181147008,base_link,0,1,-7.2871487,112.7960926,50.82551208132396,"(0.964324, 0.0, 0.0, 0.0, 0.964324, 0.0, 0.0, 0.0, 2.3500889999999997)",2
2025/07/05/17:48:25.514507,9659,1751712505,381147008,base_link,0,1,-7.2871466,112.7960933,50.75551959598545,"(0.962361, 0.0, 0.0, 0.0, 0.962361, 0.0, 0.0, 0.0, 2.347024)",2
2025/07/05/17:48:25.614496,9660,1751712505,581147008,base_link,0,1,-7.2871442,112.7960938,50.71552724783026,"(0.9506249999999999, 0.0, 0.0, 0.0, 0.9506249999999999, 0.0, 0.0, 0.0, 2.347024)",2
2025/07/05/17:48:25.694481,9661,1751712505,581147008,base_link,0,1,-7.2871442,112.7960938,50.71552724783026,"(0.9506249999999999, 0.0, 0.0, 0.0, 0.9506249999999999, 0.0, 0.0, 0.0, 2.347024)",2
2025/07/05/17:48:25.794353,9662,1751712505,581147008,base_link,0,1,-7.2871442,112.7960938,50.71552724783026,"(0.9506249999999999, 0.0, 0.0, 0.0, 0.9506249999999999, 0.0, 0.0, 0.0, 2.347024)",2
2025/07/05/17:48:25.873736,9663,1751712505,781147008,base_link,0,1,-7.2871419,112.7960947,50.72553589451175,"(0.9409, 0.0, 0.0, 0.0, 0.9409, 0.0, 0.0, 0.0, 2.3439609999999997)",2
2025/07/05/17:48:25.995439,9664,1751712505,981147008,base_link,0,1,-7.2871397,112.7960958,50.70554491174728,"(0.935089, 0.0, 0.0, 0.0, 0.935089, 0.0, 0.0, 0.0, 2.3409)",2
2025/07/05/17:48:26.094487,9665,1751712505,981147008,base_link,0,1,-7.2871397,112.7960958,50.70554491174728,"(0.935089, 0.0, 0.0, 0.0, 0.935089, 0.0, 0.0, 0.0, 2.3409)",2
2025/07/05/17:48:26.173353,9666,1751712505,981147008,base_link,0,1,-7.2871397,112.7960958,50.70554491174728,"(0.935089, 0.0, 0.0, 0.0, 0.935089, 0.0, 0.0, 0.0, 2.3409)",2
2025/07/05/17:48:26.253730,9667,1751712506,181147008,base_link,0,1,-7.2871372,112.7960965,50.715553441919205,"(0.9292959999999999, 0.0, 0.0, 0.0, 0.9292959999999999, 0.0, 0.0, 0.0, 2.3317289999999997)",2
2025/07/05/17:48:26.353495,9668,1751712506,181147008,base_link,0,1,-7.2871372,112.7960965,50.715553441919205,"(0.9292959999999999, 0.0, 0.0, 0.0, 0.9292959999999999, 0.0, 0.0, 0.0, 2.3317289999999997)",2
2025/07/05/17:48:26.514483,9669,1751712506,381147008,base_link,0,1,-7.2871345,112.796097,50.7055618555202,"(0.9216, 0.0, 0.0, 0.0, 0.9216, 0.0, 0.0, 0.0, 2.3195289999999997)",2
2025/07/05/17:48:26.615149,9670,1751712506,581147008,base_link,0,1,-7.2871317,112.796097,50.6855689623197,"(0.9101159999999999, 0.0, 0.0, 0.0, 0.9101159999999999, 0.0, 0.0, 0.0, 2.3012889999999997)",2
2025/07/05/17:48:26.694517,9671,1751712506,581147008,base_link,0,1,-7.2871317,112.796097,50.6855689623197,"(0.9101159999999999, 0.0, 0.0, 0.0, 0.9101159999999999, 0.0, 0.0, 0.0, 2.3012889999999997)",2
2025/07/05/17:48:26.773518,9672,1751712506,581147008,base_link,0,1,-7.2871317,112.796097,50.6855689623197,"(0.9101159999999999, 0.0, 0.0, 0.0, 0.9101159999999999, 0.0, 0.0, 0.0, 2.3012889999999997)",2
2025/07/05/17:48:26.873368,9673,1751712506,781147008,base_link,0,1,-7.2871291,112.7960972,50.7655761858651,"(0.9006009999999999, 0.0, 0.0, 0.0, 0.9006009999999999, 0.0, 0.0, 0.0, 2.295225)",2
2025/07/05/17:48:26.953642,9674,1751712506,781147008,base_link,0,1,-7.2871291,112.7960972,50.7655761858651,"(0.9006009999999999, 0.0, 0.0, 0.0, 0.9006009999999999, 0.0, 0.0, 0.0, 2.295225)",2
2025/07/05/17:48:27.053605,9675,1751712506,981147008,base_link,0,1,-7.2871266,112.7960979,50.735584716400254,"(0.889249, 0.0, 0.0, 0.0, 0.889249, 0.0, 0.0, 0.0, 2.289169)",2
2025/07/05/17:48:27.133566,9676,1751712506,981147008,base_link,0,1,-7.2871266,112.7960979,50.735584716400254,"(0.889249, 0.0, 0.0, 0.0, 0.889249, 0.0, 0.0, 0.0, 2.289169)",2
2025/07/05/17:48:27.236430,9677,1751712507,181147008,base_link,0,1,-7.2871243,112.796099,50.71559398795531,"(0.8817209999999999, 0.0, 0.0, 0.0, 0.8817209999999999, 0.0, 0.0, 0.0, 2.2831209999999995)",2
2025/07/05/17:48:27.314559,9678,1751712507,181147008,base_link,0,1,-7.2871243,112.796099,50.71559398795531,"(0.8817209999999999, 0.0, 0.0, 0.0, 0.8817209999999999, 0.0, 0.0, 0.0, 2.2831209999999995)",2
2025/07/05/17:48:27.495142,9679,1751712507,381147008,base_link,0,1,-7.2871219,112.7960996,50.67560195268861,"(0.8760960000000001, 0.0, 0.0, 0.0, 0.8760960000000001, 0.0, 0.0, 0.0, 2.277081)",2
2025/07/05/17:48:27.594843,9680,1751712507,381147008,base_link,0,1,-7.2871219,112.7960996,50.67560195268861,"(0.8760960000000001, 0.0, 0.0, 0.0, 0.8760960000000001, 0.0, 0.0, 0.0, 2.277081)",2
2025/07/05/17:48:27.673440,9681,1751712507,581147008,base_link,0,1,-7.2871193,112.7960998,50.72560917657739,"(0.8704890000000001, 0.0, 0.0, 0.0, 0.8704890000000001, 0.0, 0.0, 0.0, 2.259009)",2
2025/07/05/17:48:27.795260,9682,1751712507,781147008,base_link,0,1,-7.2871167,112.7961002,50.7256170248493,"(0.8649000000000001, 0.0, 0.0, 0.0, 0.8649000000000001, 0.0, 0.0, 0.0, 2.25)",2
2025/07/05/17:48:27.894449,9683,1751712507,781147008,base_link,0,1,-7.2871167,112.7961002,50.7256170248493,"(0.8649000000000001, 0.0, 0.0, 0.0, 0.8649000000000001, 0.0, 0.0, 0.0, 2.25)",2
2025/07/05/17:48:27.994146,9684,1751712507,781147008,base_link,0,1,-7.2871167,112.7961002,50.7256170248493,"(0.8649000000000001, 0.0, 0.0, 0.0, 0.8649000000000001, 0.0, 0.0, 0.0, 2.25)",2
2025/07/05/17:48:28.094847,9685,1751712507,981147008,base_link,0,1,-7.2871141,112.7961007,50.72562518536057,"(0.8574760000000001, 0.0, 0.0, 0.0, 0.8574760000000001, 0.0, 0.0, 0.0, 2.2470010000000005)",2
2025/07/05/17:48:28.195553,9686,1751712508,181147008,base_link,0,1,-7.2871115,112.7961015,50.70563428241381,"(0.8500840000000001, 0.0, 0.0, 0.0, 0.8500840000000001, 0.0, 0.0, 0.0, 2.2410090000000005)",2
2025/07/05/17:48:28.273479,9687,1751712508,181147008,base_link,0,1,-7.2871115,112.7961015,50.70563428241381,"(0.8500840000000001, 0.0, 0.0, 0.0, 0.8500840000000001, 0.0, 0.0, 0.0, 2.2410090000000005)",2
2025/07/05/17:48:28.395247,9688,1751712508,181147008,base_link,0,1,-7.2871115,112.7961015,50.70563428241381,"(0.8500840000000001, 0.0, 0.0, 0.0, 0.8500840000000001, 0.0, 0.0, 0.0, 2.2410090000000005)",2
2025/07/05/17:48:28.553339,9689,1751712508,381147008,base_link,0,1,-7.287109,112.7961022,50.69564281356742,"(0.8445610000000001, 0.0, 0.0, 0.0, 0.8445610000000001, 0.0, 0.0, 0.0, 2.2290490000000003)",2
2025/07/05/17:48:28.633120,9690,1751712508,581147008,base_link,0,1,-7.2871066,112.7961029,50.63565109096052,"(0.8372250000000001, 0.0, 0.0, 0.0, 0.8372250000000001, 0.0, 0.0, 0.0, 2.2111690000000004)",2
2025/07/05/17:48:28.733345,9691,1751712508,581147008,base_link,0,1,-7.2871066,112.7961029,50.63565109096052,"(0.8372250000000001, 0.0, 0.0, 0.0, 0.8372250000000001, 0.0, 0.0, 0.0, 2.2111690000000004)",2
