time,.header.seq,.header.stamp.secs,.header.stamp.nsecs,.header.frame_id,.pose.position.x,.pose.position.y,.pose.position.z,.pose.orientation.x,.pose.orientation.y,.pose.orientation.z,.pose.orientation.w
2025/07/05/17:47:55.695107,5071,1751712475,701147008,map,-1.325070858001709,4.8225226402282715,-1.3460652828216553,0.06618809411529086,0.01842481451308354,-0.9105145961221028,0.4077288715018199
2025/07/05/17:47:55.795338,5072,1751712475,802147008,map,-1.3466895818710327,4.786755561828613,-1.351925253868103,0.06566875218254736,0.01961426291067451,-0.907973633171033,0.41338453907161643
2025/07/05/17:47:55.915930,5073,1751712475,921147008,map,-1.3712443113327026,4.739070415496826,-1.3603951930999756,0.06522083542692765,0.020469477706613066,-0.905389661227766,0.4190427238963863
2025/07/05/17:47:56.017141,5074,1751712476,22147008,map,-1.3935939073562622,4.701168537139893,-1.3676204681396484,0.06535721729792575,0.02050397361573393,-0.9021510541279575,0.42594776293443815
2025/07/05/17:47:56.115568,5075,1751712476,121147008,map,-1.4120594263076782,4.654131889343262,-1.3748996257781982,0.06549524966792329,0.020539493014149535,-0.8991760246426217,0.43217008018319547
2025/07/05/17:47:56.217473,5076,1751712476,222147008,map,-1.4327608346939087,4.610859394073486,-1.3797205686569214,0.065845888920196,0.020464541325102635,-0.8961869461762058,0.4382858416194031
2025/07/05/17:47:56.334657,5077,1751712476,340147008,map,-1.458876371383667,4.5511555671691895,-1.3854014873504639,0.06587985145266728,0.02053137861705278,-0.8931567598868487,0.4444201952354143
2025/07/05/17:47:56.515662,5078,1751712476,521147008,map,-1.5005340576171875,4.458000659942627,-1.390062689781189,0.06588219183696523,0.020648980000770704,-0.8888763651776448,0.45291496315783536
2025/07/05/17:47:56.637591,5079,1751712476,643147008,map,-1.5317939519882202,4.395191192626953,-1.3927432298660278,0.06559489774983118,0.021500234496501548,-0.8839312354841489,0.46249391373427895
2025/07/05/17:47:56.715574,5080,1751712476,721147008,map,-1.558353066444397,4.352671146392822,-1.394830346107483,0.06524338290481724,0.022337909994373305,-0.8808650819305215,0.4683172281688495
2025/07/05/17:47:56.795502,5081,1751712476,802147008,map,-1.5846610069274902,4.3127217292785645,-1.3961642980575562,0.06494008622578197,0.023019457826537207,-0.8783994253296559,0.4729348151097472
2025/07/05/17:47:56.895846,5082,1751712476,902147008,map,-1.6130834817886353,4.262497901916504,-1.3978943824768066,0.06447640279092105,0.02397709787237304,-0.8753494105979424,0.4785721488204224
2025/07/05/17:47:57.016418,5083,1751712477,22147008,map,-1.64651620388031,4.20613956451416,-1.3999087810516357,0.06413529808862933,0.02460608410178385,-0.871577853049193,0.4854206940772283
2025/07/05/17:47:57.095812,5084,1751712477,101147008,map,-1.6643210649490356,4.161354064941406,-1.401142954826355,0.0637980795463648,0.025214364541616654,-0.8688602261091075,0.49028149909270335
2025/07/05/17:47:57.195554,5085,1751712477,201147008,map,-1.6875394582748413,4.109076023101807,-1.3996776342391968,0.06388281001233681,0.02528520569883438,-0.8661682421707348,0.49500729410035393
2025/07/05/17:47:57.275643,5086,1751712477,281147008,map,-1.7042737007141113,4.061741828918457,-1.3988615274429321,0.06416916884463499,0.025035255634927985,-0.8625577487135878,0.5012481260605665
2025/07/05/17:47:57.354851,5087,1751712477,360147008,map,-1.7208354473114014,4.014890193939209,-1.400076150894165,0.06458624069180273,0.024750651197513455,-0.859687879832295,0.5061153742458857
2025/07/05/17:47:57.515791,5088,1751712477,521147008,map,-1.7520047426223755,3.925997495651245,-1.4017585515975952,0.06485264076140532,0.024420748135433143,-0.8552403472459791,0.513577365631854
2025/07/05/17:47:57.617700,5089,1751712477,624147008,map,-1.7716996669769287,3.8728275299072266,-1.3986530303955078,0.06426077228286703,0.025167141968035916,-0.8501334278641552,0.522025212933927
2025/07/05/17:47:57.715931,5090,1751712477,721147008,map,-1.7929152250289917,3.8189172744750977,-1.3915178775787354,0.06357065409744139,0.026105585731781886,-0.847253550188862,0.5267244934722455
2025/07/05/17:47:57.796576,5091,1751712477,802147008,map,-1.8100911378860474,3.778284788131714,-1.385698676109314,0.06324061353264313,0.02709974508394832,-0.8437691655522908,0.5322779573489691
2025/07/05/17:47:57.934303,5092,1751712477,940147008,map,-1.842738151550293,3.699497699737549,-1.3753888607025146,0.06302335135289784,0.02786343669342971,-0.840242514253797,0.5378142832989266
2025/07/05/17:47:58.018099,5093,1751712478,24147008,map,-1.8602350950241089,3.656193733215332,-1.3706302642822266,0.06317798418208384,0.028358250901890432,-0.8350684736665656,0.5457700946448663
2025/07/05/17:47:58.115561,5094,1751712478,121147008,map,-1.878656268119812,3.599715232849121,-1.3656580448150635,0.06310198748743148,0.028014892475895906,-0.8320759430394318,0.5503480080728376
2025/07/05/17:47:58.196129,5095,1751712478,202147008,map,-1.8941919803619385,3.5572519302368164,-1.3612697124481201,0.06324848592460401,0.02787375534994034,-0.8290416207532689,0.554898796042783
2025/07/05/17:47:58.315430,5096,1751712478,321147008,map,-1.9094332456588745,3.486579179763794,-1.3566641807556152,0.06306682941300387,0.02807721175502546,-0.8252226814638849,0.5605727171432893
2025/07/05/17:47:58.454469,5097,1751712478,460147008,map,-1.9274998903274536,3.4090380668640137,-1.3515511751174927,0.06254531017320913,0.028515820095023264,-0.821419188862631,0.5661673324626761
2025/07/05/17:47:58.574049,5098,1751712478,580147008,map,-1.9416176080703735,3.3423731327056885,-1.3478052616119385,0.06180629494715773,0.02999973704876774,-0.8150095709528147,0.5753602323216462
2025/07/05/17:47:58.654374,5099,1751712478,660147008,map,-1.9497950077056885,3.2981371879577637,-1.3456133604049683,0.06151896092066767,0.03041100081283676,-0.8122848824147637,0.5792096842053287
2025/07/05/17:47:58.754423,5100,1751712478,760147008,map,-1.9592554569244385,3.2433886528015137,-1.3436270952224731,0.06119752826951099,0.0307653813034678,-0.8088293911817812,0.5840405549338707
2025/07/05/17:47:58.854639,5101,1751712478,861147008,map,-1.9637174606323242,3.1908349990844727,-1.345105767250061,0.06122528218620631,0.031063113314556284,-0.8053987196725443,0.5887439597671071
2025/07/05/17:47:58.974598,5102,1751712478,980147008,map,-1.9625718593597412,3.130182981491089,-1.34931218624115,0.06153799303311396,0.03136198812351937,-0.8017281534324909,0.5936846546005083
2025/07/05/17:47:59.095718,5103,1751712479,101147008,map,-1.953948736190796,3.061897039413452,-1.3524391651153564,0.06131142269533767,0.03167078998435973,-0.7972076049868033,0.5997482013812506
2025/07/05/17:47:59.195513,5104,1751712479,201147008,map,-1.9495177268981934,3.007437229156494,-1.354547142982483,0.0608050230866762,0.03195636233470727,-0.7933454832656613,0.6048838601382385
2025/07/05/17:47:59.295491,5105,1751712479,302147008,map,-1.9422227144241333,2.9501595497131348,-1.3547945022583008,0.06002756706258235,0.03267385425957418,-0.7888879692806091,0.6107248827129022
2025/07/05/17:47:59.476033,5106,1751712479,481147008,map,-1.9328349828720093,2.8495774269104004,-1.3542289733886719,0.05912670865443794,0.033105003349131294,-0.7852847679530228,0.6154152454220764
2025/07/05/17:47:59.596263,5107,1751712479,602147008,map,-1.9285575151443481,2.7840049266815186,-1.3549150228500366,0.05854167997053214,0.03425629095744571,-0.778291137254185,0.6242293520074608
2025/07/05/17:47:59.695517,5108,1751712479,702147008,map,-1.923535704612732,2.7343459129333496,-1.358271837234497,0.05854764035267772,0.03451960756805895,-0.7746520561603267,0.6287247111328284
2025/07/05/17:47:59.796817,5109,1751712479,802147008,map,-1.919943928718567,2.687899112701416,-1.3597115278244019,0.05903154144839482,0.03483868669256606,-0.7708661010123938,0.6332985057093642
2025/07/05/17:47:59.934771,5110,1751712479,940147008,map,-1.9179246425628662,2.6168434619903564,-1.3681752681732178,0.05878377213950066,0.034893256311270666,-0.7670739908244195,0.6379062794782203
2025/07/05/17:48:00.018799,5111,1751712480,24147008,map,-1.9181350469589233,2.5792107582092285,-1.373034954071045,0.058644879397459056,0.035095487769450096,-0.7625383930425408,0.6433228458517397
2025/07/05/17:48:00.114764,5112,1751712480,121147008,map,-1.9202392101287842,2.5360372066497803,-1.3830209970474243,0.058262942079741975,0.03532118709316596,-0.7594919550892844,0.6469388019567222
2025/07/05/17:48:00.200240,5113,1751712480,202147008,map,-1.9218389987945557,2.5023319721221924,-1.3889988660812378,0.05769584428665758,0.03569380232085118,-0.7557702819167834,0.6513128457195938
2025/07/05/17:48:00.295830,5114,1751712480,301147008,map,-1.932894229888916,2.4659464359283447,-1.3973360061645508,0.057210681089435236,0.035819205117682766,-0.7527690139731519,0.6548150380954219
2025/07/05/17:48:00.375537,5115,1751712480,381147008,map,-1.9403842687606812,2.4370665550231934,-1.4015380144119263,0.05699009636869388,0.036285371168958316,-0.7489477311492356,0.659175846615628
2025/07/05/17:48:00.554543,5116,1751712480,560147008,map,-1.9676748514175415,2.3832273483276367,-1.4123684167861938,0.05685700320640416,0.03647264172469348,-0.7427295850737264,0.6661754956827961
2025/07/05/17:48:00.655185,5117,1751712480,660147008,map,-1.9833753108978271,2.349242687225342,-1.41861093044281,0.056695111313501176,0.03657838282369217,-0.7380509430688479,0.6713631593246219
2025/07/05/17:48:00.734856,5118,1751712480,740147008,map,-1.9950133562088013,2.320291042327881,-1.4225302934646606,0.05648118511314053,0.036728044718068016,-0.7349067407668968,0.6748133140615856
2025/07/05/17:48:00.818612,5119,1751712480,824147008,map,-2.0066967010498047,2.2888851165771484,-1.426115870475769,0.056138381868111695,0.037036699115335525,-0.7316515706774119,0.6783529642635509
2025/07/05/17:48:00.916236,5120,1751712480,921147008,map,-2.024005174636841,2.241694450378418,-1.431816577911377,0.05571657560626747,0.037509812966568405,-0.7283871892682218,0.6818656609947915
2025/07/05/17:48:00.996733,5121,1751712481,2147008,map,-2.035398483276367,2.206001043319702,-1.4349045753479004,0.05582545817911893,0.03816992037120888,-0.7242627589466266,0.6861997022740302
2025/07/05/17:48:01.116203,5122,1751712481,121147008,map,-2.0510003566741943,2.1512975692749023,-1.4394439458847046,0.05550020497531043,0.038086786008462596,-0.7201743335041556,0.6905201324661645
2025/07/05/17:48:01.196027,5123,1751712481,202147008,map,-2.05928635597229,2.1167705059051514,-1.4407261610031128,0.0560421103670312,0.038123286860132936,-0.7162382704226764,0.6945564317220901
2025/07/05/17:48:01.295513,5124,1751712481,302147008,map,-2.0714499950408936,2.0698580741882324,-1.443632960319519,0.05614300922622395,0.03766404119875622,-0.7123240467689385,0.6985870274420546
2025/07/05/17:48:01.454591,5125,1751712481,461147008,map,-2.085728168487549,1.9966411590576172,-1.4448497295379639,0.05616309205110867,0.037933923792632995,-0.7083850857065432,0.7025647976275832
2025/07/05/17:48:01.596845,5126,1751712481,602147008,map,-2.0929996967315674,1.9282162189483643,-1.4455900192260742,-0.05456719998956869,-0.03914215610933272,0.7002146854331591,-0.7107669847454603
2025/07/05/17:48:01.695722,5127,1751712481,702147008,map,-2.095137119293213,1.8718905448913574,-1.4432674646377563,-0.053645235390665354,-0.04014690951501679,0.6961787263487452,-0.7147346328223587
2025/07/05/17:48:01.796380,5128,1751712481,802147008,map,-2.096510410308838,1.8209702968597412,-1.4421454668045044,-0.05308899111937104,-0.040960172156417514,0.6921582653314369,-0.7186242126815797
2025/07/05/17:48:01.915484,5129,1751712481,922147008,map,-2.0975608825683594,1.7583166360855103,-1.4448490142822266,-0.05311203568583759,-0.04137153292430231,0.6880655468832005,-0.7225187271767575
2025/07/05/17:48:02.018602,5130,1751712482,24147008,map,-2.0993244647979736,1.7090117931365967,-1.4462809562683105,-0.0538403425718808,-0.040949618339964605,0.6831751906677553,-0.7271148500241416
2025/07/05/17:48:02.095572,5131,1751712482,102147008,map,-2.1044929027557373,1.6671594381332397,-1.4471564292907715,-0.05429409177487216,-0.04050315882343527,0.6798804281856461,-0.7301878176837573
2025/07/05/17:48:02.196001,5132,1751712482,202147008,map,-2.109914779663086,1.618929386138916,-1.446865439414978,-0.05489894908550966,-0.04047935785038782,0.6756580667176856,-0.734052929874029
2025/07/05/17:48:02.295725,5133,1751712482,302147008,map,-2.112536668777466,1.5624024868011475,-1.4496568441390991,-0.05411271041801643,-0.0405754261418981,0.671477436983609,-0.73793190809623
2025/07/05/17:48:02.475070,5134,1751712482,480147008,map,-2.108837842941284,1.462932825088501,-1.4526777267456055,-0.05337142130920302,-0.04176850567951068,0.6672517865912418,-0.7417425002057871
2025/07/05/17:48:02.596263,5135,1751712482,602147008,map,-2.100994825363159,1.3983063697814941,-1.4513278007507324,-0.05167465698054836,-0.04291944436169586,0.6589097428075021,-0.7492166588877861
2025/07/05/17:48:02.714506,5136,1751712482,720147008,map,-2.0984463691711426,1.333406686782837,-1.4488252401351929,-0.051728515036360924,-0.043106097373162545,0.6547180318526603,-0.7528680653795639
2025/07/05/17:48:02.796904,5137,1751712482,802147008,map,-2.0962891578674316,1.2940629720687866,-1.4474244117736816,-0.05210520900636538,-0.04333813673850382,0.6504954718232485,-0.7564803330132827
2025/07/05/17:48:02.895497,5138,1751712482,902147008,map,-2.08920955657959,1.2345871925354004,-1.4476561546325684,-0.05217260827570264,-0.043338050561203316,0.6463024637109314,-0.7600611539346324
2025/07/05/17:48:03.018020,5139,1751712483,24147008,map,-2.082120418548584,1.1696852445602417,-1.4472651481628418,-0.051775798031751745,-0.043844251310748594,0.6412185199533916,-0.764353163160824
2025/07/05/17:48:03.115580,5140,1751712483,121147008,map,-2.0803356170654297,1.1168712377548218,-1.4451364278793335,-0.05135418586723481,-0.04427576885302408,0.6378185718911461,-0.7671961113282091
2025/07/05/17:48:03.196668,5141,1751712483,202147008,map,-2.078143835067749,1.0778099298477173,-1.4433493614196777,-0.05080202538463122,-0.04456207391123658,0.6336469727460272,-0.7706652254483423
2025/07/05/17:48:03.295793,5142,1751712483,302147008,map,-2.078230381011963,1.0195298194885254,-1.440882682800293,-0.05066047037369683,-0.04497110154182406,0.6293252238025806,-0.7741840087818028
2025/07/05/17:48:03.434980,5143,1751712483,441147008,map,-2.0769870281219482,0.9456362128257751,-1.4363564252853394,-0.05011913753332535,-0.045022574647961354,0.6249267646329258,-0.7777709037180602
2025/07/05/17:48:03.574617,5144,1751712483,581147008,map,-2.075528383255005,0.8777614831924438,-1.434133768081665,-0.05063580755828982,-0.04535751988006748,0.6170672391339851,-0.7839685789435763
2025/07/05/17:48:03.676656,5145,1751712483,681147008,map,-2.0780065059661865,0.8301014304161072,-1.4341583251953125,-0.05053657994383674,-0.045800400134322086,0.6126631276447397,-0.7873958784878681
2025/07/05/17:48:03.796892,5146,1751712483,802147008,map,-2.0797207355499268,0.7761008739471436,-1.4333467483520508,-0.04990569367936502,-0.04619655400744544,0.6082479234211143,-0.7908285299545792
2025/07/05/17:48:03.895523,5147,1751712483,901147008,map,-2.07949161529541,0.7275501489639282,-1.4308847188949585,-0.049217301539174564,-0.04692166233851624,0.6038205459777167,-0.7942145573381063
2025/07/05/17:48:03.996432,5148,1751712484,2147008,map,-2.077425003051758,0.6816121339797974,-1.4286351203918457,-0.04861984033328458,-0.047148828510293526,0.5984277943665232,-0.7983090091096876
2025/07/05/17:48:04.114781,5149,1751712484,121147008,map,-2.0734522342681885,0.6351797580718994,-1.4252828359603882,-0.04853901920734788,-0.0467890191894025,0.5938683594596245,-0.8017325756949238
2025/07/05/17:48:04.196342,5150,1751712484,202147008,map,-2.0697784423828125,0.6034274101257324,-1.4241210222244263,-0.0482149761832129,-0.046675824822753634,0.5889507448401322,-0.805377988028616
2025/07/05/17:48:04.295707,5151,1751712484,302147008,map,-2.063584566116333,0.5545625686645508,-1.4192546606063843,-0.047174494399556295,-0.046641782564317294,0.5835117721879184,-0.8093905873652621
2025/07/05/17:48:04.454565,5152,1751712484,460147008,map,-2.043750524520874,0.4724820852279663,-1.4160606861114502,-0.046189851355874376,-0.04740413177418735,0.5776751748718981,-0.8135789686681802
2025/07/05/17:48:04.598934,5153,1751712484,602147008,map,-2.0163238048553467,0.39572179317474365,-1.4149199724197388,-0.04552053085604908,-0.04866672242728383,0.5651348244362963,-0.8223029013740166
2025/07/05/17:48:04.716180,5154,1751712484,721147008,map,-1.9975234270095825,0.3283328711986542,-1.4146034717559814,-0.045906717958027,-0.04894692777745106,0.5584527175184784,-0.8268175940337129
2025/07/05/17:48:04.796062,5155,1751712484,802147008,map,-1.9848480224609375,0.28449657559394836,-1.4148176908493042,-0.0466465582824213,-0.04900535573768443,0.551576116829529,-0.8313761850406142
2025/07/05/17:48:04.934362,5156,1751712484,940147008,map,-1.9721312522888184,0.21605899930000305,-1.4132881164550781,-0.04683941468577574,-0.04909731549060258,0.5444989150004323,-0.8360122334074198
2025/07/05/17:48:05.018321,5157,1751712485,24147008,map,-1.9625701904296875,0.1777169406414032,-1.411467432975769,-0.045698777805343836,-0.04940514603760228,0.5357506759874742,-0.8416899467328008
2025/07/05/17:48:05.115340,5158,1751712485,121147008,map,-1.947365164756775,0.13389810919761658,-1.4094436168670654,-0.04476048846433457,-0.04988498580605789,0.5297848275349439,-0.8454797592948833
2025/07/05/17:48:05.196506,5159,1751712485,202147008,map,-1.934125542640686,0.0978788435459137,-1.4078998565673828,-0.04375205527815098,-0.05031500956848791,0.522181625263721,-0.8502237986012856
2025/07/05/17:48:05.295630,5160,1751712485,302147008,map,-1.9250251054763794,0.054134249687194824,-1.404233455657959,-0.04324231362995887,-0.05050783988462482,0.5146359065179538,-0.8548268503881715
2025/07/05/17:48:05.474748,5161,1751712485,481147008,map,-1.9050869941711426,-0.025849521160125732,-1.3990452289581299,-0.04313955281285657,-0.0508379055174301,0.5068480590663749,-0.8594530419786508
2025/07/05/17:48:05.596262,5162,1751712485,602147008,map,-1.8896487951278687,-0.07894609868526459,-1.3928956985473633,-0.04266028301251858,-0.05147953589378838,0.4915822712021297,-0.8682608065997264
2025/07/05/17:48:05.714867,5163,1751712485,721147008,map,-1.8682371377944946,-0.13612128794193268,-1.3881027698516846,-0.04206811212984632,-0.051717904589133626,0.48361959519470843,-0.8727357099548787
2025/07/05/17:48:05.796733,5164,1751712485,802147008,map,-1.8521815538406372,-0.17449237406253815,-1.3849315643310547,-0.04218621989561011,-0.05171528013657915,0.4757653299535905,-0.8770366032643481
2025/07/05/17:48:05.934825,5165,1751712485,940147008,map,-1.82188081741333,-0.2503023147583008,-1.3809860944747925,-0.04206247369870902,-0.052031568224869276,0.46776612407195695,-0.8813162414168394
2025/07/05/17:48:06.018082,5166,1751712486,24147008,map,-1.7993083000183105,-0.2927238941192627,-1.3787702322006226,-0.043997924900812245,-0.05127916345803175,0.45890128287767906,-0.8859143539714701
2025/07/05/17:48:06.114813,5167,1751712486,121147008,map,-1.7633079290390015,-0.34641218185424805,-1.3733969926834106,-0.052234692274922036,-0.047907518070831635,0.45917141316380305,-0.8855156802498717
2025/07/05/17:48:06.217642,5168,1751712486,224147008,map,-1.7252562046051025,-0.39581388235092163,-1.3689861297607422,-0.0600496395870441,-0.04474301939436011,0.46288065749797236,-0.8832517194521541
2025/07/05/17:48:06.295893,5169,1751712486,302147008,map,-1.697176456451416,-0.4306623339653015,-1.367287039756775,-0.06243960274174456,-0.04415917608650782,0.4690776326732193,-0.8798394385923503
2025/07/05/17:48:06.434166,5170,1751712486,440147008,map,-1.650325059890747,-0.4924073815345764,-1.3657609224319458,-0.05907231256062445,-0.04603657639891943,0.47941362048205727,-0.8743876005630984
2025/07/05/17:48:06.595298,5171,1751712486,602147008,map,-1.6125221252441406,-0.5697467923164368,-1.3665297031402588,-0.036488326803550644,-0.05584443664878788,0.4947882838416232,-0.8664493955653254
2025/07/05/17:48:06.675546,5172,1751712486,681147008,map,-1.5960373878479004,-0.6121025085449219,-1.3659030199050903,-0.020722215035408158,-0.0635517178213841,0.49483970623831924,-0.8664095071592598
2025/07/05/17:48:06.754477,5173,1751712486,760147008,map,-1.5786068439483643,-0.6531245112419128,-1.3639253377914429,-0.015971412200584085,-0.06622619190227208,0.4914804887135785,-0.8682199805995623
2025/07/05/17:48:06.833944,5174,1751712486,841147008,map,-1.560408115386963,-0.6942734122276306,-1.3607903718948364,-0.023262019433168406,-0.06304803420640262,0.48468749284234425,-0.8721019769022438
2025/07/05/17:48:06.954611,5175,1751712486,960147008,map,-1.5317851305007935,-0.7557624578475952,-1.3577992916107178,-0.0342886368281233,-0.057564023725101,0.47758132008129295,-0.8760289694219334
2025/07/05/17:48:07.019553,5176,1751712487,24147008,map,-1.516870379447937,-0.7846713662147522,-1.3570988178253174,-0.04645227488647033,-0.05099531646050395,0.46739332834720504,-0.8813541515608164
2025/07/05/17:48:07.115742,5177,1751712487,121147008,map,-1.4912831783294678,-0.8277588486671448,-1.3575170040130615,-0.05072544337038985,-0.04833241908327713,0.45930356899647395,-0.8855117944824548
2025/07/05/17:48:07.217714,5178,1751712487,224147008,map,-1.4647291898727417,-0.8721336722373962,-1.3581968545913696,-0.048556041210374594,-0.048933093126678665,0.44946400971088085,-0.8906345868164167
2025/07/05/17:48:07.295396,5179,1751712487,302147008,map,-1.442680835723877,-0.9082491397857666,-1.3582415580749512,-0.043441249825158845,-0.05151145300406441,0.4419501808479409,-0.8945051512828254
2025/07/05/17:48:07.454410,5180,1751712487,460147008,map,-1.3901731967926025,-0.9815036058425903,-1.359849452972412,-0.036770836870260976,-0.055140008677325,0.432896722541776,-0.8990038446032995
2025/07/05/17:48:07.575035,5181,1751712487,581147008,map,-1.3435084819793701,-1.036843180656433,-1.362891674041748,-0.032222527226630444,-0.05768138312854372,0.41617730128856956,-0.9068798270287362
2025/07/05/17:48:07.674664,5182,1751712487,681147008,map,-1.305370569229126,-1.0804424285888672,-1.3608227968215942,-0.03392177305639559,-0.05703978406634315,0.4064677020194077,-0.9112517673845343
2025/07/05/17:48:07.795617,5183,1751712487,802147008,map,-1.259155511856079,-1.1316349506378174,-1.3581832647323608,-0.036439087998508965,-0.056111568022625534,0.3966609872217039,-0.9155237550256041
2025/07/05/17:48:07.874753,5184,1751712487,881147008,map,-1.2298967838287354,-1.1608630418777466,-1.3563599586486816,-0.037835357849957896,-0.05581649673614631,0.38685045935463913,-0.9196737065316014
2025/07/05/17:48:07.996097,5185,1751712488,2147008,map,-1.1844145059585571,-1.2062315940856934,-1.3564633131027222,-0.03687148182570059,-0.05648644072859315,0.3749701363866894,-0.9245794571911814
2025/07/05/17:48:08.094926,5186,1751712488,102147008,map,-1.1436845064163208,-1.253769040107727,-1.3615944385528564,-0.03482335208257814,-0.057536641289441116,0.3652396764736001,-0.9284809356084396
2025/07/05/17:48:08.196710,5187,1751712488,202147008,map,-1.1014037132263184,-1.2999151945114136,-1.3657114505767822,-0.03289764597765316,-0.05855844956437386,0.35574267158438094,-0.9321672620767976
2025/07/05/17:48:08.295593,5188,1751712488,302147008,map,-1.0527896881103516,-1.3516278266906738,-1.364350438117981,-0.03211716502802251,-0.059007063133846384,0.34650754521782534,-0.9356383784978028
2025/07/05/17:48:08.474909,5189,1751712488,480147008,map,-0.9589434266090393,-1.4263948202133179,-1.3616384267807007,-0.03248268369938195,-0.05890312857435937,0.3377255850352094,-0.9388379657408747
2025/07/05/17:48:08.596096,5190,1751712488,602147008,map,-0.8907304406166077,-1.461754322052002,-1.3597755432128906,-0.05785689923493826,-0.05208105527073798,0.3402769759886682,-0.9370974989321078
2025/07/05/17:48:08.715739,5191,1751712488,721147008,map,-0.8161531686782837,-1.5052391290664673,-1.361449122428894,-0.06113247321406222,-0.051644315999922835,0.3487855372179792,-0.9337795962491351
2025/07/05/17:48:08.796520,5192,1751712488,802147008,map,-0.7679949998855591,-1.5339853763580322,-1.3617570400238037,-0.05164906812788065,-0.05487486268867098,0.35951250810206864,-0.9300924038634983
2025/07/05/17:48:08.895743,5193,1751712488,901147008,map,-0.715354323387146,-1.5676301717758179,-1.360107183456421,-0.03657513355114729,-0.05930606159660754,0.36621817424408826,-0.9279166447030368
2025/07/05/17:48:08.995490,5194,1751712489,2147008,map,-0.6677365899085999,-1.605475664138794,-1.3589986562728882,-0.01450212486046218,-0.06627005291377436,0.36857782030967057,-0.9271183089752404
2025/07/05/17:48:09.074957,5195,1751712489,81147008,map,-0.6388949751853943,-1.6227036714553833,-1.3570224046707153,-0.002149994538565353,-0.07045370441980235,0.3648024702411025,-0.9284130604224614
2025/07/05/17:48:09.195852,5196,1751712489,202147008,map,-0.5930067896842957,-1.652091383934021,-1.3537321090698242,-0.008246963150925655,-0.06802988365990847,0.3575183010310431,-0.9313885263174992
2025/07/05/17:48:09.295350,5197,1751712489,301147008,map,-0.5516074895858765,-1.6873003244400024,-1.3538484573364258,-0.02454189409778564,-0.062000888961706795,0.3473476318999975,-0.935362607663742
2025/07/05/17:48:09.374714,5198,1751712489,381147008,map,-0.5162876844406128,-1.717724084854126,-1.355567455291748,-0.03886012216761342,-0.05617434122605921,0.3355604804318763,-0.9395389817699236
2025/07/05/17:48:09.534584,5199,1751712489,540147008,map,-0.4424087405204773,-1.777091145515442,-1.354300856590271,-0.040820332106509545,-0.05407555484352952,0.31628750535181804,-0.9462408513763303
2025/07/05/17:48:09.618127,5200,1751712489,624147008,map,-0.4007195830345154,-1.8085155487060547,-1.3533210754394531,-0.032088006766657046,-0.05677768078093635,0.3045635536129871,-0.9502566477523376
2025/07/05/17:48:09.715560,5201,1751712489,721147008,map,-0.3418726921081543,-1.8480594158172607,-1.3498698472976685,-0.024952280487120653,-0.059310357349892644,0.2953858610150611,-0.9532087170824188
2025/07/05/17:48:09.818561,5202,1751712489,824147008,map,-0.2790997326374054,-1.8898953199386597,-1.3486744165420532,-0.019141846998243246,-0.06138986332676827,0.28300336913332963,-0.9569607972291242
2025/07/05/17:48:09.916702,5203,1751712489,921147008,map,-0.21130788326263428,-1.9369697570800781,-1.3528389930725098,-0.018438304840516697,-0.06168686437056013,0.2725918140939721,-0.9599731572120617
2025/07/05/17:48:09.995583,5204,1751712490,2147008,map,-0.15520572662353516,-1.97393798828125,-1.3554784059524536,-0.02092990022720436,-0.06115105080942408,0.2588104608569521,-0.9637632663742661
2025/07/05/17:48:10.095116,5205,1751712490,102147008,map,-0.08132436871528625,-1.997678279876709,-1.3574299812316895,-0.02537327767296074,-0.059801364118268724,0.24487658454562833,-0.9673755485699402
2025/07/05/17:48:10.195962,5206,1751712490,202147008,map,-0.0024136900901794434,-2.0191633701324463,-1.3572899103164673,-0.03365930367815153,-0.057749003464913996,0.23475288089585283,-0.9697541898779342
2025/07/05/17:48:10.295470,5207,1751712490,301147008,map,0.08765190839767456,-2.0399646759033203,-1.354830265045166,-0.04626715246737552,-0.05573259715476524,0.23083734893393165,-0.970292402605575
2025/07/05/17:48:10.454388,5208,1751712490,460147008,map,0.23828750848770142,-2.0631017684936523,-1.3522862195968628,-0.04798881452451451,-0.05587486552382109,0.22859339638140314,-0.9707317509044614
2025/07/05/17:48:10.575224,5209,1751712490,580147008,map,0.3580070436000824,-2.070636749267578,-1.3535101413726807,-0.03507757152928763,-0.058718236446613795,0.22884150595677477,-0.9710578241462464
2025/07/05/17:48:10.654357,5210,1751712490,660147008,map,0.4444424510002136,-2.084087610244751,-1.355278730392456,-0.026815379354788824,-0.06045473580973629,0.2296236758089747,-0.9710299314934678
2025/07/05/17:48:10.755860,5211,1751712490,760147008,map,0.5547018647193909,-2.1033637523651123,-1.3542900085449219,-0.0250241063645635,-0.06075045791846043,0.23074301508348388,-0.9707939209500311
2025/07/05/17:48:10.854161,5212,1751712490,860147008,map,0.6592034697532654,-2.1207001209259033,-1.3555089235305786,-0.03149674190601917,-0.059160708223883404,0.23443203815386654,-0.9698193570654167
2025/07/05/17:48:10.954750,5213,1751712490,960147008,map,0.7638900279998779,-2.1354146003723145,-1.353759527206421,-0.04165944409769007,-0.05708765271494742,0.2410828507343693,-0.9679279672097292
2025/07/05/17:48:11.054815,5214,1751712491,60147008,map,0.8678091764450073,-2.151766061782837,-1.3541510105133057,-0.055922388395469425,-0.05404895886147053,0.25719695251659325,-0.9632243373889151
2025/07/05/17:48:11.136253,5215,1751712491,140147008,map,0.9501959681510925,-2.1678102016448975,-1.3561702966690063,-0.057085751166318956,-0.05372989421666087,0.2702278713107816,-0.9595995065901645
2025/07/05/17:48:11.218085,5216,1751712491,224147008,map,1.0335867404937744,-2.185710906982422,-1.359799861907959,-0.048641178218177296,-0.05445703651682849,0.2879743724293382,-0.9548503693141042
2025/07/05/17:48:11.316435,5217,1751712491,321147008,map,1.1370688676834106,-2.2180378437042236,-1.3640090227127075,-0.0360769510425512,-0.056328270160260666,0.30071018760132184,-0.9513668917179133
2025/07/05/17:48:11.474725,5218,1751712491,481147008,map,1.2809431552886963,-2.271669387817383,-1.3652372360229492,-0.019848248057789793,-0.06002652868790783,0.30943559706374824,-0.9488163542922929
2025/07/05/17:48:11.595507,5219,1751712491,602147008,map,1.3772999048233032,-2.3101110458374023,-1.3635555505752563,0.011299024976076743,-0.07124399675975195,0.3091932862492758,-0.9482595302440466
2025/07/05/17:48:11.675128,5220,1751712491,681147008,map,1.441264271736145,-2.3430323600769043,-1.363118052482605,0.006605101986612699,-0.07115047931178528,0.3032590903058878,-0.9502251870311034
2025/07/05/17:48:11.774912,5221,1751712491,780147008,map,1.5231153964996338,-2.38529634475708,-1.3617777824401855,-0.007217721831864647,-0.06743100572956358,0.2918073282212535,-0.9540699382929069
2025/07/05/17:48:11.854316,5222,1751712491,860147008,map,1.5910018682479858,-2.4249513149261475,-1.3587279319763184,-0.018554916084136314,-0.06383336554832007,0.2806805733311903,-0.9574964398296004
2025/07/05/17:48:11.956201,5223,1751712491,960147008,map,1.6797513961791992,-2.4736080169677734,-1.3552536964416504,-0.028460692053040686,-0.060262240644455276,0.26680988501690495,-0.9614421129832196
2025/07/05/17:48:12.054315,5224,1751712492,60147008,map,1.7759897708892822,-2.5194807052612305,-1.351296067237854,-0.03456327861943472,-0.05843914800560402,0.2565065389640452,-0.9641548844558852
2025/07/05/17:48:12.134285,5225,1751712492,140147008,map,1.8592338562011719,-2.5487964153289795,-1.3480297327041626,-0.04327792049648355,-0.05685371916342496,0.25447800235000034,-0.9644353905445091
2025/07/05/17:48:12.217857,5226,1751712492,224147008,map,1.9437564611434937,-2.573446273803711,-1.3442970514297485,-0.05639342222045361,-0.0547091742400103,0.259892680207439,-0.9624357032855937
2025/07/05/17:48:12.316775,5227,1751712492,321147008,map,2.048463821411133,-2.596606969833374,-1.3386355638504028,-0.06121064846322303,-0.05398001983316789,0.26849987888684923,-0.9598162475241132
2025/07/05/17:48:12.495457,5228,1751712492,501147008,map,2.237696647644043,-2.6327595710754395,-1.329336166381836,-0.05739751578492114,-0.054656408083866084,0.282654240833997,-0.9559418300166839
2025/07/05/17:48:12.574287,5229,1751712492,581147008,map,2.3196489810943604,-2.648986339569092,-1.3250486850738525,-0.03746442087635755,-0.057028385810554715,0.3081531172399453,-0.9488866300647016
2025/07/05/17:48:12.674905,5230,1751712492,681147008,map,2.4223098754882812,-2.677791118621826,-1.3230063915252686,-0.020989510910521668,-0.05961390842022036,0.3190940967976822,-0.9456133352187215
2025/07/05/17:48:12.754320,5231,1751712492,761147008,map,2.4989705085754395,-2.7088568210601807,-1.3203139305114746,-0.004108178308816647,-0.06407469049668967,0.3206534113892751,-0.9450179610320413
2025/07/05/17:48:12.854479,5232,1751712492,860147008,map,2.5815014839172363,-2.7523577213287354,-1.3158798217773438,0.013628620327606094,-0.07050308427093561,0.31332039578605386,-0.9469286696476782
2025/07/05/17:48:12.954206,5233,1751712492,961147008,map,2.659099578857422,-2.7968556880950928,-1.3117313385009766,0.014531640508162663,-0.0721410255048676,0.30385908748913054,-0.9498706010891803
2025/07/05/17:48:13.054448,5234,1751712493,60147008,map,2.7350709438323975,-2.835242509841919,-1.3054994344711304,-0.003737370142994166,-0.06848999745269406,0.2861004727430503,-0.955741425182328
2025/07/05/17:48:13.134775,5235,1751712493,140147008,map,2.7961933612823486,-2.863945245742798,-1.2987980842590332,-0.018930818445036492,-0.0639758752687189,0.27254494634219173,-0.9598270488582483
2025/07/05/17:48:13.218811,5236,1751712493,223147008,map,2.8598029613494873,-2.8942930698394775,-1.2914223670959473,-0.029715769177933452,-0.0601315797413588,0.2584027173962941,-0.9637059727023503
2025/07/05/17:48:13.295471,5237,1751712493,301147008,map,2.926725149154663,-2.925265073776245,-1.2819617986679077,-0.03323136109409628,-0.058356484864212556,0.24438452398097021,-0.9673501960266102
2025/07/05/17:48:13.454658,5238,1751712493,460147008,map,3.0705440044403076,-2.9899449348449707,-1.2642650604248047,-0.02890875720352512,-0.05850224804142219,0.22706938942367177,-0.9716899006976499
2025/07/05/17:48:13.595622,5239,1751712493,602147008,map,3.2083215713500977,-3.047213315963745,-1.2509422302246094,-0.01463595812394143,-0.0613947309568377,0.19246461933032566,-0.9792721001062803
2025/07/05/17:48:13.695269,5240,1751712493,702147008,map,3.318272113800049,-3.0874183177948,-1.2445546388626099,-0.013166962644106132,-0.061826516108610424,0.17384794296080502,-0.9827415762696199
2025/07/05/17:48:13.795825,5241,1751712493,802147008,map,3.4307994842529297,-3.1246771812438965,-1.2400202751159668,-0.01691725206966152,-0.06098989397441198,0.1545881136618774,-0.9859495699729597
2025/07/05/17:48:13.914859,5242,1751712493,921147008,map,3.5766472816467285,-3.164269208908081,-1.229768991470337,-0.02492306237303199,-0.05935146826268518,0.1371095809316979,-0.988462041250825
2025/07/05/17:48:13.996302,5243,1751712494,2147008,map,3.6753933429718018,-3.1840641498565674,-1.2243328094482422,-0.03538979151496304,-0.05806568248650252,0.12335854432407611,-0.990029599919189
2025/07/05/17:48:14.114843,5244,1751712494,121147008,map,3.832068920135498,-3.2214713096618652,-1.2120850086212158,-0.047023051344821994,-0.05738351124897418,0.11611079215823139,-0.9904616344025392
2025/07/05/17:48:14.196742,5245,1751712494,202147008,map,3.9364099502563477,-3.2420692443847656,-1.2057453393936157,-0.04985513834869471,-0.05830670279000843,0.11243754360061947,-0.9906929859341131
2025/07/05/17:48:14.294351,5246,1751712494,301147008,map,4.079043388366699,-3.258577346801758,-1.1994972229003906,-0.045359516007495354,-0.05915359405769952,0.11164007495319267,-0.9909489695650671
2025/07/05/17:48:14.417771,5247,1751712494,424147008,map,4.250248908996582,-3.2705864906311035,-1.1941637992858887,-0.03675351493321025,-0.0601352122966241,0.1133817272347224,-0.9910486967406622
2025/07/05/17:48:14.534666,5248,1751712494,541147008,map,4.425625801086426,-3.2651140689849854,-1.1897050142288208,-0.036450769830889164,-0.05992071270892189,0.12423337246422855,-0.9897711446255415
2025/07/05/17:48:14.617645,5249,1751712494,624147008,map,4.54216194152832,-3.258486747741699,-1.186587929725647,-0.05076643116574276,-0.05896673825289672,0.14380751202628456,-0.9865419873129162
2025/07/05/17:48:14.714722,5250,1751712494,721147008,map,4.688652515411377,-3.2500364780426025,-1.185787320137024,-0.056204915937244034,-0.05781819271167659,0.15891696211198852,-0.9839936296384948
2025/07/05/17:48:14.817668,5251,1751712494,824147008,map,4.8320512771606445,-3.2521674633026123,-1.1869386434555054,-0.048220620721955404,-0.0567927899536047,0.17580731243098635,-0.9816013139978312
2025/07/05/17:48:14.895784,5252,1751712494,902147008,map,4.943857669830322,-3.2632522583007812,-1.188403844833374,-0.028903041311130043,-0.057784888394465356,0.18503688252975048,-0.9806053604686633
2025/07/05/17:48:15.017721,5253,1751712495,24147008,map,5.102424144744873,-3.298393487930298,-1.1885128021240234,0.015673022980616236,-0.06292773772211041,0.18494738156928342,-0.9806064053566511
2025/07/05/17:48:15.095400,5254,1751712495,102147008,map,5.205820083618164,-3.332575559616089,-1.1873362064361572,0.03734082999446035,-0.06665642242555798,0.17716607678772361,-0.9812108667357882
2025/07/05/17:48:15.195738,5255,1751712495,202147008,map,5.334507942199707,-3.3742423057556152,-1.1862801313400269,0.0399342623423427,-0.06857259682413874,0.16179304674103573,-0.9836290274703263
2025/07/05/17:48:15.295270,5256,1751712495,302147008,map,5.472890377044678,-3.421755075454712,-1.1844371557235718,0.019615994757719534,-0.06702626240605214,0.14223787781498615,-0.9873657270800063
2025/07/05/17:48:15.434628,5257,1751712495,441147008,map,5.668943405151367,-3.4654200077056885,-1.181525468826294,-0.010640729369196857,-0.06282640214785253,0.12243568265607008,-0.9904287564909401
2025/07/05/17:48:15.595506,5258,1751712495,602147008,map,5.896117687225342,-3.471719264984131,-1.1689847707748413,-0.07242360093943137,-0.055890782699816295,0.11406924301241156,-0.9892518639025876
2025/07/05/17:48:15.674167,5259,1751712495,681147008,map,6.014108657836914,-3.4794201850891113,-1.1609649658203125,-0.08078228012599073,-0.05639182266917641,0.12303038101125763,-0.9875007396968971
2025/07/05/17:48:15.754887,5260,1751712495,761147008,map,6.131752967834473,-3.4855432510375977,-1.1543909311294556,-0.06771119790744821,-0.0581958670150509,0.13369829212056789,-0.9869919966364207
2025/07/05/17:48:15.853808,5261,1751712495,860147008,map,6.282711982727051,-3.4961202144622803,-1.1466186046600342,-0.04596425785828225,-0.060284084933371486,0.15215353014986133,-0.9854452898899151
2025/07/05/17:48:15.954590,5262,1751712495,960147008,map,6.434931755065918,-3.509758949279785,-1.1380739212036133,-0.03136443176281985,-0.0604620839747437,0.16843937295342215,-0.9833558798627708
2025/07/05/17:48:16.033573,5263,1751712496,40147008,map,6.554235458374023,-3.520308017730713,-1.1298744678497314,-0.021599188239771607,-0.058766445645957205,0.18832554070741647,-0.9801089075458824
2025/07/05/17:48:16.114627,5264,1751712496,121147008,map,6.671195983886719,-3.531712532043457,-1.1203323602676392,-0.02306619167320814,-0.057002580069977854,0.20435145723275788,-0.9769642463232259
2025/07/05/17:48:16.217701,5265,1751712496,224147008,map,6.815987586975098,-3.5507845878601074,-1.1101195812225342,-0.02794056586718416,-0.055133177977119835,0.22313320328974207,-0.9728264136292883
2025/07/05/17:48:16.314877,5266,1751712496,321147008,map,6.958801746368408,-3.5797817707061768,-1.1017340421676636,-0.03089723946440685,-0.05454674108520197,0.23720309397795036,-0.9694352509774702
2025/07/05/17:48:16.454724,5267,1751712496,460147008,map,7.14923620223999,-3.636056423187256,-1.0921499729156494,-0.028327312847717254,-0.055124241787358946,0.25257010171065636,-0.9655916450736642
2025/07/05/17:48:16.553744,5268,1751712496,560147008,map,7.275790214538574,-3.695185422897339,-1.0840085744857788,0.0009352765732344483,-0.06151109412071491,0.25949261016136554,-0.9637837391393599
2025/07/05/17:48:16.618037,5269,1751712496,624147008,map,7.350059509277344,-3.7317938804626465,-1.077252745628357,0.031866336046858956,-0.0694351556397507,0.24959729697515987,-0.9653312825817499
2025/07/05/17:48:16.714709,5270,1751712496,721147008,map,7.473656177520752,-3.790015459060669,-1.0653760433197021,0.04201446601433406,-0.07382814258454662,0.23766472774689967,-0.9676257888218142
2025/07/05/17:48:16.817653,5271,1751712496,824147008,map,7.6005682945251465,-3.845144510269165,-1.0584734678268433,0.03015917581224182,-0.07223065876863195,0.21966446467572415,-0.9724302951918473
2025/07/05/17:48:16.914829,5272,1751712496,921147008,map,7.732257843017578,-3.8883421421051025,-1.0536197423934937,0.0015068309115505484,-0.06576616061038588,0.2077667016212591,-0.9759639026503979
2025/07/05/17:48:17.017545,5273,1751712497,24147008,map,7.8675618171691895,-3.9281914234161377,-1.0497806072235107,-0.04739131789300024,-0.05463265654577783,0.1961954564105836,-0.9778940017767561
2025/07/05/17:48:17.114742,5274,1751712497,121147008,map,8.00250244140625,-3.963397979736328,-1.045944094657898,-0.07550085171667566,-0.04935077926782463,0.1977898002471128,-0.9760857118582991
2025/07/05/17:48:17.215664,5275,1751712497,222147008,map,8.140695571899414,-3.994863986968994,-1.0432459115982056,-0.08365829428519145,-0.049314093603305506,0.2101682275998476,-0.9728302658104934
2025/07/05/17:48:17.294746,5276,1751712497,301147008,map,8.244037628173828,-4.020860195159912,-1.0434181690216064,-0.07558312107878667,-0.051730666648708463,0.22548227076399135,-0.9699324077002396
2025/07/05/17:48:17.418210,5277,1751712497,424147008,map,8.40178108215332,-4.0634942054748535,-1.0475049018859863,-0.0593535486446386,-0.05447170283521675,0.24294362022382648,-0.9666893954347805
2025/07/05/17:48:17.533782,5278,1751712497,540147008,map,8.558032035827637,-4.118839740753174,-1.0546307563781738,-0.028914960544886115,-0.05594693929770471,0.2722670953962652,-0.9601585774258269
2025/07/05/17:48:17.617626,5279,1751712497,624147008,map,8.657340049743652,-4.166364669799805,-1.056683897972107,-0.0019863625456101913,-0.05910183574254873,0.2835927536323091,-0.9571197299517664
2025/07/05/17:48:17.714980,5280,1751712497,721147008,map,8.773518562316895,-4.233712673187256,-1.0553637742996216,0.021398935857323283,-0.06498736422979788,0.2784864705136749,-0.9580000071897046
2025/07/05/17:48:17.795796,5281,1751712497,802147008,map,8.864945411682129,-4.290491104125977,-1.0540454387664795,0.03536124377504431,-0.0708760685846848,0.2675821138593251,-0.9602739076342938
2025/07/05/17:48:17.895082,5282,1751712497,902147008,map,8.975995063781738,-4.355798721313477,-1.0513122081756592,0.029949765863669913,-0.07268690766212438,0.249733166429348,-0.9651181122351817
2025/07/05/17:48:18.017545,5283,1751712498,24147008,map,9.11373233795166,-4.436115741729736,-1.0529216527938843,0.002900063809914162,-0.06770730411608812,0.22412463183118136,-0.9722013474614029
2025/07/05/17:48:18.094630,5284,1751712498,102147008,map,9.207138061523438,-4.487765312194824,-1.0538688898086548,-0.015291681893356085,-0.062155175553045505,0.20533538016395025,-0.9765962729141291
2025/07/05/17:48:18.195440,5285,1751712498,202147008,map,9.327707290649414,-4.551729202270508,-1.055336594581604,-0.027824912607113624,-0.05691972429430353,0.18251302769120714,-0.9811599838699372
2025/07/05/17:48:18.295037,5286,1751712498,302147008,map,9.450373649597168,-4.603902339935303,-1.0606800317764282,-0.02874813284141509,-0.055837171998314644,0.16200546673049848,-0.9847893093605335
2025/07/05/17:48:18.436951,5287,1751712498,444147008,map,9.627111434936523,-4.673489570617676,-1.0676181316375732,-0.02331073328061825,-0.05662746543615952,0.14279401872745556,-0.9878561677126176
2025/07/05/17:48:18.595855,5288,1751712498,602147008,map,9.833959579467773,-4.716610908508301,-1.0803078413009644,-0.024139048951592745,-0.05831834647347982,0.11467299552058163,-0.9913961775590263
2025/07/05/17:48:18.674371,5289,1751712498,681147008,map,9.9417142868042,-4.717004299163818,-1.084355354309082,-0.05902350460361885,-0.05744442798394829,0.11908515863359581,-0.9894620197820201
2025/07/05/17:48:18.795664,5290,1751712498,802147008,map,10.10593032836914,-4.7196736335754395,-1.0866239070892334,-0.08895062943480896,-0.0573439093920008,0.13293056719025087,-0.9854587388040512
2025/07/05/17:48:18.894748,5291,1751712498,901147008,map,10.246692657470703,-4.728750228881836,-1.0934016704559326,-0.09013040401283769,-0.058312961135805565,0.1506049749964728,-0.982748314850943
2025/07/05/17:48:18.973472,5292,1751712498,980147008,map,10.35932731628418,-4.743559837341309,-1.0993125438690186,-0.06453521741998225,-0.0594207987789903,0.16991742505784924,-0.9815459454588626
2025/07/05/17:48:19.094414,5293,1751712499,101147008,map,10.525952339172363,-4.7782440185546875,-1.1096951961517334,-0.02436223234875322,-0.06055778234740558,0.18408346954326243,-0.9807407980058056
2025/07/05/17:48:19.195608,5294,1751712499,202147008,map,10.65927505493164,-4.824038505554199,-1.1136112213134766,0.016095883412815253,-0.06339296731819002,0.18770947738323746,-0.9800445940528766
2025/07/05/17:48:19.274212,5295,1751712499,281147008,map,10.765266418457031,-4.857759952545166,-1.1122337579727173,0.04465241289625946,-0.06792367252405143,0.17733850762536701,-0.9807872299569337
2025/07/05/17:48:19.395530,5296,1751712499,402147008,map,10.9262056350708,-4.912632942199707,-1.1100178956985474,0.04114731311076202,-0.06951337650247277,0.16056877036926764,-0.9837136062356215
2025/07/05/17:48:19.533831,5297,1751712499,541147008,map,11.114248275756836,-4.973919868469238,-1.113646388053894,0.008453333147374549,-0.0667890226023666,0.1350213516200343,-0.9885529840252465
2025/07/05/17:48:19.617517,5298,1751712499,624147008,map,11.225597381591797,-5.0074028968811035,-1.1173510551452637,-0.026759774439772115,-0.06052231481917613,0.10402942247790792,-0.9923703155273105
2025/07/05/17:48:19.714548,5299,1751712499,721147008,map,11.372110366821289,-5.0422139167785645,-1.1231622695922852,-0.03837977729735855,-0.058034245370279236,0.09171412206426266,-0.9933516692858018
2025/07/05/17:48:19.817797,5300,1751712499,824147008,map,11.520586013793945,-5.060718059539795,-1.1260817050933838,-0.05813764507459028,-0.05705836090035065,0.09032372758547191,-0.9925754288272566
2025/07/05/17:48:19.915020,5301,1751712499,921147008,map,11.667248725891113,-5.071488857269287,-1.1282860040664673,-0.07333701853240042,-0.058085227062492105,0.09922090586908888,-0.990657862204906
2025/07/05/17:48:20.017658,5302,1751712500,24147008,map,11.8140869140625,-5.084226608276367,-1.1324105262756348,-0.07716416763923865,-0.060808802671808916,0.12080658596842792,-0.9878024850833376
2025/07/05/17:48:20.114795,5303,1751712500,121147008,map,11.961977005004883,-5.104922771453857,-1.1415518522262573,-0.06361423106458146,-0.06165012164815956,0.13715620280914187,-0.9865802897574056
2025/07/05/17:48:20.195663,5304,1751712500,202147008,map,12.079401016235352,-5.128638744354248,-1.1494702100753784,-0.03578042931520047,-0.06110578880603209,0.15548526519257322,-0.9852969987574343
2025/07/05/17:48:20.314666,5305,1751712500,321147008,map,12.249714851379395,-5.179006576538086,-1.1632332801818848,-0.0026142426804749695,-0.06109312083460101,0.16576824475305596,-0.9842670802954792
2025/07/05/17:48:20.474016,5306,1751712500,481147008,map,12.465873718261719,-5.26540994644165,-1.1717861890792847,0.03257864454867823,-0.06392095246265077,0.16049952932948847,-0.9844250326158164
2025/07/05/17:48:20.595564,5307,1751712500,602147008,map,12.624600410461426,-5.330801486968994,-1.1787773370742798,0.03017915222889711,-0.06779348121006833,0.12629506738006463,-0.9892132321353319
2025/07/05/17:48:20.694772,5308,1751712500,701147008,map,12.761516571044922,-5.384466171264648,-1.1869046688079834,0.009425487976352715,-0.0661882038170695,0.10796649603063307,-0.9919039860726161
2025/07/05/17:48:20.773741,5309,1751712500,780147008,map,12.87216854095459,-5.425699710845947,-1.1918381452560425,-0.01373599400252602,-0.062963520247875,0.08411126133437319,-0.9943702596636218
2025/07/05/17:48:20.894487,5310,1751712500,901147008,map,13.040738105773926,-5.474202632904053,-1.193173885345459,-0.02484354111150223,-0.06007020690116952,0.061351554187971606,-0.9959971664149514
2025/07/05/17:48:20.995550,5311,1751712501,2147008,map,13.182902336120605,-5.510884761810303,-1.1945116519927979,-0.024251615991239872,-0.05874445137984376,0.040727404623610346,-0.9971470438538736
2025/07/05/17:48:21.073772,5312,1751712501,81147008,map,13.297059059143066,-5.532491207122803,-1.1908020973205566,-0.01775478295662509,-0.05910729537847051,0.020952899135322497,-0.9978737752506728
2025/07/05/17:48:21.195789,5313,1751712501,202147008,map,13.468937873840332,-5.562370777130127,-1.1868512630462646,-0.012083336873284766,-0.06055743502860743,0.0013256065545086922,-0.9980906936746909
2025/07/05/17:48:21.273762,5314,1751712501,281147008,map,13.578659057617188,-5.573464870452881,-1.182462453842163,-0.010922203626690425,-0.06156876121603626,-0.018647066237220348,-0.9978688691561655
2025/07/05/17:48:21.373521,5315,1751712501,380147008,map,13.717255592346191,-5.58613395690918,-1.1799888610839844,-0.013170444914740535,-0.06187820798339255,-0.039052694168084774,-0.9972324271882288
2025/07/05/17:48:21.553774,5316,1751712501,560147008,map,13.970431327819824,-5.586573600769043,-1.1787214279174805,-0.019221790138460905,-0.06171285284854359,-0.07123394227200647,-0.9953631357678238
2025/07/05/17:48:21.653769,5317,1751712501,660147008,map,14.112992286682129,-5.580469131469727,-1.1810194253921509,-0.02031191968789017,-0.06262631951219197,-0.09407901653271017,-0.9933853777216513
2025/07/05/17:48:21.733789,5318,1751712501,741147008,map,14.227744102478027,-5.572712421417236,-1.182997703552246,-0.019014019232864787,-0.06259643614124247,-0.10884447294056443,-0.9919037422881911
2025/07/05/17:48:21.817453,5319,1751712501,824147008,map,14.340274810791016,-5.562675952911377,-1.1855106353759766,-0.01629255809638282,-0.06283260086928819,-0.1266148538633613,-0.9898258915586298
2025/07/05/17:48:21.953725,5320,1751712501,960147008,map,14.52956485748291,-5.536230564117432,-1.187417984008789,-0.013687372423822215,-0.0629803894107007,-0.14447189110980152,-0.9874077167335515
2025/07/05/17:48:22.017349,5321,1751712502,24147008,map,14.61005687713623,-5.522651195526123,-1.1879335641860962,-0.011675362887576353,-0.06331782547314908,-0.16244889914771066,-0.9846140838138018
2025/07/05/17:48:22.114749,5322,1751712502,121147008,map,14.740723609924316,-5.49432897567749,-1.1880818605422974,-0.010622085043886577,-0.06355945872246387,-0.17645534062771856,-0.982196965623588
2025/07/05/17:48:22.195611,5323,1751712502,202147008,map,14.84555721282959,-5.471320152282715,-1.1895273923873901,-0.009716850029473817,-0.06355142506527695,-0.19040001816228475,-0.9795992202331925
2025/07/05/17:48:22.273648,5324,1751712502,281147008,map,14.949278831481934,-5.44049072265625,-1.1923688650131226,-0.00861469029245596,-0.06359755676576712,-0.20470725969847808,-0.9767169885444453
2025/07/05/17:48:22.395485,5325,1751712502,402147008,map,15.104743003845215,-5.39298152923584,-1.1972092390060425,-0.007116407245532557,-0.06338581632637995,-0.2226836227481211,-0.9728019321507986
2025/07/05/17:48:22.553784,5326,1751712502,560147008,map,15.31599235534668,-5.323086261749268,-1.2056443691253662,-0.005330238993939862,-0.06386729001941442,-0.25473531332084137,-0.9648846967203782
2025/07/05/17:48:22.634040,5327,1751712502,641147008,map,15.419726371765137,-5.286132335662842,-1.2090187072753906,-0.003751945768863247,-0.06393209258869824,-0.2730767193376937,-0.959858174834147
2025/07/05/17:48:22.753793,5328,1751712502,760147008,map,15.572872161865234,-5.227110862731934,-1.2112802267074585,-0.0026222366890571486,-0.06361778537255364,-0.2910331776604613,-0.9545918451149124
2025/07/05/17:48:22.853698,5329,1751712502,860147008,map,15.698036193847656,-5.172746658325195,-1.213477611541748,-0.001954725828236183,-0.0636919203447603,-0.3085158128849343,-0.9490824577083284
2025/07/05/17:48:22.953564,5330,1751712502,960147008,map,15.820904731750488,-5.114407062530518,-1.2167726755142212,-0.0006914838616583324,-0.06356280696156538,-0.322583812947463,-0.9444040316758036
2025/07/05/17:48:23.017242,5331,1751712503,24147008,map,15.89425277709961,-5.078316688537598,-1.2176849842071533,0.00017891800219271337,-0.06349407715335803,-0.33965406551891275,-0.9384048092008406
2025/07/05/17:48:23.114803,5332,1751712503,121147008,map,16.016761779785156,-5.016706943511963,-1.2176964282989502,0.0013774692479708462,-0.06309937856685421,-0.3534025591635982,-0.9333398106689585
2025/07/05/17:48:23.216843,5333,1751712503,224147008,map,16.13597869873047,-4.951351642608643,-1.218597173690796,0.0026845516083677363,-0.06311671797213331,-0.37024880600279986,-0.9267820103716891
2025/07/05/17:48:23.294547,5334,1751712503,301147008,map,16.228708267211914,-4.896244049072266,-1.2223588228225708,0.0032757697908151516,-0.06300808206289332,-0.38302080193867155,-0.9215825064579352
2025/07/05/17:48:23.417896,5335,1751712503,424147008,map,16.364004135131836,-4.811472415924072,-1.229636788368225,0.003959078806006954,-0.0629536022737547,-0.39594842463890834,-0.9161037139329435
2025/07/05/17:48:23.553659,5336,1751712503,561147008,map,16.517730712890625,-4.703736305236816,-1.2391242980957031,0.008037836483626194,-0.061456228500060536,-0.4260839816657209,-0.9025580123909465
2025/07/05/17:48:23.653912,5337,1751712503,660147008,map,16.62127685546875,-4.622402191162109,-1.2455904483795166,0.009493901935659705,-0.060966260697779565,-0.44257634685715685,-0.8946055880024113
2025/07/05/17:48:23.733674,5338,1751712503,740147008,map,16.700809478759766,-4.5547709465026855,-1.2513421773910522,0.010381596375058899,-0.06051142779978036,-0.45592882874587537,-0.8878961046658284
2025/07/05/17:48:23.817376,5339,1751712503,824147008,map,16.778188705444336,-4.4842400550842285,-1.256192684173584,0.011409684844690822,-0.06017045504514652,-0.47216863852723545,-0.8793782532123147
2025/07/05/17:48:23.933749,5340,1751712503,940147008,map,16.88957977294922,-4.370665550231934,-1.2617794275283813,0.011367497247023852,-0.060473252171203556,-0.48522650212994667,-0.8722207331913829
2025/07/05/17:48:24.017270,5341,1751712504,24147008,map,16.96175193786621,-4.295297622680664,-1.2642971277236938,0.012125077495964282,-0.06048513517344162,-0.5044405092753254,-0.861239980215049
2025/07/05/17:48:24.114607,5342,1751712504,121147008,map,17.050508499145508,-4.204455375671387,-1.2648413181304932,0.013133818007013704,-0.06035159445749425,-0.5169508505053154,-0.85378393404469
2025/07/05/17:48:24.195373,5343,1751712504,202147008,map,17.11920928955078,-4.1297454833984375,-1.2645394802093506,0.014204562226746442,-0.060160325056787096,-0.5291016768407294,-0.8463039532374503
2025/07/05/17:48:24.294749,5344,1751712504,301147008,map,17.19578742980957,-4.024738311767578,-1.2674447298049927,0.015677566873097265,-0.059419061149824356,-0.5417967538977974,-0.8382600232235953
2025/07/05/17:48:24.373685,5345,1751712504,381147008,map,17.254520416259766,-3.939786434173584,-1.2695289850234985,0.017407602834547432,-0.05848501293965985,-0.5568292254716944,-0.8283825760393534
2025/07/05/17:48:24.573781,5346,1751712504,581147008,map,17.38516616821289,-3.72273850440979,-1.272005558013916,0.019234774443596392,-0.05782250906820569,-0.5809554813602071,-0.8116509776835675
2025/07/05/17:48:24.673520,5347,1751712504,681147008,map,17.44302749633789,-3.6080658435821533,-1.2714966535568237,0.019246648877268166,-0.05846123209724314,-0.6013291495798319,-0.7966273311368771
2025/07/05/17:48:24.773891,5348,1751712504,781147008,map,17.497516632080078,-3.4931342601776123,-1.2708475589752197,0.020016975553167424,-0.058022902532612324,-0.6159273226468602,-0.7854082993503857
2025/07/05/17:48:24.894804,5349,1751712504,902147008,map,17.555927276611328,-3.3514161109924316,-1.2705347537994385,0.019709894394869164,-0.058638187033941164,-0.6287458722102769,-0.7751462515311893
2025/07/05/17:48:24.973785,5350,1751712504,980147008,map,17.581249237060547,-3.2544658184051514,-1.2701890468597412,0.008998728622393605,-0.06877671548343828,-0.6324529372201483,-0.7714869204932109
2025/07/05/17:48:25.073735,5351,1751712505,81147008,map,17.602737426757812,-3.1310343742370605,-1.2681879997253418,-0.007969318943426425,-0.0864414166580826,-0.6259045667961469,-0.7750534463541525
2025/07/05/17:48:25.173367,5352,1751712505,181147008,map,17.621212005615234,-3.006420373916626,-1.2641290426254272,-0.018031390382341167,-0.09896698588104914,-0.6126943917150904,-0.7838915658605948
2025/07/05/17:48:25.273847,5353,1751712505,281147008,map,17.64458465576172,-2.879439115524292,-1.2651571035385132,-0.012348364260571489,-0.09487845036066724,-0.5975544380867664,-0.7960994228612752
2025/07/05/17:48:25.395459,5354,1751712505,402147008,map,17.679058074951172,-2.7271642684936523,-1.2685166597366333,0.0020701629039893152,-0.08041051398755052,-0.5808613492295684,-0.810018491540171
2025/07/05/17:48:25.553761,5355,1751712505,560147008,map,17.763059616088867,-2.5272743701934814,-1.2754861116409302,0.02930161953233722,-0.055149187828797804,-0.5652412782020995,-0.822558374579618
2025/07/05/17:48:25.636801,5356,1751712505,643147008,map,17.813684463500977,-2.4309723377227783,-1.2766170501708984,0.06921149993748547,-0.023095445079550893,-0.5654694988006698,-0.8215355224329013
2025/07/05/17:48:25.714655,5357,1751712505,721147008,map,17.862062454223633,-2.3331427574157715,-1.276929497718811,0.08064424163917061,-0.015632847124987817,-0.5732623529317867,-0.815243764215539
2025/07/05/17:48:25.814715,5358,1751712505,821147008,map,17.921667098999023,-2.211212158203125,-1.2781213521957397,0.07323503900312738,-0.023190128921588844,-0.5875284887819712,-0.8055489568315408
2025/07/05/17:48:25.914891,5359,1751712505,921147008,map,17.983388900756836,-2.0895180702209473,-1.2805547714233398,0.05728435098827764,-0.036014780191256694,-0.601615619302181,-0.7959146218981534
2025/07/05/17:48:25.995651,5360,1751712506,2147008,map,18.031185150146484,-1.991727590560913,-1.2837028503417969,0.033798092709483786,-0.05349225745322042,-0.6240166058144531,-0.7788450057550405
2025/07/05/17:48:26.114793,5361,1751712506,121147008,map,18.101797103881836,-1.8382751941680908,-1.2880934476852417,0.024936084894139034,-0.058898187772822685,-0.6382093361754931,-0.767201432718726
2025/07/05/17:48:26.195843,5362,1751712506,202147008,map,18.1348934173584,-1.7332650423049927,-1.2891714572906494,0.017531006425479227,-0.0638366761204395,-0.6496415190930019,-0.7573529159289878
2025/07/05/17:48:26.273676,5363,1751712506,281147008,map,18.148826599121094,-1.6223008632659912,-1.2879685163497925,0.002929437169209797,-0.0786784852654302,-0.647108793403523,-0.7583213855971924
2025/07/05/17:48:26.415658,5364,1751712506,422147008,map,18.167104721069336,-1.43136465549469,-1.2871789932250977,-0.009973907007250636,-0.09388789264907292,-0.6366737761559063,-0.7653313580066518
2025/07/05/17:48:26.533832,5365,1751712506,540147008,map,18.19049072265625,-1.2581257820129395,-1.291191577911377,-0.0035577432852348734,-0.09059491560051222,-0.6168003614679477,-0.7818805649349916
2025/07/05/17:48:26.615333,5366,1751712506,622147008,map,18.213563919067383,-1.1447551250457764,-1.296210527420044,0.019979007243022533,-0.06599769929716821,-0.6018165965667285,-0.7956518881105628
2025/07/05/17:48:26.714858,5367,1751712506,721147008,map,18.25101089477539,-1.002220869064331,-1.3001418113708496,0.0426371541474838,-0.04328295931485406,-0.597771644494977,-0.79936081937816
2025/07/05/17:48:26.794696,5368,1751712506,802147008,map,18.28902816772461,-0.892164409160614,-1.299660563468933,0.06928264745535037,-0.018850661881453457,-0.6016183277262713,-0.795550095878351
2025/07/05/17:48:26.894758,5369,1751712506,901147008,map,18.32988166809082,-0.7527274489402771,-1.2968052625656128,0.08393221763518535,-0.008058766242252078,-0.6117178951585672,-0.7865695492912657
2025/07/05/17:48:26.995797,5370,1751712507,2147008,map,18.370729446411133,-0.6150654554367065,-1.294715404510498,0.07821324566041493,-0.015459121665521155,-0.623678803196411,-0.7776043043888623
2025/07/05/17:48:27.073652,5371,1751712507,80147008,map,18.401775360107422,-0.5025120973587036,-1.292886734008789,0.0573104101151535,-0.03495320502907782,-0.6412158459243655,-0.7644187525735672
2025/07/05/17:48:27.153920,5372,1751712507,160147008,map,18.427352905273438,-0.3888399600982666,-1.2925488948822021,0.03387103504803202,-0.05424360192909147,-0.6522147475022507,-0.7553319189436578
2025/07/05/17:48:27.253603,5373,1751712507,260147008,map,18.444793701171875,-0.24471032619476318,-1.2898950576782227,0.0023185467345745144,-0.08124943105409892,-0.6558741770722449,-0.7504813243140901
2025/07/05/17:48:27.333745,5374,1751712507,340147008,map,18.45393943786621,-0.12913918495178223,-1.2869555950164795,-0.01818847806011514,-0.10063087580189582,-0.6493141191262343,-0.7536138141014419
