time,.header.seq,.header.stamp.secs,.header.stamp.nsecs,.header.frame_id,.voltage,.temperature,.current,.charge,.capacity,.design_capacity,.percentage,.power_supply_status,.power_supply_health,.power_supply_technology,.present,.cell_voltage,.cell_temperature,.location,.serial_number
2025/07/05/17:47:55.714615,18750,1751712475,714235187,,11.868000984191895,0.0,-0.8799999952316284,nan,nan,nan,0.75,2,0,0,True,"(11.868000984191895,)",(),id1,
2025/07/05/17:47:55.757650,18751,1751712475,754322921,,0.0,0.0,0.009999999776482582,nan,nan,nan,-0.009999999776482582,2,0,0,True,(),(),,
2025/07/05/17:47:55.796269,18752,1751712475,796005519,,11.868000984191895,0.0,-0.8799999952316284,nan,nan,nan,0.75,2,0,0,True,"(11.868000984191895,)",(),id1,
2025/07/05/17:47:55.854671,18753,1751712475,854264819,,0.0,0.0,0.009999999776482582,nan,nan,nan,-0.009999999776482582,2,0,0,True,(),(),,
2025/07/05/17:47:55.934763,18754,1751712475,934157200,,11.868000984191895,0.0,-1.0099999904632568,nan,nan,nan,0.75,2,0,0,True,"(11.868000984191895,)",(),id1,
2025/07/05/17:47:55.974475,18755,1751712475,974200972,,0.0,0.0,0.009999999776482582,nan,nan,nan,-0.009999999776482582,2,0,0,True,(),(),,
2025/07/05/17:47:56.037662,18756,1751712476,37259018,,11.868000984191895,0.0,-0.9699999690055847,nan,nan,nan,0.75,2,0,0,True,"(11.868000984191895,)",(),id1,
2025/07/05/17:47:56.075058,18757,1751712476,74479616,,0.0,0.0,0.009999999776482582,nan,nan,nan,-0.009999999776482582,2,0,0,True,(),(),,
2025/07/05/17:47:56.134607,18758,1751712476,134140298,,11.869000434875488,0.0,-0.8199999928474426,nan,nan,nan,0.75,2,0,0,True,"(11.869000434875488,)",(),id1,
2025/07/05/17:47:56.175190,18759,1751712476,174765408,,0.0,0.0,0.009999999776482582,nan,nan,nan,-0.009999999776482582,2,0,0,True,(),(),,
2025/07/05/17:47:56.237413,18760,1751712476,236994776,,11.870000839233398,0.0,-0.7199999690055847,nan,nan,nan,0.75,2,0,0,True,"(11.870000839233398,)",(),id1,
2025/07/05/17:47:56.275093,18761,1751712476,274817916,,0.0,0.0,0.009999999776482582,nan,nan,nan,-0.009999999776482582,2,0,0,True,(),(),,
2025/07/05/17:47:56.334791,18762,1751712476,334217900,,11.871000289916992,0.0,-0.6499999761581421,nan,nan,nan,0.75,2,0,0,True,"(11.871000289916992,)",(),id1,
2025/07/05/17:47:56.416702,18763,1751712476,415828273,,0.0,0.0,0.009999999776482582,nan,nan,nan,-0.009999999776482582,2,0,0,True,(),(),,
2025/07/05/17:47:56.534549,18764,1751712476,534142081,,11.870000839233398,0.0,-0.7799999713897705,nan,nan,nan,0.75,2,0,0,True,"(11.870000839233398,)",(),id1,
2025/07/05/17:47:56.575002,18765,1751712476,574435928,,0.0,0.0,0.009999999776482582,nan,nan,nan,-0.009999999776482582,2,0,0,True,(),(),,
2025/07/05/17:47:56.637714,18766,1751712476,637414925,,11.867000579833984,0.0,-0.8799999952316284,nan,nan,nan,0.75,2,0,0,True,"(11.867000579833984,)",(),id1,
2025/07/05/17:47:56.676221,18767,1751712476,674802473,,0.0,0.0,0.009999999776482582,nan,nan,nan,-0.009999999776482582,2,0,0,True,(),(),,
2025/07/05/17:47:56.715703,18768,1751712476,715265926,,11.867000579833984,0.0,-0.85999995470047,nan,nan,nan,0.75,2,0,0,True,"(11.867000579833984,)",(),id1,
2025/07/05/17:47:56.755037,18769,1751712476,754099727,,0.0,0.0,0.009999999776482582,nan,nan,nan,-0.009999999776482582,2,0,0,True,(),(),,
2025/07/05/17:47:56.815699,18770,1751712476,815093076,,11.870000839233398,0.0,-0.7199999690055847,nan,nan,nan,0.75,2,0,0,True,"(11.870000839233398,)",(),id1,
2025/07/05/17:47:56.854692,18771,1751712476,853990652,,0.0,0.0,0.009999999776482582,nan,nan,nan,-0.009999999776482582,2,0,0,True,(),(),,
2025/07/05/17:47:56.895946,18772,1751712476,895383047,,11.870000839233398,0.0,-0.7199999690055847,nan,nan,nan,0.75,2,0,0,True,"(11.870000839233398,)",(),id1,
2025/07/05/17:47:56.975021,18773,1751712476,974435011,,0.0,0.0,0.009999999776482582,nan,nan,nan,-0.009999999776482582,2,0,0,True,(),(),,
2025/07/05/17:47:57.016485,18774,1751712477,16061889,,11.86500072479248,0.0,-0.9399999976158142,nan,nan,nan,0.75,2,0,0,True,"(11.86500072479248,)",(),id1,
2025/07/05/17:47:57.055026,18775,1751712477,53981895,,0.0,0.0,0.009999999776482582,nan,nan,nan,-0.009999999776482582,2,0,0,True,(),(),,
2025/07/05/17:47:57.095948,18776,1751712477,95200317,,11.86500072479248,0.0,-0.9399999976158142,nan,nan,nan,0.75,2,0,0,True,"(11.86500072479248,)",(),id1,
2025/07/05/17:47:57.134731,18777,1751712477,134090360,,0.0,0.0,0.009999999776482582,nan,nan,nan,-0.009999999776482582,2,0,0,True,(),(),,
2025/07/05/17:47:57.195945,18778,1751712477,195164676,,11.868000984191895,0.0,-0.85999995470047,nan,nan,nan,0.75,2,0,0,True,"(11.868000984191895,)",(),id1,
2025/07/05/17:47:57.237608,18779,1751712477,236822161,,0.0,0.0,0.009999999776482582,nan,nan,nan,-0.009999999776482582,2,0,0,True,(),(),,
2025/07/05/17:47:57.275822,18780,1751712477,275279941,,11.867000579833984,0.0,-0.8499999642372131,nan,nan,nan,0.75,2,0,0,True,"(11.867000579833984,)",(),id1,
2025/07/05/17:47:57.315625,18781,1751712477,314829957,,0.0,0.0,0.009999999776482582,nan,nan,nan,-0.009999999776482582,2,0,0,True,(),(),,
2025/07/05/17:47:57.355204,18782,1751712477,354370922,,11.869000434875488,0.0,-0.8499999642372131,nan,nan,nan,0.75,2,0,0,True,"(11.869000434875488,)",(),id1,
2025/07/05/17:47:57.437810,18783,1751712477,437102415,,0.0,0.0,0.009999999776482582,nan,nan,nan,-0.009999999776482582,2,0,0,True,(),(),,
2025/07/05/17:47:57.515830,18784,1751712477,515131538,,11.867000579833984,0.0,-0.8499999642372131,nan,nan,nan,0.75,2,0,0,True,"(11.867000579833984,)",(),id1,
2025/07/05/17:47:57.575101,18785,1751712477,574217675,,0.0,0.0,0.009999999776482582,nan,nan,nan,-0.009999999776482582,2,0,0,True,(),(),,
2025/07/05/17:47:57.618036,18786,1751712477,617812229,,11.868000984191895,0.0,-0.8199999928474426,nan,nan,nan,0.75,2,0,0,True,"(11.868000984191895,)",(),id1,
2025/07/05/17:47:57.655212,18787,1751712477,654296112,,0.0,0.0,0.009999999776482582,nan,nan,nan,-0.009999999776482582,2,0,0,True,(),(),,
2025/07/05/17:47:57.715976,18788,1751712477,715284125,,11.872000694274902,0.0,-0.5199999809265137,nan,nan,nan,0.75,2,0,0,True,"(11.872000694274902,)",(),id1,
2025/07/05/17:47:57.755091,18789,1751712477,754443981,,0.0,0.0,0.009999999776482582,nan,nan,nan,-0.009999999776482582,2,0,0,True,(),(),,
2025/07/05/17:47:57.817705,18790,1751712477,817210002,,11.874000549316406,0.0,-0.429999977350235,nan,nan,nan,0.75,2,0,0,True,"(11.874000549316406,)",(),id1,
2025/07/05/17:47:57.855298,18791,1751712477,854385973,,0.0,0.0,0.009999999776482582,nan,nan,nan,-0.009999999776482582,2,0,0,True,(),(),,
2025/07/05/17:47:57.954433,18792,1751712477,954051530,,11.875000953674316,0.0,-0.4099999964237213,nan,nan,nan,0.75,2,0,0,True,"(11.875000953674316,)",(),id1,
2025/07/05/17:47:57.996294,18793,1751712477,995527881,,0.0,0.0,0.009999999776482582,nan,nan,nan,-0.009999999776482582,2,0,0,True,(),(),,
2025/07/05/17:47:58.018224,18794,1751712478,17998814,,11.878000259399414,0.0,-0.3799999952316284,nan,nan,nan,0.75,2,0,0,True,"(11.878000259399414,)",(),id1,
2025/07/05/17:47:58.075314,18795,1751712478,74560914,,0.0,0.0,0.009999999776482582,nan,nan,nan,-0.009999999776482582,2,0,0,True,(),(),,
2025/07/05/17:47:58.115581,18796,1751712478,115239753,,11.874000549316406,0.0,-0.429999977350235,nan,nan,nan,0.75,2,0,0,True,"(11.874000549316406,)",(),id1,
2025/07/05/17:47:58.154329,18797,1751712478,153882157,,0.0,0.0,0.009999999776482582,nan,nan,nan,-0.009999999776482582,2,0,0,True,(),(),,
2025/07/05/17:47:58.196215,18798,1751712478,196032833,,11.874000549316406,0.0,-0.429999977350235,nan,nan,nan,0.75,2,0,0,True,"(11.874000549316406,)",(),id1,
2025/07/05/17:47:58.254448,18799,1751712478,253915501,,0.0,0.0,0.009999999776482582,nan,nan,nan,-0.009999999776482582,2,0,0,True,(),(),,
2025/07/05/17:47:58.315606,18800,1751712478,315164666,,11.878000259399414,0.0,-0.3199999928474426,nan,nan,nan,0.75,2,0,0,True,"(11.878000259399414,)",(),id1,
2025/07/05/17:47:58.355020,18801,1751712478,354298700,,0.0,0.0,0.009999999776482582,nan,nan,nan,-0.009999999776482582,2,0,0,True,(),(),,
2025/07/05/17:47:58.454826,18802,1751712478,454246058,,11.87600040435791,0.0,-0.32999998331069946,nan,nan,nan,0.75,2,0,0,True,"(11.87600040435791,)",(),id1,
2025/07/05/17:47:58.534178,18803,1751712478,533810650,,0.0,0.0,0.009999999776482582,nan,nan,nan,-0.009999999776482582,2,0,0,True,(),(),,
2025/07/05/17:47:58.574088,18804,1751712478,573966867,,11.879000663757324,0.0,-0.3400000035762787,nan,nan,nan,0.75,2,0,0,True,"(11.879000663757324,)",(),id1,
2025/07/05/17:47:58.614828,18805,1751712478,614614723,,0.0,0.0,0.009999999776482582,nan,nan,nan,-0.009999999776482582,2,0,0,True,(),(),,
2025/07/05/17:47:58.674126,18806,1751712478,674008319,,11.875000953674316,0.0,-0.32999998331069946,nan,nan,nan,0.75,2,0,0,True,"(11.875000953674316,)",(),id1,
2025/07/05/17:47:58.715605,18807,1751712478,715155904,,0.0,0.0,0.009999999776482582,nan,nan,nan,-0.009999999776482582,2,0,0,True,(),(),,
2025/07/05/17:47:58.754507,18808,1751712478,754247420,,11.87700080871582,0.0,-0.3199999928474426,nan,nan,nan,0.75,2,0,0,True,"(11.87700080871582,)",(),id1,
2025/07/05/17:47:58.815445,18809,1751712478,814843956,,0.0,0.0,0.009999999776482582,nan,nan,nan,-0.009999999776482582,2,0,0,True,(),(),,
2025/07/05/17:47:58.874507,18810,1751712478,874118674,,11.878000259399414,0.0,-0.3199999928474426,nan,nan,nan,0.75,2,0,0,True,"(11.878000259399414,)",(),id1,
2025/07/05/17:47:58.915926,18811,1751712478,914936293,,0.0,0.0,0.009999999776482582,nan,nan,nan,-0.009999999776482582,2,0,0,True,(),(),,
2025/07/05/17:47:58.974808,18812,1751712478,974235741,,11.87700080871582,0.0,-0.32999998331069946,nan,nan,nan,0.75,2,0,0,True,"(11.87700080871582,)",(),id1,
2025/07/05/17:47:59.035186,18813,1751712479,34588730,,0.0,0.0,0.009999999776482582,nan,nan,nan,-0.009999999776482582,2,0,0,True,(),(),,
2025/07/05/17:47:59.095756,18814,1751712479,95093703,,11.87700080871582,0.0,-0.3199999928474426,nan,nan,nan,0.75,2,0,0,True,"(11.87700080871582,)",(),id1,
2025/07/05/17:47:59.134929,18815,1751712479,134272600,,0.0,0.0,0.009999999776482582,nan,nan,nan,-0.009999999776482582,2,0,0,True,(),(),,
2025/07/05/17:47:59.195644,18816,1751712479,195253535,,11.874000549316406,0.0,-0.32999998331069946,nan,nan,nan,0.75,2,0,0,True,"(11.874000549316406,)",(),id1,
2025/07/05/17:47:59.254905,18817,1751712479,254017512,,0.0,0.0,0.009999999776482582,nan,nan,nan,-0.009999999776482582,2,0,0,True,(),(),,
2025/07/05/17:47:59.295634,18818,1751712479,295118065,,11.879000663757324,0.0,-0.3199999928474426,nan,nan,nan,0.75,2,0,0,True,"(11.879000663757324,)",(),id1,
2025/07/05/17:47:59.354629,18819,1751712479,353873476,,0.0,0.0,0.009999999776482582,nan,nan,nan,-0.009999999776482582,2,0,0,True,(),(),,
2025/07/05/17:47:59.515443,18820,1751712479,515045542,,11.87700080871582,0.0,-0.3199999928474426,nan,nan,nan,0.75,2,0,0,True,"(11.87700080871582,)",(),id1,
2025/07/05/17:47:59.554822,18821,1751712479,554202789,,0.0,0.0,0.009999999776482582,nan,nan,nan,-0.009999999776482582,2,0,0,True,(),(),,
2025/07/05/17:47:59.596379,18822,1751712479,596173300,,11.87700080871582,0.0,-0.3199999928474426,nan,nan,nan,0.75,2,0,0,True,"(11.87700080871582,)",(),id1,
2025/07/05/17:47:59.654616,18823,1751712479,653965225,,0.0,0.0,0.009999999776482582,nan,nan,nan,-0.009999999776482582,2,0,0,True,(),(),,
2025/07/05/17:47:59.714718,18824,1751712479,714171971,,11.874000549316406,0.0,-0.35999998450279236,nan,nan,nan,0.75,2,0,0,True,"(11.874000549316406,)",(),id1,
2025/07/05/17:47:59.755030,18825,1751712479,754246986,,0.0,0.0,0.009999999776482582,nan,nan,nan,-0.009999999776482582,2,0,0,True,(),(),,
2025/07/05/17:47:59.817756,18826,1751712479,817296474,,11.87700080871582,0.0,-0.3499999940395355,nan,nan,nan,0.75,2,0,0,True,"(11.87700080871582,)",(),id1,
2025/07/05/17:47:59.855073,18827,1751712479,854176687,,0.0,0.0,0.009999999776482582,nan,nan,nan,-0.009999999776482582,2,0,0,True,(),(),,
2025/07/05/17:47:59.934854,18828,1751712479,934339395,,11.87700080871582,0.0,-0.3700000047683716,nan,nan,nan,0.75,2,0,0,True,"(11.87700080871582,)",(),id1,
2025/07/05/17:47:59.975226,18829,1751712479,974380366,,0.0,0.0,0.009999999776482582,nan,nan,nan,-0.009999999776482582,2,0,0,True,(),(),,
2025/07/05/17:48:00.018825,18830,1751712480,18157519,,11.875000953674316,0.0,-0.3499999940395355,nan,nan,nan,0.75,2,0,0,True,"(11.875000953674316,)",(),id1,
2025/07/05/17:48:00.054678,18831,1751712480,53826903,,0.0,0.0,0.009999999776482582,nan,nan,nan,-0.009999999776482582,2,0,0,True,(),(),,
2025/07/05/17:48:00.114863,18832,1751712480,114311844,,11.878000259399414,0.0,-0.38999998569488525,nan,nan,nan,0.75,2,0,0,True,"(11.878000259399414,)",(),id1,
2025/07/05/17:48:00.154967,18833,1751712480,154260582,,0.0,0.0,0.009999999776482582,nan,nan,nan,-0.009999999776482582,2,0,0,True,(),(),,
2025/07/05/17:48:00.200435,18834,1751712480,196106329,,11.878000259399414,0.0,-0.38999998569488525,nan,nan,nan,0.75,2,0,0,True,"(11.878000259399414,)",(),id1,
2025/07/05/17:48:00.234492,18835,1751712480,234093896,,0.0,0.0,0.009999999776482582,nan,nan,nan,-0.009999999776482582,2,0,0,True,(),(),,
2025/07/05/17:48:00.295888,18836,1751712480,295647528,,11.87700080871582,0.0,-0.38999998569488525,nan,nan,nan,0.75,2,0,0,True,"(11.87700080871582,)",(),id1,
2025/07/05/17:48:00.334170,18837,1751712480,333626163,,0.0,0.0,0.009999999776482582,nan,nan,nan,-0.009999999776482582,2,0,0,True,(),(),,
2025/07/05/17:48:00.437474,18838,1751712480,437097283,,11.87600040435791,0.0,-0.3400000035762787,nan,nan,nan,0.75,2,0,0,True,"(11.87600040435791,)",(),id1,
2025/07/05/17:48:00.496355,18839,1751712480,495318032,,0.0,0.0,0.009999999776482582,nan,nan,nan,-0.009999999776482582,2,0,0,True,(),(),,
2025/07/05/17:48:00.574579,18840,1751712480,574111661,,11.879000663757324,0.0,-0.3499999940395355,nan,nan,nan,0.75,2,0,0,True,"(11.879000663757324,)",(),id1,
2025/07/05/17:48:00.618322,18841,1751712480,617493157,,0.0,0.0,0.009999999776482582,nan,nan,nan,-0.009999999776482582,2,0,0,True,(),(),,
2025/07/05/17:48:00.655227,18842,1751712480,654920836,,11.879000663757324,0.0,-0.3400000035762787,nan,nan,nan,0.75,2,0,0,True,"(11.879000663757324,)",(),id1,
2025/07/05/17:48:00.695651,18843,1751712480,694840218,,0.0,0.0,0.009999999776482582,nan,nan,nan,-0.009999999776482582,2,0,0,True,(),(),,
2025/07/05/17:48:00.734972,18844,1751712480,734316872,,11.879000663757324,0.0,-0.3400000035762787,nan,nan,nan,0.75,2,0,0,True,"(11.879000663757324,)",(),id1,
2025/07/05/17:48:00.775481,18845,1751712480,774387680,,0.0,0.0,0.009999999776482582,nan,nan,nan,-0.009999999776482582,2,0,0,True,(),(),,
2025/07/05/17:48:00.818738,18846,1751712480,818323149,,11.87600040435791,0.0,-0.32999998331069946,nan,nan,nan,0.75,2,0,0,True,"(11.87600040435791,)",(),id1,
2025/07/05/17:48:00.854171,18847,1751712480,853672958,,0.0,0.0,0.009999999776482582,nan,nan,nan,-0.009999999776482582,2,0,0,True,(),(),,
2025/07/05/17:48:00.916311,18848,1751712480,915909842,,11.879000663757324,0.0,-0.32999998331069946,nan,nan,nan,0.75,2,0,0,True,"(11.879000663757324,)",(),id1,
2025/07/05/17:48:00.955991,18849,1751712480,955347728,,0.0,0.0,0.009999999776482582,nan,nan,nan,-0.009999999776482582,2,0,0,True,(),(),,
2025/07/05/17:48:01.017670,18850,1751712481,17119628,,11.878000259399414,0.0,-0.32999998331069946,nan,nan,nan,0.75,2,0,0,True,"(11.878000259399414,)",(),id1,
2025/07/05/17:48:01.054899,18851,1751712481,54262316,,0.0,0.0,0.009999999776482582,nan,nan,nan,-0.009999999776482582,2,0,0,True,(),(),,
2025/07/05/17:48:01.116307,18852,1751712481,115647468,,11.878000259399414,0.0,-0.3199999928474426,nan,nan,nan,0.75,2,0,0,True,"(11.878000259399414,)",(),id1,
2025/07/05/17:48:01.154107,18853,1751712481,153706854,,0.0,0.0,0.009999999776482582,nan,nan,nan,-0.009999999776482582,2,0,0,True,(),(),,
2025/07/05/17:48:01.196219,18854,1751712481,195852133,,11.878000259399414,0.0,-0.3199999928474426,nan,nan,nan,0.75,2,0,0,True,"(11.878000259399414,)",(),id1,
2025/07/05/17:48:01.254902,18855,1751712481,254205931,,0.0,0.0,0.009999999776482582,nan,nan,nan,-0.009999999776482582,2,0,0,True,(),(),,
2025/07/05/17:48:01.314459,18856,1751712481,313990663,,11.87700080871582,0.0,-0.3400000035762787,nan,nan,nan,0.75,2,0,0,True,"(11.87700080871582,)",(),id1,
2025/07/05/17:48:01.354881,18857,1751712481,354236875,,0.0,0.0,0.009999999776482582,nan,nan,nan,-0.009999999776482582,2,0,0,True,(),(),,
2025/07/05/17:48:01.515885,18858,1751712481,515407868,,11.87600040435791,0.0,-0.3799999952316284,nan,nan,nan,0.75,2,0,0,True,"(11.87600040435791,)",(),id1,
2025/07/05/17:48:01.554818,18859,1751712481,554044997,,0.0,0.0,0.009999999776482582,nan,nan,nan,-0.009999999776482582,2,0,0,True,(),(),,
2025/07/05/17:48:01.596960,18860,1751712481,596292890,,11.87600040435791,0.0,-0.3799999952316284,nan,nan,nan,0.75,2,0,0,True,"(11.87600040435791,)",(),id1,
2025/07/05/17:48:01.654933,18861,1751712481,654436929,,0.0,0.0,0.009999999776482582,nan,nan,nan,-0.009999999776482582,2,0,0,True,(),(),,
2025/07/05/17:48:01.714786,18862,1751712481,714246570,,11.87600040435791,0.0,-0.38999998569488525,nan,nan,nan,0.75,2,0,0,True,"(11.87600040435791,)",(),id1,
2025/07/05/17:48:01.754383,18863,1751712481,753869904,,0.0,0.0,0.009999999776482582,nan,nan,nan,-0.009999999776482582,2,0,0,True,(),(),,
2025/07/05/17:48:01.817629,18864,1751712481,817205856,,11.87700080871582,0.0,-0.38999998569488525,nan,nan,nan,0.75,2,0,0,True,"(11.87700080871582,)",(),id1,
2025/07/05/17:48:01.854390,18865,1751712481,853729269,,0.0,0.0,0.009999999776482582,nan,nan,nan,-0.009999999776482582,2,0,0,True,(),(),,
2025/07/05/17:48:01.934462,18866,1751712481,934165190,,11.879000663757324,0.0,-0.3999999761581421,nan,nan,nan,0.75,2,0,0,True,"(11.879000663757324,)",(),id1,
2025/07/05/17:48:01.974954,18867,1751712481,974419484,,0.0,0.0,0.009999999776482582,nan,nan,nan,-0.009999999776482582,2,0,0,True,(),(),,
2025/07/05/17:48:02.018848,18868,1751712482,18314353,,11.879000663757324,0.0,-0.3700000047683716,nan,nan,nan,0.75,2,0,0,True,"(11.879000663757324,)",(),id1,
2025/07/05/17:48:02.055312,18869,1751712482,54457715,,0.0,0.0,0.009999999776482582,nan,nan,nan,-0.009999999776482582,2,0,0,True,(),(),,
2025/07/05/17:48:02.114371,18870,1751712482,114039823,,11.87600040435791,0.0,-0.3999999761581421,nan,nan,nan,0.75,2,0,0,True,"(11.87600040435791,)",(),id1,
2025/07/05/17:48:02.154651,18871,1751712482,153738714,,0.0,0.0,0.009999999776482582,nan,nan,nan,-0.009999999776482582,2,0,0,True,(),(),,
2025/07/05/17:48:02.196155,18872,1751712482,195935853,,11.87600040435791,0.0,-0.3999999761581421,nan,nan,nan,0.75,2,0,0,True,"(11.87600040435791,)",(),id1,
2025/07/05/17:48:02.254853,18873,1751712482,254231801,,0.0,0.0,0.009999999776482582,nan,nan,nan,-0.009999999776482582,2,0,0,True,(),(),,
2025/07/05/17:48:02.315810,18874,1751712482,315160256,,11.879000663757324,0.0,-0.41999998688697815,nan,nan,nan,0.75,2,0,0,True,"(11.879000663757324,)",(),id1,
2025/07/05/17:48:02.354672,18875,1751712482,353872841,,0.0,0.0,0.009999999776482582,nan,nan,nan,-0.009999999776482582,2,0,0,True,(),(),,
2025/07/05/17:48:02.475502,18876,1751712482,474422761,,11.87700080871582,0.0,-0.38999998569488525,nan,nan,nan,0.75,2,0,0,True,"(11.87700080871582,)",(),id1,
2025/07/05/17:48:02.555143,18877,1751712482,554399131,,0.0,0.0,0.009999999776482582,nan,nan,nan,-0.009999999776482582,2,0,0,True,(),(),,
2025/07/05/17:48:02.617653,18878,1751712482,617225555,,11.875000953674316,0.0,-0.4699999988079071,nan,nan,nan,0.75,2,0,0,True,"(11.875000953674316,)",(),id1,
2025/07/05/17:48:02.654742,18879,1751712482,653862579,,0.0,0.0,0.009999999776482582,nan,nan,nan,-0.009999999776482582,2,0,0,True,(),(),,
2025/07/05/17:48:02.714797,18880,1751712482,714313654,,11.878000259399414,0.0,-0.3799999952316284,nan,nan,nan,0.75,2,0,0,True,"(11.878000259399414,)",(),id1,
2025/07/05/17:48:02.754564,18881,1751712482,753904866,,0.0,0.0,0.009999999776482582,nan,nan,nan,-0.009999999776482582,2,0,0,True,(),(),,
2025/07/05/17:48:02.817688,18882,1751712482,817165157,,11.87700080871582,0.0,-0.3999999761581421,nan,nan,nan,0.75,2,0,0,True,"(11.87700080871582,)",(),id1,
2025/07/05/17:48:02.854855,18883,1751712482,854259558,,0.0,0.0,0.009999999776482582,nan,nan,nan,-0.009999999776482582,2,0,0,True,(),(),,
2025/07/05/17:48:02.934837,18884,1751712482,934269510,,11.87700080871582,0.0,-0.4099999964237213,nan,nan,nan,0.75,2,0,0,True,"(11.87700080871582,)",(),id1,
2025/07/05/17:48:02.974930,18885,1751712482,974323615,,0.0,0.0,0.009999999776482582,nan,nan,nan,-0.009999999776482582,2,0,0,True,(),(),,
2025/07/05/17:48:03.018174,18886,1751712483,17849785,,11.87700080871582,0.0,-0.41999998688697815,nan,nan,nan,0.75,2,0,0,True,"(11.87700080871582,)",(),id1,
2025/07/05/17:48:03.054374,18887,1751712483,53720254,,0.0,0.0,0.009999999776482582,nan,nan,nan,-0.009999999776482582,2,0,0,True,(),(),,
2025/07/05/17:48:03.115989,18888,1751712483,115201139,,11.87600040435791,0.0,-0.44999998807907104,nan,nan,nan,0.75,2,0,0,True,"(11.87600040435791,)",(),id1,
2025/07/05/17:48:03.155110,18889,1751712483,154190100,,0.0,0.0,0.009999999776482582,nan,nan,nan,-0.009999999776482582,2,0,0,True,(),(),,
2025/07/05/17:48:03.217417,18890,1751712483,216977523,,11.875000953674316,0.0,-0.41999998688697815,nan,nan,nan,0.75,2,0,0,True,"(11.875000953674316,)",(),id1,
2025/07/05/17:48:03.254690,18891,1751712483,253812423,,0.0,0.0,0.009999999776482582,nan,nan,nan,-0.009999999776482582,2,0,0,True,(),(),,
2025/07/05/17:48:03.314731,18892,1751712483,314172897,,11.87600040435791,0.0,-0.41999998688697815,nan,nan,nan,0.75,2,0,0,True,"(11.87600040435791,)",(),id1,
2025/07/05/17:48:03.354408,18893,1751712483,353717240,,0.0,0.0,0.009999999776482582,nan,nan,nan,-0.009999999776482582,2,0,0,True,(),(),,
2025/07/05/17:48:03.495615,18894,1751712483,495212360,,11.878000259399414,0.0,-0.4099999964237213,nan,nan,nan,0.75,2,0,0,True,"(11.878000259399414,)",(),id1,
2025/07/05/17:48:03.534613,18895,1751712483,533929211,,0.0,0.0,0.009999999776482582,nan,nan,nan,-0.009999999776482582,2,0,0,True,(),(),,
2025/07/05/17:48:03.595572,18896,1751712483,595192800,,11.87700080871582,0.0,-0.4599999785423279,nan,nan,nan,0.75,2,0,0,True,"(11.87700080871582,)",(),id1,
2025/07/05/17:48:03.638317,18897,1751712483,637245086,,0.0,0.0,0.009999999776482582,nan,nan,nan,-0.009999999776482582,2,0,0,True,(),(),,
2025/07/05/17:48:03.676831,18898,1751712483,675847354,,11.879000663757324,0.0,-0.38999998569488525,nan,nan,nan,0.75,2,0,0,True,"(11.879000663757324,)",(),id1,
2025/07/05/17:48:03.735028,18899,1751712483,734714332,,0.0,0.0,0.009999999776482582,nan,nan,nan,-0.009999999776482582,2,0,0,True,(),(),,
2025/07/05/17:48:03.796958,18900,1751712483,796243450,,11.874000549316406,0.0,-0.35999998450279236,nan,nan,nan,0.75,2,0,0,True,"(11.874000549316406,)",(),id1,
2025/07/05/17:48:03.834628,18901,1751712483,833787903,,0.0,0.0,0.009999999776482582,nan,nan,nan,-0.009999999776482582,2,0,0,True,(),(),,
2025/07/05/17:48:03.895643,18902,1751712483,895273277,,11.87600040435791,0.0,-0.3400000035762787,nan,nan,nan,0.75,2,0,0,True,"(11.87600040435791,)",(),id1,
2025/07/05/17:48:03.954176,18903,1751712483,953881346,,0.0,0.0,0.009999999776482582,nan,nan,nan,-0.009999999776482582,2,0,0,True,(),(),,
2025/07/05/17:48:04.017668,18904,1751712484,17215784,,11.866000175476074,0.0,-1.0199999809265137,nan,nan,nan,0.75,2,0,0,True,"(11.866000175476074,)",(),id1,
2025/07/05/17:48:04.055019,18905,1751712484,54363539,,0.0,0.0,0.009999999776482582,nan,nan,nan,-0.009999999776482582,2,0,0,True,(),(),,
2025/07/05/17:48:04.114885,18906,1751712484,114370231,,11.849000930786133,0.0,-2.2100000381469727,nan,nan,nan,0.75,2,0,0,True,"(11.849000930786133,)",(),id1,
2025/07/05/17:48:04.154286,18907,1751712484,153466901,,0.0,0.0,0.009999999776482582,nan,nan,nan,-0.009999999776482582,2,0,0,True,(),(),,
2025/07/05/17:48:04.196386,18908,1751712484,196059778,,11.849000930786133,0.0,-2.2100000381469727,nan,nan,nan,0.75,2,0,0,True,"(11.849000930786133,)",(),id1,
2025/07/05/17:48:04.254329,18909,1751712484,253689202,,0.0,0.0,0.009999999776482582,nan,nan,nan,-0.009999999776482582,2,0,0,True,(),(),,
2025/07/05/17:48:04.315424,18910,1751712484,314290463,,11.832000732421875,0.0,-3.2899999618530273,nan,nan,nan,0.75,2,0,0,True,"(11.832000732421875,)",(),id1,
2025/07/05/17:48:04.354616,18911,1751712484,354186170,,0.0,0.0,0.009999999776482582,nan,nan,nan,-0.009999999776482582,2,0,0,True,(),(),,
2025/07/05/17:48:04.515533,18912,1751712484,515073053,,11.837000846862793,0.0,-2.799999952316284,nan,nan,nan,0.75,2,0,0,True,"(11.837000846862793,)",(),id1,
2025/07/05/17:48:04.556167,18913,1751712484,554956465,,0.0,0.0,0.009999999776482582,nan,nan,nan,-0.009999999776482582,2,0,0,True,(),(),,
2025/07/05/17:48:04.618223,18914,1751712484,617275207,,11.836000442504883,0.0,-2.690000057220459,nan,nan,nan,0.75,2,0,0,True,"(11.836000442504883,)",(),id1,
2025/07/05/17:48:04.654923,18915,1751712484,654344713,,0.0,0.0,0.009999999776482582,nan,nan,nan,-0.009999999776482582,2,0,0,True,(),(),,
2025/07/05/17:48:04.716399,18916,1751712484,714932298,,11.837000846862793,0.0,-2.7200000286102295,nan,nan,nan,0.75,2,0,0,True,"(11.837000846862793,)",(),id1,
2025/07/05/17:48:04.754288,18917,1751712484,753738584,,0.0,0.0,0.009999999776482582,nan,nan,nan,-0.009999999776482582,2,0,0,True,(),(),,
2025/07/05/17:48:04.796113,18918,1751712484,795839211,,11.837000846862793,0.0,-2.7200000286102295,nan,nan,nan,0.75,2,0,0,True,"(11.837000846862793,)",(),id1,
2025/07/05/17:48:04.854730,18919,1751712484,854212991,,0.0,0.0,0.009999999776482582,nan,nan,nan,-0.009999999776482582,2,0,0,True,(),(),,
2025/07/05/17:48:04.934458,18920,1751712484,934172051,,11.828001022338867,0.0,-3.0199999809265137,nan,nan,nan,0.75,2,0,0,True,"(11.828001022338867,)",(),id1,
2025/07/05/17:48:04.975033,18921,1751712484,974449593,,0.0,0.0,0.009999999776482582,nan,nan,nan,-0.009999999776482582,2,0,0,True,(),(),,
2025/07/05/17:48:05.018416,18922,1751712485,17990082,,11.830000877380371,0.0,-3.2699999809265137,nan,nan,nan,0.75,2,0,0,True,"(11.830000877380371,)",(),id1,
2025/07/05/17:48:05.053826,18923,1751712485,53464079,,0.0,0.0,0.009999999776482582,nan,nan,nan,-0.009999999776482582,2,0,0,True,(),(),,
2025/07/05/17:48:05.115408,18924,1751712485,115205991,,11.836000442504883,0.0,-2.7200000286102295,nan,nan,nan,0.75,2,0,0,True,"(11.836000442504883,)",(),id1,
2025/07/05/17:48:05.154190,18925,1751712485,153427770,,0.0,0.0,0.009999999776482582,nan,nan,nan,-0.009999999776482582,2,0,0,True,(),(),,
2025/07/05/17:48:05.196674,18926,1751712485,196131709,,11.836000442504883,0.0,-2.7200000286102295,nan,nan,nan,0.75,2,0,0,True,"(11.836000442504883,)",(),id1,
2025/07/05/17:48:05.255431,18927,1751712485,254252770,,0.0,0.0,0.009999999776482582,nan,nan,nan,-0.009999999776482582,2,0,0,True,(),(),,
2025/07/05/17:48:05.314595,18928,1751712485,314236556,,11.833000183105469,0.0,-2.93999981880188,nan,nan,nan,0.75,2,0,0,True,"(11.833000183105469,)",(),id1,
2025/07/05/17:48:05.354622,18929,1751712485,353892296,,0.0,0.0,0.009999999776482582,nan,nan,nan,-0.009999999776482582,2,0,0,True,(),(),,
2025/07/05/17:48:05.474857,18930,1751712485,474324922,,11.835000991821289,0.0,-2.740000009536743,nan,nan,nan,0.75,2,0,0,True,"(11.835000991821289,)",(),id1,
2025/07/05/17:48:05.554828,18931,1751712485,554151891,,0.0,0.0,0.009999999776482582,nan,nan,nan,-0.009999999776482582,2,0,0,True,(),(),,
2025/07/05/17:48:05.596394,18932,1751712485,596190713,,11.837000846862793,0.0,-2.5199999809265137,nan,nan,nan,0.75,2,0,0,True,"(11.837000846862793,)",(),id1,
2025/07/05/17:48:05.654409,18933,1751712485,653633816,,0.0,0.0,0.009999999776482582,nan,nan,nan,-0.009999999776482582,2,0,0,True,(),(),,
2025/07/05/17:48:05.714923,18934,1751712485,714333998,,11.831000328063965,0.0,-2.990000009536743,nan,nan,nan,0.75,2,0,0,True,"(11.831000328063965,)",(),id1,
2025/07/05/17:48:05.755230,18935,1751712485,754239710,,0.0,0.0,0.009999999776482582,nan,nan,nan,-0.009999999776482582,2,0,0,True,(),(),,
2025/07/05/17:48:05.817489,18936,1751712485,817074099,,11.834000587463379,0.0,-2.819999933242798,nan,nan,nan,0.75,2,0,0,True,"(11.834000587463379,)",(),id1,
2025/07/05/17:48:05.854846,18937,1751712485,854492224,,0.0,0.0,0.009999999776482582,nan,nan,nan,-0.009999999776482582,2,0,0,True,(),(),,
2025/07/05/17:48:05.934886,18938,1751712485,934422543,,11.658000946044922,0.0,-2.549999952316284,nan,nan,nan,0.75,2,0,0,True,"(11.658000946044922,)",(),id1,
2025/07/05/17:48:05.996198,18939,1751712485,995526209,,0.0,0.0,0.009999999776482582,nan,nan,nan,-0.009999999776482582,2,0,0,True,(),(),,
2025/07/05/17:48:06.033459,18940,1751712486,33092497,,11.678000450134277,0.0,-2.2899999618530273,nan,nan,nan,0.75,2,0,0,True,"(11.678000450134277,)",(),id1,
2025/07/05/17:48:06.074922,18941,1751712486,74436643,,0.0,0.0,0.009999999776482582,nan,nan,nan,-0.009999999776482582,2,0,0,True,(),(),,
2025/07/05/17:48:06.133570,18942,1751712486,133055926,,11.701000213623047,0.0,-2.2300000190734863,nan,nan,nan,0.75,2,0,0,True,"(11.701000213623047,)",(),id1,
2025/07/05/17:48:06.174934,18943,1751712486,174164824,,0.0,0.0,0.009999999776482582,nan,nan,nan,-0.009999999776482582,2,0,0,True,(),(),,
2025/07/05/17:48:06.217776,18944,1751712486,217311986,,11.69800090789795,0.0,-2.0899999141693115,nan,nan,nan,0.75,2,0,0,True,"(11.69800090789795,)",(),id1,
2025/07/05/17:48:06.254186,18945,1751712486,253607636,,0.0,0.0,0.009999999776482582,nan,nan,nan,-0.009999999776482582,2,0,0,True,(),(),,
2025/07/05/17:48:06.314693,18946,1751712486,314206380,,11.770000457763672,0.0,-2.359999895095825,nan,nan,nan,0.7400000095367432,2,0,0,True,"(11.770000457763672,)",(),id1,
2025/07/05/17:48:06.354334,18947,1751712486,353676856,,0.0,0.0,0.009999999776482582,nan,nan,nan,-0.009999999776482582,2,0,0,True,(),(),,
2025/07/05/17:48:06.434198,18948,1751712486,434024445,,11.679000854492188,0.0,-1.6100000143051147,nan,nan,nan,0.7400000095367432,2,0,0,True,"(11.679000854492188,)",(),id1,
2025/07/05/17:48:06.534584,18949,1751712486,534136482,,0.0,0.0,0.009999999776482582,nan,nan,nan,-0.009999999776482582,2,0,0,True,(),(),,
2025/07/05/17:48:06.595403,18950,1751712486,595105274,,11.690000534057617,0.0,-1.2699999809265137,nan,nan,nan,0.7400000095367432,2,0,0,True,"(11.690000534057617,)",(),id1,
2025/07/05/17:48:06.634544,18951,1751712486,633640586,,0.0,0.0,0.009999999776482582,nan,nan,nan,-0.009999999776482582,2,0,0,True,(),(),,
2025/07/05/17:48:06.675627,18952,1751712486,675222108,,11.755000114440918,0.0,-0.8100000023841858,nan,nan,nan,0.7400000095367432,2,0,0,True,"(11.755000114440918,)",(),id1,
2025/07/05/17:48:06.714871,18953,1751712486,714228312,,0.0,0.0,0.009999999776482582,nan,nan,nan,-0.009999999776482582,2,0,0,True,(),(),,
2025/07/05/17:48:06.754671,18954,1751712486,754175754,,11.794000625610352,0.0,-1.0099999904632568,nan,nan,nan,0.7400000095367432,2,0,0,True,"(11.794000625610352,)",(),id1,
2025/07/05/17:48:06.819146,18955,1751712486,818022710,,0.0,0.0,0.009999999776482582,nan,nan,nan,-0.009999999776482582,2,0,0,True,(),(),,
2025/07/05/17:48:06.854316,18956,1751712486,853981755,,11.828001022338867,0.0,-1.2899999618530273,nan,nan,nan,0.7400000095367432,2,0,0,True,"(11.828001022338867,)",(),id1,
2025/07/05/17:48:06.895382,18957,1751712486,894863172,,0.0,0.0,0.009999999776482582,nan,nan,nan,-0.009999999776482582,2,0,0,True,(),(),,
2025/07/05/17:48:06.954686,18958,1751712486,954352948,,11.829000473022461,0.0,-1.6399999856948853,nan,nan,nan,0.7400000095367432,2,0,0,True,"(11.829000473022461,)",(),id1,
2025/07/05/17:48:06.998603,18959,1751712486,996391522,,0.0,0.0,0.009999999776482582,nan,nan,nan,-0.009999999776482582,2,0,0,True,(),(),,
2025/07/05/17:48:07.034333,18960,1751712487,34038878,,11.835000991821289,0.0,-1.6799999475479126,nan,nan,nan,0.7400000095367432,2,0,0,True,"(11.835000991821289,)",(),id1,
2025/07/05/17:48:07.075092,18961,1751712487,74600560,,0.0,0.0,0.009999999776482582,nan,nan,nan,-0.009999999776482582,2,0,0,True,(),(),,
2025/07/05/17:48:07.133586,18962,1751712487,133071470,,11.838000297546387,0.0,-1.659999966621399,nan,nan,nan,0.7400000095367432,2,0,0,True,"(11.838000297546387,)",(),id1,
2025/07/05/17:48:07.174866,18963,1751712487,174144015,,0.0,0.0,0.009999999776482582,nan,nan,nan,-0.009999999776482582,2,0,0,True,(),(),,
2025/07/05/17:48:07.217864,18964,1751712487,217357189,,11.843000411987305,0.0,-1.7799999713897705,nan,nan,nan,0.7400000095367432,2,0,0,True,"(11.843000411987305,)",(),id1,
2025/07/05/17:48:07.254385,18965,1751712487,253675584,,0.0,0.0,0.009999999776482582,nan,nan,nan,-0.009999999776482582,2,0,0,True,(),(),,
2025/07/05/17:48:07.314569,18966,1751712487,314227929,,11.847000122070312,0.0,-1.7999999523162842,nan,nan,nan,0.7400000095367432,2,0,0,True,"(11.847000122070312,)",(),id1,
2025/07/05/17:48:07.354669,18967,1751712487,354257652,,0.0,0.0,0.009999999776482582,nan,nan,nan,-0.009999999776482582,2,0,0,True,(),(),,
2025/07/05/17:48:07.454618,18968,1751712487,454187560,,11.846000671386719,0.0,-1.9199999570846558,nan,nan,nan,0.7400000095367432,2,0,0,True,"(11.846000671386719,)",(),id1,
2025/07/05/17:48:07.534395,18969,1751712487,533626220,,0.0,0.0,0.009999999776482582,nan,nan,nan,-0.009999999776482582,2,0,0,True,(),(),,
2025/07/05/17:48:07.575240,18970,1751712487,574422510,,11.849000930786133,0.0,-1.8199999332427979,nan,nan,nan,0.7400000095367432,2,0,0,True,"(11.849000930786133,)",(),id1,
2025/07/05/17:48:07.637050,18971,1751712487,636561618,,0.0,0.0,0.009999999776482582,nan,nan,nan,-0.009999999776482582,2,0,0,True,(),(),,
2025/07/05/17:48:07.674739,18972,1751712487,674451126,,11.848000526428223,0.0,-1.7300000190734863,nan,nan,nan,0.7400000095367432,2,0,0,True,"(11.848000526428223,)",(),id1,
2025/07/05/17:48:07.735170,18973,1751712487,734317419,,0.0,0.0,0.009999999776482582,nan,nan,nan,-0.009999999776482582,2,0,0,True,(),(),,
2025/07/05/17:48:07.796179,18974,1751712487,795183939,,11.849000930786133,0.0,-1.7899999618530273,nan,nan,nan,0.7400000095367432,2,0,0,True,"(11.849000930786133,)",(),id1,
2025/07/05/17:48:07.835102,18975,1751712487,834322409,,0.0,0.0,0.009999999776482582,nan,nan,nan,-0.009999999776482582,2,0,0,True,(),(),,
2025/07/05/17:48:07.915592,18976,1751712487,915045167,,11.848000526428223,0.0,-1.8700000047683716,nan,nan,nan,0.7400000095367432,2,0,0,True,"(11.848000526428223,)",(),id1,
2025/07/05/17:48:07.954863,18977,1751712487,954277982,,0.0,0.0,0.009999999776482582,nan,nan,nan,-0.009999999776482582,2,0,0,True,(),(),,
2025/07/05/17:48:08.017727,18978,1751712488,17213419,,11.854000091552734,0.0,-1.6799999475479126,nan,nan,nan,0.7400000095367432,2,0,0,True,"(11.854000091552734,)",(),id1,
2025/07/05/17:48:08.057970,18979,1751712488,57090879,,0.0,0.0,0.009999999776482582,nan,nan,nan,-0.009999999776482582,2,0,0,True,(),(),,
2025/07/05/17:48:08.116365,18980,1751712488,115008505,,11.855000495910645,0.0,-1.5899999141693115,nan,nan,nan,0.7400000095367432,2,0,0,True,"(11.855000495910645,)",(),id1,
2025/07/05/17:48:08.153828,18981,1751712488,153366964,,0.0,0.0,0.009999999776482582,nan,nan,nan,-0.009999999776482582,2,0,0,True,(),(),,
2025/07/05/17:48:08.217780,18982,1751712488,217302855,,11.82300090789795,0.0,-1.6699999570846558,nan,nan,nan,0.7400000095367432,2,0,0,True,"(11.82300090789795,)",(),id1,
2025/07/05/17:48:08.254789,18983,1751712488,254253602,,0.0,0.0,0.009999999776482582,nan,nan,nan,-0.009999999776482582,2,0,0,True,(),(),,
2025/07/05/17:48:08.315489,18984,1751712488,314335359,,11.648000717163086,0.0,-1.3899999856948853,nan,nan,nan,0.7400000095367432,2,0,0,True,"(11.648000717163086,)",(),id1,
2025/07/05/17:48:08.354598,18985,1751712488,354313204,,0.0,0.0,0.009999999776482582,nan,nan,nan,-0.009999999776482582,2,0,0,True,(),(),,
2025/07/05/17:48:08.475019,18986,1751712488,474507402,,11.687000274658203,0.0,-1.209999918937683,nan,nan,nan,0.7400000095367432,2,0,0,True,"(11.687000274658203,)",(),id1,
2025/07/05/17:48:08.555110,18987,1751712488,554335610,,0.0,0.0,0.009999999776482582,nan,nan,nan,-0.009999999776482582,2,0,0,True,(),(),,
2025/07/05/17:48:08.617510,18988,1751712488,617020639,,11.81100082397461,0.0,-2.069999933242798,nan,nan,nan,0.7400000095367432,2,0,0,True,"(11.81100082397461,)",(),id1,
2025/07/05/17:48:08.654510,18989,1751712488,654147766,,0.0,0.0,0.009999999776482582,nan,nan,nan,-0.009999999776482582,2,0,0,True,(),(),,
2025/07/05/17:48:08.715899,18990,1751712488,714650236,,11.726000785827637,0.0,-1.5,nan,nan,nan,0.7400000095367432,2,0,0,True,"(11.726000785827637,)",(),id1,
2025/07/05/17:48:08.754027,18991,1751712488,753520105,,0.0,0.0,0.009999999776482582,nan,nan,nan,-0.009999999776482582,2,0,0,True,(),(),,
2025/07/05/17:48:08.796668,18992,1751712488,796174412,,11.726000785827637,0.0,-1.5,nan,nan,nan,0.7400000095367432,2,0,0,True,"(11.726000785827637,)",(),id1,
2025/07/05/17:48:08.834207,18993,1751712488,833405077,,0.0,0.0,0.009999999776482582,nan,nan,nan,-0.009999999776482582,2,0,0,True,(),(),,
2025/07/05/17:48:08.895856,18994,1751712488,895238176,,11.690000534057617,0.0,-1.3799999952316284,nan,nan,nan,0.7400000095367432,2,0,0,True,"(11.690000534057617,)",(),id1,
2025/07/05/17:48:08.934521,18995,1751712488,934116591,,0.0,0.0,0.009999999776482582,nan,nan,nan,-0.009999999776482582,2,0,0,True,(),(),,
2025/07/05/17:48:08.995535,18996,1751712488,995119526,,11.747000694274902,0.0,-0.9300000071525574,nan,nan,nan,0.7400000095367432,2,0,0,True,"(11.747000694274902,)",(),id1,
2025/07/05/17:48:09.034309,18997,1751712489,33758009,,0.0,0.0,0.009999999776482582,nan,nan,nan,-0.009999999776482582,2,0,0,True,(),(),,
2025/07/05/17:48:09.095371,18998,1751712489,94953709,,11.812000274658203,0.0,-0.9799999594688416,nan,nan,nan,0.7400000095367432,2,0,0,True,"(11.812000274658203,)",(),id1,
2025/07/05/17:48:09.134427,18999,1751712489,133628835,,0.0,0.0,0.009999999776482582,nan,nan,nan,-0.009999999776482582,2,0,0,True,(),(),,
2025/07/05/17:48:09.196022,19000,1751712489,195265350,,11.827000617980957,0.0,-1.6200000047683716,nan,nan,nan,0.7400000095367432,2,0,0,True,"(11.827000617980957,)",(),id1,
2025/07/05/17:48:09.233844,19001,1751712489,233329233,,0.0,0.0,0.009999999776482582,nan,nan,nan,-0.009999999776482582,2,0,0,True,(),(),,
2025/07/05/17:48:09.295488,19002,1751712489,295405277,,11.813000679016113,0.0,-2.3299999237060547,nan,nan,nan,0.7400000095367432,2,0,0,True,"(11.813000679016113,)",(),id1,
2025/07/05/17:48:09.334368,19003,1751712489,333552276,,0.0,0.0,0.009999999776482582,nan,nan,nan,-0.009999999776482582,2,0,0,True,(),(),,
2025/07/05/17:48:09.434397,19004,1751712489,433918615,,11.729000091552734,0.0,-7.889999866485596,nan,nan,nan,0.7400000095367432,2,0,0,True,"(11.729000091552734,)",(),id1,
2025/07/05/17:48:09.495656,19005,1751712489,495191113,,0.0,0.0,0.009999999776482582,nan,nan,nan,-0.009999999776482582,2,0,0,True,(),(),,
2025/07/05/17:48:09.556026,19006,1751712489,554677514,,11.725000381469727,0.0,-8.579999923706055,nan,nan,nan,0.7400000095367432,2,0,0,True,"(11.725000381469727,)",(),id1,
2025/07/05/17:48:09.596116,19007,1751712489,595454123,,0.0,0.0,0.009999999776482582,nan,nan,nan,-0.009999999776482582,2,0,0,True,(),(),,
2025/07/05/17:48:09.633353,19008,1751712489,632950914,,11.734000205993652,0.0,-8.609999656677246,nan,nan,nan,0.7400000095367432,2,0,0,True,"(11.734000205993652,)",(),id1,
2025/07/05/17:48:09.675434,19009,1751712489,674543422,,0.0,0.0,0.009999999776482582,nan,nan,nan,-0.009999999776482582,2,0,0,True,(),(),,
2025/07/05/17:48:09.715808,19010,1751712489,714631483,,11.729000091552734,0.0,-8.65999984741211,nan,nan,nan,0.7400000095367432,2,0,0,True,"(11.729000091552734,)",(),id1,
2025/07/05/17:48:09.776235,19011,1751712489,775012754,,0.0,0.0,0.009999999776482582,nan,nan,nan,-0.009999999776482582,2,0,0,True,(),(),,
2025/07/05/17:48:09.818685,19012,1751712489,817541659,,11.732000350952148,0.0,-8.5,nan,nan,nan,0.7400000095367432,2,0,0,True,"(11.732000350952148,)",(),id1,
2025/07/05/17:48:09.855500,19013,1751712489,853874113,,0.0,0.0,0.009999999776482582,nan,nan,nan,-0.009999999776482582,2,0,0,True,(),(),,
2025/07/05/17:48:09.916860,19014,1751712489,915660109,,11.730000495910645,0.0,-8.639999389648438,nan,nan,nan,0.7400000095367432,2,0,0,True,"(11.730000495910645,)",(),id1,
2025/07/05/17:48:09.954986,19015,1751712489,954333440,,0.0,0.0,0.009999999776482582,nan,nan,nan,-0.009999999776482582,2,0,0,True,(),(),,
2025/07/05/17:48:10.017442,19016,1751712490,17098354,,11.619000434875488,0.0,-8.369999885559082,nan,nan,nan,0.7400000095367432,2,0,0,True,"(11.619000434875488,)",(),id1,
2025/07/05/17:48:10.054893,19017,1751712490,54380555,,0.0,0.0,0.009999999776482582,nan,nan,nan,-0.009999999776482582,2,0,0,True,(),(),,
2025/07/05/17:48:10.115581,19018,1751712490,114485926,,11.565000534057617,0.0,-7.869999885559082,nan,nan,nan,0.7400000095367432,2,0,0,True,"(11.565000534057617,)",(),id1,
2025/07/05/17:48:10.154290,19019,1751712490,153653789,,0.0,0.0,0.009999999776482582,nan,nan,nan,-0.009999999776482582,2,0,0,True,(),(),,
2025/07/05/17:48:10.217927,19020,1751712490,217328105,,11.656000137329102,0.0,-6.889999866485596,nan,nan,nan,0.7400000095367432,2,0,0,True,"(11.656000137329102,)",(),id1,
2025/07/05/17:48:10.254163,19021,1751712490,253642960,,0.0,0.0,0.009999999776482582,nan,nan,nan,-0.009999999776482582,2,0,0,True,(),(),,
2025/07/05/17:48:10.295618,19022,1751712490,295310413,,11.656000137329102,0.0,-6.889999866485596,nan,nan,nan,0.7400000095367432,2,0,0,True,"(11.656000137329102,)",(),id1,
2025/07/05/17:48:10.354975,19023,1751712490,354339477,,0.0,0.0,0.009999999776482582,nan,nan,nan,-0.009999999776482582,2,0,0,True,(),(),,
2025/07/05/17:48:10.454463,19024,1751712490,454154149,,11.726000785827637,0.0,-8.260000228881836,nan,nan,nan,0.7400000095367432,2,0,0,True,"(11.726000785827637,)",(),id1,
2025/07/05/17:48:10.515068,19025,1751712490,514757120,,0.0,0.0,0.009999999776482582,nan,nan,nan,-0.009999999776482582,2,0,0,True,(),(),,
2025/07/05/17:48:10.575393,19026,1751712490,574660697,,11.717000961303711,0.0,-8.510000228881836,nan,nan,nan,0.7400000095367432,2,0,0,True,"(11.717000961303711,)",(),id1,
2025/07/05/17:48:10.617651,19027,1751712490,617160646,,0.0,0.0,0.009999999776482582,nan,nan,nan,-0.009999999776482582,2,0,0,True,(),(),,
2025/07/05/17:48:10.654467,19028,1751712490,654133900,,11.72700023651123,0.0,-8.479999542236328,nan,nan,nan,0.7400000095367432,2,0,0,True,"(11.72700023651123,)",(),id1,
2025/07/05/17:48:10.714214,19029,1751712490,713993099,,0.0,0.0,0.009999999776482582,nan,nan,nan,-0.009999999776482582,2,0,0,True,(),(),,
2025/07/05/17:48:10.774339,19030,1751712490,774159464,,11.648000717163086,0.0,-8.75,nan,nan,nan,0.7400000095367432,2,0,0,True,"(11.648000717163086,)",(),id1,
2025/07/05/17:48:10.817320,19031,1751712490,816959736,,0.0,0.0,0.009999999776482582,nan,nan,nan,-0.009999999776482582,2,0,0,True,(),(),,
2025/07/05/17:48:10.854240,19032,1751712490,854013281,,11.555000305175781,0.0,-9.019999504089355,nan,nan,nan,0.7400000095367432,2,0,0,True,"(11.555000305175781,)",(),id1,
2025/07/05/17:48:10.915288,19033,1751712490,914189298,,0.0,0.0,0.009999999776482582,nan,nan,nan,-0.009999999776482582,2,0,0,True,(),(),,
2025/07/05/17:48:10.954891,19034,1751712490,954254447,,11.517000198364258,0.0,-10.010000228881836,nan,nan,nan,0.7400000095367432,2,0,0,True,"(11.517000198364258,)",(),id1,
2025/07/05/17:48:11.017767,19035,1751712491,17219999,,0.0,0.0,0.009999999776482582,nan,nan,nan,-0.009999999776482582,2,0,0,True,(),(),,
2025/07/05/17:48:11.054927,19036,1751712491,54342936,,11.611001014709473,0.0,-10.179999351501465,nan,nan,nan,0.7400000095367432,2,0,0,True,"(11.611001014709473,)",(),id1,
2025/07/05/17:48:11.094712,19037,1751712491,94307169,,0.0,0.0,0.009999999776482582,nan,nan,nan,-0.009999999776482582,2,0,0,True,(),(),,
2025/07/05/17:48:11.153547,19038,1751712491,153130509,,11.666000366210938,0.0,-10.229999542236328,nan,nan,nan,0.7400000095367432,2,0,0,True,"(11.666000366210938,)",(),id1,
2025/07/05/17:48:11.196017,19039,1751712491,195242984,,0.0,0.0,0.009999999776482582,nan,nan,nan,-0.009999999776482582,2,0,0,True,(),(),,
2025/07/05/17:48:11.235314,19040,1751712491,234942465,,11.563000679016113,0.0,-9.199999809265137,nan,nan,nan,0.7400000095367432,2,0,0,True,"(11.563000679016113,)",(),id1,
2025/07/05/17:48:11.279288,19041,1751712491,278484435,,0.0,0.0,0.009999999776482582,nan,nan,nan,-0.009999999776482582,2,0,0,True,(),(),,
2025/07/05/17:48:11.316612,19042,1751712491,315244641,,11.54900074005127,0.0,-7.009999752044678,nan,nan,nan,0.7400000095367432,2,0,0,True,"(11.54900074005127,)",(),id1,
2025/07/05/17:48:11.356597,19043,1751712491,354440347,,0.0,0.0,0.009999999776482582,nan,nan,nan,-0.009999999776482582,2,0,0,True,(),(),,
2025/07/05/17:48:11.475028,19044,1751712491,474204668,,11.677000999450684,0.0,-3.669999837875366,nan,nan,nan,0.7400000095367432,2,0,0,True,"(11.677000999450684,)",(),id1,
2025/07/05/17:48:11.554786,19045,1751712491,554182680,,0.0,0.0,0.009999999776482582,nan,nan,nan,-0.009999999776482582,2,0,0,True,(),(),,
2025/07/05/17:48:11.596206,19046,1751712491,595911332,,11.694000244140625,0.0,-2.25,nan,nan,nan,0.7400000095367432,2,0,0,True,"(11.694000244140625,)",(),id1,
2025/07/05/17:48:11.633981,19047,1751712491,633344626,,0.0,0.0,0.009999999776482582,nan,nan,nan,-0.009999999776482582,2,0,0,True,(),(),,
2025/07/05/17:48:11.694315,19048,1751712491,694000206,,11.689000129699707,0.0,-2.950000047683716,nan,nan,nan,0.7400000095367432,2,0,0,True,"(11.689000129699707,)",(),id1,
2025/07/05/17:48:11.734134,19049,1751712491,733395942,,0.0,0.0,0.009999999776482582,nan,nan,nan,-0.009999999776482582,2,0,0,True,(),(),,
2025/07/05/17:48:11.774964,19050,1751712491,774182635,,11.672000885009766,0.0,-7.569999694824219,nan,nan,nan,0.7400000095367432,2,0,0,True,"(11.672000885009766,)",(),id1,
2025/07/05/17:48:11.817722,19051,1751712491,817248610,,0.0,0.0,0.009999999776482582,nan,nan,nan,-0.009999999776482582,2,0,0,True,(),(),,
2025/07/05/17:48:11.854370,19052,1751712491,854133005,,11.71500015258789,0.0,-8.039999961853027,nan,nan,nan,0.7400000095367432,2,0,0,True,"(11.71500015258789,)",(),id1,
2025/07/05/17:48:11.916743,19053,1751712491,915299874,,0.0,0.0,0.009999999776482582,nan,nan,nan,-0.009999999776482582,2,0,0,True,(),(),,
2025/07/05/17:48:11.974448,19054,1751712491,974045507,,11.577000617980957,0.0,-7.929999828338623,nan,nan,nan,0.7400000095367432,2,0,0,True,"(11.577000617980957,)",(),id1,
2025/07/05/17:48:12.018769,19055,1751712492,17832926,,0.0,0.0,0.009999999776482582,nan,nan,nan,-0.009999999776482582,2,0,0,True,(),(),,
2025/07/05/17:48:12.054363,19056,1751712492,54078730,,11.539000511169434,0.0,-8.639999389648438,nan,nan,nan,0.7400000095367432,2,0,0,True,"(11.539000511169434,)",(),id1,
2025/07/05/17:48:12.094890,19057,1751712492,94224983,,0.0,0.0,0.009999999776482582,nan,nan,nan,-0.009999999776482582,2,0,0,True,(),(),,
2025/07/05/17:48:12.154503,19058,1751712492,154066435,,11.516000747680664,0.0,-8.720000267028809,nan,nan,nan,0.7400000095367432,2,0,0,True,"(11.516000747680664,)",(),id1,
2025/07/05/17:48:12.196109,19059,1751712492,195172920,,0.0,0.0,0.009999999776482582,nan,nan,nan,-0.009999999776482582,2,0,0,True,(),(),,
2025/07/05/17:48:12.233474,19060,1751712492,233035365,,11.56100082397461,0.0,-8.359999656677246,nan,nan,nan,0.7400000095367432,2,0,0,True,"(11.56100082397461,)",(),id1,
2025/07/05/17:48:12.275456,19061,1751712492,274837997,,0.0,0.0,0.009999999776482582,nan,nan,nan,-0.009999999776482582,2,0,0,True,(),(),,
2025/07/05/17:48:12.333584,19062,1751712492,333167165,,11.647000312805176,0.0,-8.34000015258789,nan,nan,nan,0.7400000095367432,2,0,0,True,"(11.647000312805176,)",(),id1,
2025/07/05/17:48:12.374635,19063,1751712492,373526921,,0.0,0.0,0.009999999776482582,nan,nan,nan,-0.009999999776482582,2,0,0,True,(),(),,
2025/07/05/17:48:12.495595,19064,1751712492,495265263,,11.68600082397461,0.0,-8.479999542236328,nan,nan,nan,0.7400000095367432,2,0,0,True,"(11.68600082397461,)",(),id1,
2025/07/05/17:48:12.534024,19065,1751712492,533447183,,0.0,0.0,0.009999999776482582,nan,nan,nan,-0.009999999776482582,2,0,0,True,(),(),,
2025/07/05/17:48:12.596609,19066,1751712492,595315456,,11.583000183105469,0.0,-7.12999963760376,nan,nan,nan,0.7400000095367432,2,0,0,True,"(11.583000183105469,)",(),id1,
2025/07/05/17:48:12.635819,19067,1751712492,633721955,,0.0,0.0,0.009999999776482582,nan,nan,nan,-0.009999999776482582,2,0,0,True,(),(),,
2025/07/05/17:48:12.675019,19068,1751712492,674509461,,11.586000442504883,0.0,-6.699999809265137,nan,nan,nan,0.7400000095367432,2,0,0,True,"(11.586000442504883,)",(),id1,
2025/07/05/17:48:12.714681,19069,1751712492,713994900,,0.0,0.0,0.009999999776482582,nan,nan,nan,-0.009999999776482582,2,0,0,True,(),(),,
2025/07/05/17:48:12.775358,19070,1751712492,774855502,,11.569000244140625,0.0,-5.179999828338623,nan,nan,nan,0.7400000095367432,2,0,0,True,"(11.569000244140625,)",(),id1,
2025/07/05/17:48:12.817889,19071,1751712492,817030626,,0.0,0.0,0.009999999776482582,nan,nan,nan,-0.009999999776482582,2,0,0,True,(),(),,
2025/07/05/17:48:12.854577,19072,1751712492,854150710,,11.619000434875488,0.0,-5.279999732971191,nan,nan,nan,0.7400000095367432,2,0,0,True,"(11.619000434875488,)",(),id1,
2025/07/05/17:48:12.895164,19073,1751712492,894571976,,0.0,0.0,0.009999999776482582,nan,nan,nan,-0.009999999776482582,2,0,0,True,(),(),,
2025/07/05/17:48:12.954307,19074,1751712492,954017803,,11.706000328063965,0.0,-5.569999694824219,nan,nan,nan,0.7400000095367432,2,0,0,True,"(11.706000328063965,)",(),id1,
2025/07/05/17:48:13.017578,19075,1751712493,17055137,,0.0,0.0,0.009999999776482582,nan,nan,nan,-0.009999999776482582,2,0,0,True,(),(),,
2025/07/05/17:48:13.054552,19076,1751712493,54226571,,11.717000961303711,0.0,-5.489999771118164,nan,nan,nan,0.7400000095367432,2,0,0,True,"(11.717000961303711,)",(),id1,
2025/07/05/17:48:13.095647,19077,1751712493,94505354,,0.0,0.0,0.009999999776482582,nan,nan,nan,-0.009999999776482582,2,0,0,True,(),(),,
2025/07/05/17:48:13.135798,19078,1751712493,134378761,,11.707000732421875,0.0,-6.649999618530273,nan,nan,nan,0.7400000095367432,2,0,0,True,"(11.707000732421875,)",(),id1,
2025/07/05/17:48:13.175614,19079,1751712493,174979405,,0.0,0.0,0.009999999776482582,nan,nan,nan,-0.009999999776482582,2,0,0,True,(),(),,
2025/07/05/17:48:13.219104,19080,1751712493,217793832,,11.699000358581543,0.0,-7.989999771118164,nan,nan,nan,0.7400000095367432,2,0,0,True,"(11.699000358581543,)",(),id1,
2025/07/05/17:48:13.254418,19081,1751712493,253477818,,0.0,0.0,0.009999999776482582,nan,nan,nan,-0.009999999776482582,2,0,0,True,(),(),,
2025/07/05/17:48:13.314476,19082,1751712493,314162597,,11.694000244140625,0.0,-8.619999885559082,nan,nan,nan,0.7400000095367432,2,0,0,True,"(11.694000244140625,)",(),id1,
2025/07/05/17:48:13.354727,19083,1751712493,354275075,,0.0,0.0,0.009999999776482582,nan,nan,nan,-0.009999999776482582,2,0,0,True,(),(),,
2025/07/05/17:48:13.454788,19084,1751712493,454222869,,11.668000221252441,0.0,-9.739999771118164,nan,nan,nan,0.7400000095367432,2,0,0,True,"(11.668000221252441,)",(),id1,
2025/07/05/17:48:13.554116,19085,1751712493,553395897,,0.0,0.0,0.009999999776482582,nan,nan,nan,-0.009999999776482582,2,0,0,True,(),(),,
2025/07/05/17:48:13.616759,19086,1751712493,616150334,,11.61500072479248,0.0,-13.139999389648438,nan,nan,nan,0.7400000095367432,2,0,0,True,"(11.61500072479248,)",(),id1,
2025/07/05/17:48:13.655092,19087,1751712493,654339483,,0.0,0.0,0.009999999776482582,nan,nan,nan,-0.009999999776482582,2,0,0,True,(),(),,
2025/07/05/17:48:13.714720,19088,1751712493,714206930,,11.531000137329102,0.0,-13.899999618530273,nan,nan,nan,0.7400000095367432,2,0,0,True,"(11.531000137329102,)",(),id1,
2025/07/05/17:48:13.754284,19089,1751712493,753338423,,0.0,0.0,0.009999999776482582,nan,nan,nan,-0.009999999776482582,2,0,0,True,(),(),,
2025/07/05/17:48:13.817583,19090,1751712493,817106750,,11.480000495910645,0.0,-14.40999984741211,nan,nan,nan,0.7400000095367432,2,0,0,True,"(11.480000495910645,)",(),id1,
2025/07/05/17:48:13.853908,19091,1751712493,853196898,,0.0,0.0,0.009999999776482582,nan,nan,nan,-0.009999999776482582,2,0,0,True,(),(),,
2025/07/05/17:48:13.914958,19092,1751712493,914281848,,11.52500057220459,0.0,-14.579999923706055,nan,nan,nan,0.7400000095367432,2,0,0,True,"(11.52500057220459,)",(),id1,
2025/07/05/17:48:13.955091,19093,1751712493,954365446,,0.0,0.0,0.009999999776482582,nan,nan,nan,-0.009999999776482582,2,0,0,True,(),(),,
2025/07/05/17:48:13.996395,19094,1751712493,996137973,,11.52500057220459,0.0,-14.579999923706055,nan,nan,nan,0.7400000095367432,2,0,0,True,"(11.52500057220459,)",(),id1,
2025/07/05/17:48:14.054324,19095,1751712494,53553251,,0.0,0.0,0.009999999776482582,nan,nan,nan,-0.009999999776482582,2,0,0,True,(),(),,
2025/07/05/17:48:14.115058,19096,1751712494,114377467,,11.566000938415527,0.0,-15.84999942779541,nan,nan,nan,0.7400000095367432,2,0,0,True,"(11.566000938415527,)",(),id1,
2025/07/05/17:48:14.154406,19097,1751712494,153463696,,0.0,0.0,0.009999999776482582,nan,nan,nan,-0.009999999776482582,2,0,0,True,(),(),,
2025/07/05/17:48:14.196828,19098,1751712494,196337168,,11.566000938415527,0.0,-15.84999942779541,nan,nan,nan,0.7400000095367432,2,0,0,True,"(11.566000938415527,)",(),id1,
2025/07/05/17:48:14.234135,19099,1751712494,233342481,,0.0,0.0,0.009999999776482582,nan,nan,nan,-0.009999999776482582,2,0,0,True,(),(),,
2025/07/05/17:48:14.294432,19100,1751712494,294126017,,11.557000160217285,0.0,-15.649999618530273,nan,nan,nan,0.7400000095367432,2,0,0,True,"(11.557000160217285,)",(),id1,
2025/07/05/17:48:14.334983,19101,1751712494,334345492,,0.0,0.0,0.009999999776482582,nan,nan,nan,-0.009999999776482582,2,0,0,True,(),(),,
2025/07/05/17:48:14.418088,19102,1751712494,417848670,,11.380000114440918,0.0,-16.59000015258789,nan,nan,nan,0.7400000095367432,2,0,0,True,"(11.380000114440918,)",(),id1,
2025/07/05/17:48:14.475071,19103,1751712494,474463818,,0.0,0.0,0.009999999776482582,nan,nan,nan,-0.009999999776482582,2,0,0,True,(),(),,
2025/07/05/17:48:14.553631,19104,1751712494,553077167,,11.384000778198242,0.0,-15.699999809265137,nan,nan,nan,0.7400000095367432,2,0,0,True,"(11.384000778198242,)",(),id1,
2025/07/05/17:48:14.596001,19105,1751712494,594899839,,0.0,0.0,0.009999999776482582,nan,nan,nan,-0.009999999776482582,2,0,0,True,(),(),,
2025/07/05/17:48:14.633669,19106,1751712494,633198647,,11.50100040435791,0.0,-16.049999237060547,nan,nan,nan,0.7400000095367432,2,0,0,True,"(11.50100040435791,)",(),id1,
2025/07/05/17:48:14.674777,19107,1751712494,674294194,,0.0,0.0,0.009999999776482582,nan,nan,nan,-0.009999999776482582,2,0,0,True,(),(),,
2025/07/05/17:48:14.733611,19108,1751712494,733248332,,11.403000831604004,0.0,-15.670000076293945,nan,nan,nan,0.7400000095367432,2,0,0,True,"(11.403000831604004,)",(),id1,
2025/07/05/17:48:14.775128,19109,1751712494,774469160,,0.0,0.0,0.009999999776482582,nan,nan,nan,-0.009999999776482582,2,0,0,True,(),(),,
2025/07/05/17:48:14.817782,19110,1751712494,817269950,,11.452000617980957,0.0,-16.44999885559082,nan,nan,nan,0.7400000095367432,2,0,0,True,"(11.452000617980957,)",(),id1,
2025/07/05/17:48:14.854854,19111,1751712494,854377124,,0.0,0.0,0.009999999776482582,nan,nan,nan,-0.009999999776482582,2,0,0,True,(),(),,
2025/07/05/17:48:14.934721,19112,1751712494,934175879,,11.304000854492188,0.0,-15.199999809265137,nan,nan,nan,0.7400000095367432,2,0,0,True,"(11.304000854492188,)",(),id1,
2025/07/05/17:48:14.975062,19113,1751712494,973872178,,0.0,0.0,0.009999999776482582,nan,nan,nan,-0.009999999776482582,2,0,0,True,(),(),,
2025/07/05/17:48:15.017795,19114,1751712495,17351431,,11.452000617980957,0.0,-15.369999885559082,nan,nan,nan,0.7400000095367432,2,0,0,True,"(11.452000617980957,)",(),id1,
2025/07/05/17:48:15.054130,19115,1751712495,53340340,,0.0,0.0,0.009999999776482582,nan,nan,nan,-0.009999999776482582,2,0,0,True,(),(),,
2025/07/05/17:48:15.114847,19116,1751712495,114248148,,11.505000114440918,0.0,-15.579999923706055,nan,nan,nan,0.7400000095367432,2,0,0,True,"(11.505000114440918,)",(),id1,
2025/07/05/17:48:15.154044,19117,1751712495,153409648,,0.0,0.0,0.009999999776482582,nan,nan,nan,-0.009999999776482582,2,0,0,True,(),(),,
2025/07/05/17:48:15.217628,19118,1751712495,217213114,,11.543000221252441,0.0,-14.429999351501465,nan,nan,nan,0.7400000095367432,2,0,0,True,"(11.543000221252441,)",(),id1,
2025/07/05/17:48:15.254310,19119,1751712495,253446020,,0.0,0.0,0.009999999776482582,nan,nan,nan,-0.009999999776482582,2,0,0,True,(),(),,
2025/07/05/17:48:15.314760,19120,1751712495,314283536,,11.380000114440918,0.0,-14.269999504089355,nan,nan,nan,0.7400000095367432,2,0,0,True,"(11.380000114440918,)",(),id1,
2025/07/05/17:48:15.354190,19121,1751712495,353357576,,0.0,0.0,0.009999999776482582,nan,nan,nan,-0.009999999776482582,2,0,0,True,(),(),,
2025/07/05/17:48:15.495511,19122,1751712495,495169157,,11.415000915527344,0.0,-15.34999942779541,nan,nan,nan,0.7400000095367432,2,0,0,True,"(11.415000915527344,)",(),id1,
2025/07/05/17:48:15.534738,19123,1751712495,534235628,,0.0,0.0,0.009999999776482582,nan,nan,nan,-0.009999999776482582,2,0,0,True,(),(),,
2025/07/05/17:48:15.595748,19124,1751712495,595112877,,11.32800006866455,0.0,-16.469999313354492,nan,nan,nan,0.7400000095367432,2,0,0,True,"(11.32800006866455,)",(),id1,
2025/07/05/17:48:15.634156,19125,1751712495,633361032,,0.0,0.0,0.009999999776482582,nan,nan,nan,-0.009999999776482582,2,0,0,True,(),(),,
2025/07/05/17:48:15.674293,19126,1751712495,673954157,,11.47800064086914,0.0,-17.170000076293945,nan,nan,nan,0.7400000095367432,2,0,0,True,"(11.47800064086914,)",(),id1,
2025/07/05/17:48:15.714701,19127,1751712495,714011787,,0.0,0.0,0.009999999776482582,nan,nan,nan,-0.009999999776482582,2,0,0,True,(),(),,
2025/07/05/17:48:15.773741,19128,1751712495,773241997,,11.440000534057617,0.0,-17.489999771118164,nan,nan,nan,0.7400000095367432,2,0,0,True,"(11.440000534057617,)",(),id1,
2025/07/05/17:48:15.817541,19129,1751712495,816731063,,0.0,0.0,0.009999999776482582,nan,nan,nan,-0.009999999776482582,2,0,0,True,(),(),,
2025/07/05/17:48:15.853927,19130,1751712495,853374489,,11.431000709533691,0.0,-18.90999984741211,nan,nan,nan,0.7400000095367432,2,0,0,True,"(11.431000709533691,)",(),id1,
2025/07/05/17:48:15.895401,19131,1751712495,894984455,,0.0,0.0,0.009999999776482582,nan,nan,nan,-0.009999999776482582,2,0,0,True,(),(),,
2025/07/05/17:48:15.954669,19132,1751712495,954267562,,11.47800064086914,0.0,-18.799999237060547,nan,nan,nan,0.7400000095367432,2,0,0,True,"(11.47800064086914,)",(),id1,
2025/07/05/17:48:15.995825,19133,1751712495,995268568,,0.0,0.0,0.009999999776482582,nan,nan,nan,-0.009999999776482582,2,0,0,True,(),(),,
2025/07/05/17:48:16.033605,19134,1751712496,33296257,,11.410000801086426,0.0,-18.60999870300293,nan,nan,nan,0.7400000095367432,2,0,0,True,"(11.410000801086426,)",(),id1,
2025/07/05/17:48:16.075050,19135,1751712496,74591740,,0.0,0.0,0.009999999776482582,nan,nan,nan,-0.009999999776482582,2,0,0,True,(),(),,
2025/07/05/17:48:16.133649,19136,1751712496,133186234,,11.475000381469727,0.0,-18.559999465942383,nan,nan,nan,0.7400000095367432,2,0,0,True,"(11.475000381469727,)",(),id1,
2025/07/05/17:48:16.174077,19137,1751712496,173381100,,0.0,0.0,0.009999999776482582,nan,nan,nan,-0.009999999776482582,2,0,0,True,(),(),,
2025/07/05/17:48:16.217790,19138,1751712496,217250465,,11.447000503540039,0.0,-18.53999900817871,nan,nan,nan,0.7400000095367432,2,0,0,True,"(11.447000503540039,)",(),id1,
2025/07/05/17:48:16.254182,19139,1751712496,253326276,,0.0,0.0,0.009999999776482582,nan,nan,nan,-0.009999999776482582,2,0,0,True,(),(),,
2025/07/05/17:48:16.314927,19140,1751712496,314375664,,11.35200023651123,0.0,-18.53999900817871,nan,nan,nan,0.7400000095367432,2,0,0,True,"(11.35200023651123,)",(),id1,
2025/07/05/17:48:16.355045,19141,1751712496,354337497,,0.0,0.0,0.009999999776482582,nan,nan,nan,-0.009999999776482582,2,0,0,True,(),(),,
2025/07/05/17:48:16.454895,19142,1751712496,454251752,,11.291000366210938,0.0,-18.44999885559082,nan,nan,nan,0.7400000095367432,2,0,0,True,"(11.291000366210938,)",(),id1,
2025/07/05/17:48:16.495818,19143,1751712496,495410716,,0.0,0.0,0.009999999776482582,nan,nan,nan,-0.009999999776482582,2,0,0,True,(),(),,
2025/07/05/17:48:16.553866,19144,1751712496,553410074,,11.355000495910645,0.0,-18.190000534057617,nan,nan,nan,0.7400000095367432,2,0,0,True,"(11.355000495910645,)",(),id1,
2025/07/05/17:48:16.595544,19145,1751712496,595071310,,0.0,0.0,0.009999999776482582,nan,nan,nan,-0.009999999776482582,2,0,0,True,(),(),,
