time,.header.seq,.header.stamp.secs,.header.stamp.nsecs,.header.frame_id,.status.status,.status.service,.latitude,.longitude,.altitude,.position_covariance,.position_covariance_type
2025/07/05/17:49:30.951198,10278,1751712570,787147008,base_link,0,1,-7.2871463,112.7959351,50.35502651969421,"(1.7503289999999998, 0.0, 0.0, 0.0, 1.7503289999999998, 0.0, 0.0, 0.0, 4.096576)",2
2025/07/05/17:49:31.051543,10279,1751712570,987147008,base_link,0,1,-7.2871469,112.7959354,50.29502593382956,"(1.755625, 0.0, 0.0, 0.0, 1.755625, 0.0, 0.0, 0.0, 4.108729)",2
2025/07/05/17:49:31.151054,10280,1751712570,987147008,base_link,0,1,-7.2871469,112.7959354,50.29502593382956,"(1.755625, 0.0, 0.0, 0.0, 1.755625, 0.0, 0.0, 0.0, 4.108729)",2
2025/07/05/17:49:31.250866,10281,1751712571,187147008,base_link,0,1,-7.2871471,112.7959355,50.31502573854195,"(1.7635840000000003, 0.0, 0.0, 0.0, 1.7635840000000003, 0.0, 0.0, 0.0, 4.108729)",2
2025/07/05/17:49:31.350987,10282,1751712571,187147008,base_link,0,1,-7.2871471,112.7959355,50.31502573854195,"(1.7635840000000003, 0.0, 0.0, 0.0, 1.7635840000000003, 0.0, 0.0, 0.0, 4.108729)",2
2025/07/05/17:49:31.531533,10283,1751712571,387147008,base_link,0,1,-7.2871473,112.7959356,50.32502554325465,"(1.7635840000000003, 0.0, 0.0, 0.0, 1.7635840000000003, 0.0, 0.0, 0.0, 4.1046759999999995)",2
2025/07/05/17:49:31.611928,10284,1751712571,587147008,base_link,0,1,-7.2871477,112.7959357,50.24502484049965,"(1.7635840000000003, 0.0, 0.0, 0.0, 1.7635840000000003, 0.0, 0.0, 0.0, 4.100625)",2
2025/07/05/17:49:31.692901,10285,1751712571,587147008,base_link,0,1,-7.2871477,112.7959357,50.24502484049965,"(1.7635840000000003, 0.0, 0.0, 0.0, 1.7635840000000003, 0.0, 0.0, 0.0, 4.100625)",2
2025/07/05/17:49:31.792828,10286,1751712571,787147008,base_link,0,1,-7.2871484,112.795936,50.11502400090846,"(1.755625, 0.0, 0.0, 0.0, 1.755625, 0.0, 0.0, 0.0, 4.088483999999999)",2
2025/07/05/17:49:31.871530,10287,1751712571,787147008,base_link,0,1,-7.2871484,112.795936,50.11502400090846,"(1.755625, 0.0, 0.0, 0.0, 1.755625, 0.0, 0.0, 0.0, 4.088483999999999)",2
2025/07/05/17:49:31.992987,10288,1751712571,787147008,base_link,0,1,-7.2871484,112.795936,50.11502400090846,"(1.755625, 0.0, 0.0, 0.0, 1.755625, 0.0, 0.0, 0.0, 4.088483999999999)",2
2025/07/05/17:49:32.071577,10289,1751712571,987147008,base_link,0,1,-7.287149,112.7959365,50.045024039415104,"(1.734489, 0.0, 0.0, 0.0, 1.734489, 0.0, 0.0, 0.0, 4.064256)",2
2025/07/05/17:49:32.171564,10290,1751712571,987147008,base_link,0,1,-7.287149,112.7959365,50.045024039415104,"(1.734489, 0.0, 0.0, 0.0, 1.734489, 0.0, 0.0, 0.0, 4.064256)",2
2025/07/05/17:49:32.291858,10291,1751712572,187147008,base_link,0,1,-7.2871496,112.7959368,49.985023453562704,"(1.7134809999999998, 0.0, 0.0, 0.0, 1.7134809999999998, 0.0, 0.0, 0.0, 4.0441210000000005)",2
2025/07/05/17:49:32.412987,10292,1751712572,387147008,base_link,0,1,-7.28715,112.7959371,49.94502337517591,"(1.7056360000000002, 0.0, 0.0, 0.0, 1.7056360000000002, 0.0, 0.0, 0.0, 4.048144)",2
2025/07/05/17:49:32.531275,10293,1751712572,387147008,base_link,0,1,-7.28715,112.7959371,49.94502337517591,"(1.7056360000000002, 0.0, 0.0, 0.0, 1.7056360000000002, 0.0, 0.0, 0.0, 4.048144)",2
2025/07/05/17:49:32.652886,10294,1751712572,587147008,base_link,0,1,-7.2871503,112.7959373,49.92502323834144,"(1.7004160000000001, 0.0, 0.0, 0.0, 1.7004160000000001, 0.0, 0.0, 0.0, 4.0441210000000005)",2
2025/07/05/17:49:32.751334,10295,1751712572,587147008,base_link,0,1,-7.2871503,112.7959373,49.92502323834144,"(1.7004160000000001, 0.0, 0.0, 0.0, 1.7004160000000001, 0.0, 0.0, 0.0, 4.0441210000000005)",2
2025/07/05/17:49:32.853527,10296,1751712572,787147008,base_link,0,1,-7.2871507,112.7959375,49.895022847776445,"(1.6952040000000002, 0.0, 0.0, 0.0, 1.6952040000000002, 0.0, 0.0, 0.0, 4.040099999999999)",2
2025/07/05/17:49:32.952984,10297,1751712572,787147008,base_link,0,1,-7.2871507,112.7959375,49.895022847776445,"(1.6952040000000002, 0.0, 0.0, 0.0, 1.6952040000000002, 0.0, 0.0, 0.0, 4.040099999999999)",2
2025/07/05/17:49:33.053350,10298,1751712572,987147008,base_link,0,1,-7.2871509,112.7959377,49.915022964673994,"(1.6952040000000002, 0.0, 0.0, 0.0, 1.6952040000000002, 0.0, 0.0, 0.0, 4.036080999999999)",2
2025/07/05/17:49:33.151700,10299,1751712572,987147008,base_link,0,1,-7.2871509,112.7959377,49.915022964673994,"(1.6952040000000002, 0.0, 0.0, 0.0, 1.6952040000000002, 0.0, 0.0, 0.0, 4.036080999999999)",2
2025/07/05/17:49:33.251029,10300,1751712573,187147008,base_link,0,1,-7.2871511,112.7959381,49.89502370593026,"(1.697809, 0.0, 0.0, 0.0, 1.697809, 0.0, 0.0, 0.0, 4.032064)",2
2025/07/05/17:49:33.351155,10301,1751712573,187147008,base_link,0,1,-7.2871511,112.7959381,49.89502370593026,"(1.697809, 0.0, 0.0, 0.0, 1.697809, 0.0, 0.0, 0.0, 4.032064)",2
2025/07/05/17:49:33.531620,10302,1751712573,387147008,base_link,0,1,-7.2871513,112.7959383,49.91502382282766,"(1.7004160000000001, 0.0, 0.0, 0.0, 1.7004160000000001, 0.0, 0.0, 0.0, 4.028049)",2
2025/07/05/17:49:33.615028,10303,1751712573,587147008,base_link,0,1,-7.2871517,112.7959386,49.89502374444366,"(1.7030249999999998, 0.0, 0.0, 0.0, 1.7030249999999998, 0.0, 0.0, 0.0, 4.028049)",2
2025/07/05/17:49:33.691920,10304,1751712573,587147008,base_link,0,1,-7.2871517,112.7959386,49.89502374444366,"(1.7030249999999998, 0.0, 0.0, 0.0, 1.7030249999999998, 0.0, 0.0, 0.0, 4.028049)",2
2025/07/05/17:49:33.792385,10305,1751712573,587147008,base_link,0,1,-7.2871517,112.7959386,49.89502374444366,"(1.7030249999999998, 0.0, 0.0, 0.0, 1.7030249999999998, 0.0, 0.0, 0.0, 4.028049)",2
2025/07/05/17:49:33.891986,10306,1751712573,787147008,base_link,0,1,-7.2871523,112.7959391,49.875023782958465,"(1.708249, 0.0, 0.0, 0.0, 1.708249, 0.0, 0.0, 0.0, 4.032064)",2
2025/07/05/17:49:33.971268,10307,1751712573,787147008,base_link,0,1,-7.2871523,112.7959391,49.875023782958465,"(1.708249, 0.0, 0.0, 0.0, 1.708249, 0.0, 0.0, 0.0, 4.032064)",2
2025/07/05/17:49:34.072266,10308,1751712573,987147008,base_link,0,1,-7.2871531,112.7959395,49.80502300183865,"(1.7056360000000002, 0.0, 0.0, 0.0, 1.7056360000000002, 0.0, 0.0, 0.0, 4.032064)",2
2025/07/05/17:49:34.192700,10309,1751712573,987147008,base_link,0,1,-7.2871531,112.7959395,49.80502300183865,"(1.7056360000000002, 0.0, 0.0, 0.0, 1.7056360000000002, 0.0, 0.0, 0.0, 4.032064)",2
2025/07/05/17:49:34.270981,10310,1751712574,187147008,base_link,0,1,-7.2871538,112.7959397,49.80502185009611,"(1.6900000000000002, 0.0, 0.0, 0.0, 1.6900000000000002, 0.0, 0.0, 0.0, 3.968064)",2
2025/07/05/17:49:34.392386,10311,1751712574,187147008,base_link,0,1,-7.2871538,112.7959397,49.80502185009611,"(1.6900000000000002, 0.0, 0.0, 0.0, 1.6900000000000002, 0.0, 0.0, 0.0, 3.968064)",2
2025/07/05/17:49:34.572199,10312,1751712574,387147008,base_link,0,1,-7.2871545,112.7959403,49.84502194706823,"(1.6770249999999998, 0.0, 0.0, 0.0, 1.6770249999999998, 0.0, 0.0, 0.0, 3.9204)",2
2025/07/05/17:49:34.671850,10313,1751712574,587147008,base_link,0,1,-7.287155,112.7959407,49.945021927141596,"(1.6641000000000001, 0.0, 0.0, 0.0, 1.6641000000000001, 0.0, 0.0, 0.0, 3.873024)",2
2025/07/05/17:49:34.772199,10314,1751712574,587147008,base_link,0,1,-7.287155,112.7959407,49.945021927141596,"(1.6641000000000001, 0.0, 0.0, 0.0, 1.6641000000000001, 0.0, 0.0, 0.0, 3.873024)",2
2025/07/05/17:49:34.872199,10315,1751712574,787147008,base_link,0,1,-7.2871561,112.7959413,49.92502100921267,"(1.640961, 0.0, 0.0, 0.0, 1.640961, 0.0, 0.0, 0.0, 3.825936)",2
2025/07/05/17:49:34.992162,10316,1751712574,787147008,base_link,0,1,-7.2871561,112.7959413,49.92502100921267,"(1.640961, 0.0, 0.0, 0.0, 1.640961, 0.0, 0.0, 0.0, 3.825936)",2
2025/07/05/17:49:35.071711,10317,1751712574,987147008,base_link,0,1,-7.2871571,112.795942,49.925020657193116,"(1.6256249999999999, 0.0, 0.0, 0.0, 1.6256249999999999, 0.0, 0.0, 0.0, 3.779136)",2
2025/07/05/17:49:35.171448,10318,1751712574,987147008,base_link,0,1,-7.2871571,112.795942,49.925020657193116,"(1.6256249999999999, 0.0, 0.0, 0.0, 1.6256249999999999, 0.0, 0.0, 0.0, 3.779136)",2
2025/07/05/17:49:35.271766,10319,1751712575,187147008,base_link,0,1,-7.2871581,112.7959429,49.94502092952959,"(1.6103609999999997, 0.0, 0.0, 0.0, 1.6103609999999997, 0.0, 0.0, 0.0, 3.7249)",2
2025/07/05/17:49:35.351088,10320,1751712575,187147008,base_link,0,1,-7.2871581,112.7959429,49.94502092952959,"(1.6103609999999997, 0.0, 0.0, 0.0, 1.6103609999999997, 0.0, 0.0, 0.0, 3.7249)",2
2025/07/05/17:49:35.512007,10321,1751712575,387147008,base_link,0,1,-7.2871592,112.7959439,49.915021260320685,"(1.5901209999999997, 0.0, 0.0, 0.0, 1.5901209999999997, 0.0, 0.0, 0.0, 3.6979290000000002)",2
2025/07/05/17:49:35.611980,10322,1751712575,587147008,base_link,0,1,-7.2871601,112.7959454,49.865023659429184,"(1.572516, 0.0, 0.0, 0.0, 1.572516, 0.0, 0.0, 0.0, 3.6940839999999997)",2
2025/07/05/17:49:35.692041,10323,1751712575,587147008,base_link,0,1,-7.2871601,112.7959454,49.865023659429184,"(1.572516, 0.0, 0.0, 0.0, 1.572516, 0.0, 0.0, 0.0, 3.6940839999999997)",2
2025/07/05/17:49:35.770919,10324,1751712575,587147008,base_link,0,1,-7.2871601,112.7959454,49.865023659429184,"(1.572516, 0.0, 0.0, 0.0, 1.572516, 0.0, 0.0, 0.0, 3.6940839999999997)",2
2025/07/05/17:49:35.871785,10325,1751712575,787147008,base_link,0,1,-7.2871612,112.7959465,49.825024302395015,"(1.552516, 0.0, 0.0, 0.0, 1.552516, 0.0, 0.0, 0.0, 3.6710559999999997)",2
2025/07/05/17:49:35.992099,10326,1751712575,787147008,base_link,0,1,-7.2871612,112.7959465,49.825024302395015,"(1.552516, 0.0, 0.0, 0.0, 1.552516, 0.0, 0.0, 0.0, 3.6710559999999997)",2
2025/07/05/17:49:36.071431,10327,1751712575,987147008,base_link,0,1,-7.2871621,112.7959477,49.84502576497695,"(1.5351210000000002, 0.0, 0.0, 0.0, 1.5351210000000002, 0.0, 0.0, 0.0, 3.6442810000000003)",2
2025/07/05/17:49:36.171400,10328,1751712575,987147008,base_link,0,1,-7.2871621,112.7959477,49.84502576497695,"(1.5351210000000002, 0.0, 0.0, 0.0, 1.5351210000000002, 0.0, 0.0, 0.0, 3.6442810000000003)",2
2025/07/05/17:49:36.251815,10329,1751712576,187147008,base_link,0,1,-7.287163,112.7959489,49.82502722755647,"(1.5252250000000003, 0.0, 0.0, 0.0, 1.5252250000000003, 0.0, 0.0, 0.0, 3.6252159999999995)",2
2025/07/05/17:49:36.351126,10330,1751712576,187147008,base_link,0,1,-7.287163,112.7959489,49.82502722755647,"(1.5252250000000003, 0.0, 0.0, 0.0, 1.5252250000000003, 0.0, 0.0, 0.0, 3.6252159999999995)",2
2025/07/05/17:49:36.551871,10331,1751712576,387147008,base_link,0,1,-7.287164,112.7959498,49.885027499900616,"(1.517824, 0.0, 0.0, 0.0, 1.517824, 0.0, 0.0, 0.0, 3.5872359999999994)",2
2025/07/05/17:49:36.650731,10332,1751712576,587147008,base_link,0,1,-7.2871653,112.7959506,49.87502669892234,"(1.5153610000000002, 0.0, 0.0, 0.0, 1.5153610000000002, 0.0, 0.0, 0.0, 3.5645439999999997)",2
2025/07/05/17:49:36.730827,10333,1751712576,587147008,base_link,0,1,-7.2871653,112.7959506,49.87502669892234,"(1.5153610000000002, 0.0, 0.0, 0.0, 1.5153610000000002, 0.0, 0.0, 0.0, 3.5645439999999997)",2
2025/07/05/17:49:36.833631,10334,1751712576,787147008,base_link,0,1,-7.2871666,112.7959517,49.83502683446373,"(1.507984, 0.0, 0.0, 0.0, 1.507984, 0.0, 0.0, 0.0, 3.5268839999999995)",2
2025/07/05/17:49:36.912061,10335,1751712576,787147008,base_link,0,1,-7.2871666,112.7959517,49.83502683446373,"(1.507984, 0.0, 0.0, 0.0, 1.507984, 0.0, 0.0, 0.0, 3.5268839999999995)",2
2025/07/05/17:49:37.033813,10336,1751712576,987147008,base_link,0,1,-7.2871675,112.7959528,49.84502798487566,"(1.4884, 0.0, 0.0, 0.0, 1.4884, 0.0, 0.0, 0.0, 3.485689)",2
2025/07/05/17:49:37.131020,10337,1751712576,987147008,base_link,0,1,-7.2871675,112.7959528,49.84502798487566,"(1.4884, 0.0, 0.0, 0.0, 1.4884, 0.0, 0.0, 0.0, 3.485689)",2
2025/07/05/17:49:37.233518,10338,1751712577,187147008,base_link,0,1,-7.2871683,112.7959538,49.90502907683389,"(1.478656, 0.0, 0.0, 0.0, 1.478656, 0.0, 0.0, 0.0, 3.4558809999999998)",2
2025/07/05/17:49:37.311815,10339,1751712577,187147008,base_link,0,1,-7.2871683,112.7959538,49.90502907683389,"(1.478656, 0.0, 0.0, 0.0, 1.478656, 0.0, 0.0, 0.0, 3.4558809999999998)",2
2025/07/05/17:49:37.451160,10340,1751712577,387147008,base_link,0,1,-7.2871692,112.7959547,49.96502960290817,"(1.468944, 0.0, 0.0, 0.0, 1.468944, 0.0, 0.0, 0.0, 3.4188009999999998)",2
2025/07/05/17:49:37.571078,10341,1751712577,387147008,base_link,0,1,-7.2871692,112.7959547,49.96502960290817,"(1.468944, 0.0, 0.0, 0.0, 1.468944, 0.0, 0.0, 0.0, 3.4188009999999998)",2
2025/07/05/17:49:37.671611,10342,1751712577,587147008,base_link,0,1,-7.2871703,112.7959558,49.925030245889715,"(1.4544359999999998, 0.0, 0.0, 0.0, 1.4544359999999998, 0.0, 0.0, 0.0, 3.370896)",2
2025/07/05/17:49:37.751133,10343,1751712577,587147008,base_link,0,1,-7.2871703,112.7959558,49.925030245889715,"(1.4544359999999998, 0.0, 0.0, 0.0, 1.4544359999999998, 0.0, 0.0, 0.0, 3.370896)",2
2025/07/05/17:49:37.850986,10344,1751712577,787147008,base_link,0,1,-7.2871712,112.7959569,49.8550313962999,"(1.4376010000000001, 0.0, 0.0, 0.0, 1.4376010000000001, 0.0, 0.0, 0.0, 3.330625)",2
2025/07/05/17:49:37.971168,10345,1751712577,787147008,base_link,0,1,-7.2871712,112.7959569,49.8550313962999,"(1.4376010000000001, 0.0, 0.0, 0.0, 1.4376010000000001, 0.0, 0.0, 0.0, 3.330625)",2
2025/07/05/17:49:38.050739,10346,1751712577,987147008,base_link,0,1,-7.2871721,112.7959584,49.815033795371676,"(1.4089690000000001, 0.0, 0.0, 0.0, 1.4089690000000001, 0.0, 0.0, 0.0, 3.2869689999999996)",2
2025/07/05/17:49:38.150994,10347,1751712577,987147008,base_link,0,1,-7.2871721,112.7959584,49.815033795371676,"(1.4089690000000001, 0.0, 0.0, 0.0, 1.4089690000000001, 0.0, 0.0, 0.0, 3.2869689999999996)",2
2025/07/05/17:49:38.251521,10348,1751712578,187147008,base_link,0,1,-7.2871728,112.7959597,49.79503607753177,"(1.3947610000000001, 0.0, 0.0, 0.0, 1.3947610000000001, 0.0, 0.0, 0.0, 3.250809)",2
2025/07/05/17:49:38.351094,10349,1751712578,187147008,base_link,0,1,-7.2871728,112.7959597,49.79503607753177,"(1.3947610000000001, 0.0, 0.0, 0.0, 1.3947610000000001, 0.0, 0.0, 0.0, 3.250809)",2
2025/07/05/17:49:38.530833,10350,1751712578,387147008,base_link,0,1,-7.2871732,112.7959611,49.805039432987755,"(1.387684, 0.0, 0.0, 0.0, 1.387684, 0.0, 0.0, 0.0, 3.218436)",2
2025/07/05/17:49:38.630695,10351,1751712578,587147008,base_link,0,1,-7.2871734,112.7959625,49.915043295861494,"(1.3759290000000002, 0.0, 0.0, 0.0, 1.3759290000000002, 0.0, 0.0, 0.0, 3.182656)",2
2025/07/05/17:49:38.711850,10352,1751712578,587147008,base_link,0,1,-7.2871734,112.7959625,49.915043295861494,"(1.3759290000000002, 0.0, 0.0, 0.0, 1.3759290000000002, 0.0, 0.0, 0.0, 3.182656)",2
2025/07/05/17:49:38.814265,10353,1751712578,787147008,base_link,0,1,-7.2871743,112.7959642,49.955046319228515,"(1.3712410000000002, 0.0, 0.0, 0.0, 1.3712410000000002, 0.0, 0.0, 0.0, 3.147076)",2
2025/07/05/17:49:38.892176,10354,1751712578,787147008,base_link,0,1,-7.2871743,112.7959642,49.955046319228515,"(1.3712410000000002, 0.0, 0.0, 0.0, 1.3712410000000002, 0.0, 0.0, 0.0, 3.147076)",2
2025/07/05/17:49:39.011338,10355,1751712578,987147008,base_link,0,1,-7.287175,112.7959656,50.015048913522534,"(1.3665610000000001, 0.0, 0.0, 0.0, 1.3665610000000001, 0.0, 0.0, 0.0, 3.1152249999999997)",2
2025/07/05/17:49:39.092047,10356,1751712578,987147008,base_link,0,1,-7.287175,112.7959656,50.015048913522534,"(1.3665610000000001, 0.0, 0.0, 0.0, 1.3665610000000001, 0.0, 0.0, 0.0, 3.1152249999999997)",2
2025/07/05/17:49:39.192643,10357,1751712578,987147008,base_link,0,1,-7.287175,112.7959656,50.015048913522534,"(1.3665610000000001, 0.0, 0.0, 0.0, 1.3665610000000001, 0.0, 0.0, 0.0, 3.1152249999999997)",2
2025/07/05/17:49:39.291882,10358,1751712579,187147008,base_link,0,1,-7.2871758,112.7959667,50.06505031761202,"(1.3595559999999998, 0.0, 0.0, 0.0, 1.3595559999999998, 0.0, 0.0, 0.0, 3.076516)",2
2025/07/05/17:49:39.433792,10359,1751712579,387147008,base_link,0,1,-7.2871766,112.7959682,50.11505297034434,"(1.3572250000000001, 0.0, 0.0, 0.0, 1.3572250000000001, 0.0, 0.0, 0.0, 3.055504)",2
2025/07/05/17:49:39.551423,10360,1751712579,387147008,base_link,0,1,-7.2871766,112.7959682,50.11505297034434,"(1.3572250000000001, 0.0, 0.0, 0.0, 1.3572250000000001, 0.0, 0.0, 0.0, 3.055504)",2
2025/07/05/17:49:39.651622,10361,1751712579,587147008,base_link,0,1,-7.2871778,112.7959699,50.105055232547365,"(1.3595559999999998, 0.0, 0.0, 0.0, 1.3595559999999998, 0.0, 0.0, 0.0, 3.048516)",2
2025/07/05/17:49:39.751270,10362,1751712579,587147008,base_link,0,1,-7.2871778,112.7959699,50.105055232547365,"(1.3595559999999998, 0.0, 0.0, 0.0, 1.3595559999999998, 0.0, 0.0, 0.0, 3.048516)",2
2025/07/05/17:49:39.851300,10363,1751712579,787147008,base_link,0,1,-7.2871787,112.7959714,50.17505763155451,"(1.3618890000000001, 0.0, 0.0, 0.0, 1.3618890000000001, 0.0, 0.0, 0.0, 3.041536)",2
2025/07/05/17:49:39.951373,10364,1751712579,787147008,base_link,0,1,-7.2871787,112.7959714,50.17505763155451,"(1.3618890000000001, 0.0, 0.0, 0.0, 1.3618890000000001, 0.0, 0.0, 0.0, 3.041536)",2
2025/07/05/17:49:40.053605,10365,1751712579,987147008,base_link,0,1,-7.2871796,112.7959729,50.255060030554915,"(1.3688999999999998, 0.0, 0.0, 0.0, 1.3688999999999998, 0.0, 0.0, 0.0, 3.0450250000000003)",2
2025/07/05/17:49:40.152744,10366,1751712579,987147008,base_link,0,1,-7.2871796,112.7959729,50.255060030554915,"(1.3688999999999998, 0.0, 0.0, 0.0, 1.3688999999999998, 0.0, 0.0, 0.0, 3.0450250000000003)",2
2025/07/05/17:49:40.252755,10367,1751712580,187147008,base_link,0,1,-7.2871804,112.7959745,50.3350629954155,"(1.373584, 0.0, 0.0, 0.0, 1.373584, 0.0, 0.0, 0.0, 3.048516)",2
2025/07/05/17:49:40.392314,10368,1751712580,187147008,base_link,0,1,-7.2871804,112.7959745,50.3350629954155,"(1.373584, 0.0, 0.0, 0.0, 1.373584, 0.0, 0.0, 0.0, 3.048516)",2
2025/07/05/17:49:40.530603,10369,1751712580,387147008,base_link,0,1,-7.2871807,112.795976,50.435066916654186,"(1.3782759999999998, 0.0, 0.0, 0.0, 1.3782759999999998, 0.0, 0.0, 0.0, 3.0450250000000003)",2
2025/07/05/17:49:40.611415,10370,1751712580,587147008,base_link,0,1,-7.2871811,112.7959778,50.55507152064557,"(1.387684, 0.0, 0.0, 0.0, 1.387684, 0.0, 0.0, 0.0, 3.048516)",2
2025/07/05/17:49:40.692872,10371,1751712580,587147008,base_link,0,1,-7.2871811,112.7959778,50.55507152064557,"(1.387684, 0.0, 0.0, 0.0, 1.387684, 0.0, 0.0, 0.0, 3.048516)",2
2025/07/05/17:49:40.792473,10372,1751712580,587147008,base_link,0,1,-7.2871811,112.7959778,50.55507152064557,"(1.387684, 0.0, 0.0, 0.0, 1.387684, 0.0, 0.0, 0.0, 3.048516)",2
2025/07/05/17:49:40.930979,10373,1751712580,787147008,base_link,0,1,-7.2871819,112.7959795,50.59507479763093,"(1.3947610000000001, 0.0, 0.0, 0.0, 1.3947610000000001, 0.0, 0.0, 0.0, 3.055504)",2
2025/07/05/17:49:41.033537,10374,1751712580,987147008,base_link,0,1,-7.2871825,112.795981,50.74507795771264,"(1.4018559999999998, 0.0, 0.0, 0.0, 1.4018559999999998, 0.0, 0.0, 0.0, 3.0660009999999995)",2
2025/07/05/17:49:41.111566,10375,1751712580,987147008,base_link,0,1,-7.2871825,112.795981,50.74507795771264,"(1.4018559999999998, 0.0, 0.0, 0.0, 1.4018559999999998, 0.0, 0.0, 0.0, 3.0660009999999995)",2
2025/07/05/17:49:41.192072,10376,1751712580,987147008,base_link,0,1,-7.2871825,112.795981,50.74507795771264,"(1.4018559999999998, 0.0, 0.0, 0.0, 1.4018559999999998, 0.0, 0.0, 0.0, 3.0660009999999995)",2
2025/07/05/17:49:41.272646,10377,1751712581,187147008,base_link,0,1,-7.2871831,112.7959825,50.75508111778561,"(1.406596, 0.0, 0.0, 0.0, 1.406596, 0.0, 0.0, 0.0, 3.0660009999999995)",2
2025/07/05/17:49:41.353374,10378,1751712581,187147008,base_link,0,1,-7.2871831,112.7959825,50.75508111778561,"(1.406596, 0.0, 0.0, 0.0, 1.406596, 0.0, 0.0, 0.0, 3.0660009999999995)",2
2025/07/05/17:49:41.512044,10379,1751712581,387147008,base_link,0,1,-7.2871837,112.7959843,50.775085214312085,"(1.406596, 0.0, 0.0, 0.0, 1.406596, 0.0, 0.0, 0.0, 3.069504)",2
2025/07/05/17:49:41.612358,10380,1751712581,587147008,base_link,0,1,-7.2871845,112.7959861,50.76508880340846,"(1.4089690000000001, 0.0, 0.0, 0.0, 1.4089690000000001, 0.0, 0.0, 0.0, 3.0730089999999994)",2
2025/07/05/17:49:41.692130,10381,1751712581,587147008,base_link,0,1,-7.2871845,112.7959861,50.76508880340846,"(1.4089690000000001, 0.0, 0.0, 0.0, 1.4089690000000001, 0.0, 0.0, 0.0, 3.0730089999999994)",2
2025/07/05/17:49:41.792114,10382,1751712581,587147008,base_link,0,1,-7.2871845,112.7959861,50.76508880340846,"(1.4089690000000001, 0.0, 0.0, 0.0, 1.4089690000000001, 0.0, 0.0, 0.0, 3.0730089999999994)",2
2025/07/05/17:49:41.891572,10383,1751712581,787147008,base_link,0,1,-7.2871849,112.7959879,50.725093407326426,"(1.411344, 0.0, 0.0, 0.0, 1.411344, 0.0, 0.0, 0.0, 3.0730089999999994)",2
2025/07/05/17:49:42.013111,10384,1751712581,987147008,base_link,0,1,-7.2871849,112.7959898,50.76509933822051,"(1.4161, 0.0, 0.0, 0.0, 1.4161, 0.0, 0.0, 0.0, 3.0730089999999994)",2
2025/07/05/17:49:42.111762,10385,1751712581,987147008,base_link,0,1,-7.2871849,112.7959898,50.76509933822051,"(1.4161, 0.0, 0.0, 0.0, 1.4161, 0.0, 0.0, 0.0, 3.0730089999999994)",2
2025/07/05/17:49:42.191570,10386,1751712581,987147008,base_link,0,1,-7.2871849,112.7959898,50.76509933822051,"(1.4161, 0.0, 0.0, 0.0, 1.4161, 0.0, 0.0, 0.0, 3.0730089999999994)",2
2025/07/05/17:49:42.271741,10387,1751712582,187147008,base_link,0,1,-7.2871849,112.7959915,50.72510464480163,"(1.420864, 0.0, 0.0, 0.0, 1.420864, 0.0, 0.0, 0.0, 3.0800249999999996)",2
2025/07/05/17:49:42.371597,10388,1751712582,187147008,base_link,0,1,-7.2871849,112.7959915,50.72510464480163,"(1.420864, 0.0, 0.0, 0.0, 1.420864, 0.0, 0.0, 0.0, 3.0800249999999996)",2
2025/07/05/17:49:42.571205,10389,1751712582,387147008,base_link,0,1,-7.2871847,112.7959931,50.695110146645334,"(1.425636, 0.0, 0.0, 0.0, 1.425636, 0.0, 0.0, 0.0, 3.069504)",2
2025/07/05/17:49:42.671262,10390,1751712582,587147008,base_link,0,1,-7.2871846,112.7959947,50.66511539477327,"(1.428025, 0.0, 0.0, 0.0, 1.428025, 0.0, 0.0, 0.0, 3.0625)",2
2025/07/05/17:49:42.791220,10391,1751712582,587147008,base_link,0,1,-7.2871846,112.7959947,50.66511539477327,"(1.428025, 0.0, 0.0, 0.0, 1.428025, 0.0, 0.0, 0.0, 3.0625)",2
2025/07/05/17:49:42.891703,10392,1751712582,787147008,base_link,0,1,-7.2871848,112.7959962,50.64511956960847,"(1.4328090000000002, 0.0, 0.0, 0.0, 1.4328090000000002, 0.0, 0.0, 0.0, 3.069504)",2
2025/07/05/17:49:43.011909,10393,1751712582,987147008,base_link,0,1,-7.2871849,112.7959979,50.675124622447825,"(1.430416, 0.0, 0.0, 0.0, 1.430416, 0.0, 0.0, 0.0, 3.0590010000000003)",2
2025/07/05/17:49:43.092107,10394,1751712582,987147008,base_link,0,1,-7.2871849,112.7959979,50.675124622447825,"(1.430416, 0.0, 0.0, 0.0, 1.430416, 0.0, 0.0, 0.0, 3.0590010000000003)",2
2025/07/05/17:49:43.192070,10395,1751712582,987147008,base_link,0,1,-7.2871849,112.7959979,50.675124622447825,"(1.430416, 0.0, 0.0, 0.0, 1.430416, 0.0, 0.0, 0.0, 3.0590010000000003)",2
2025/07/05/17:49:43.292308,10396,1751712583,187147008,base_link,0,1,-7.2871848,112.7959997,50.64513049485389,"(1.430416, 0.0, 0.0, 0.0, 1.430416, 0.0, 0.0, 0.0, 3.0520090000000004)",2
2025/07/05/17:49:43.391921,10397,1751712583,187147008,base_link,0,1,-7.2871848,112.7959997,50.64513049485389,"(1.430416, 0.0, 0.0, 0.0, 1.430416, 0.0, 0.0, 0.0, 3.0520090000000004)",2
2025/07/05/17:49:43.571353,10398,1751712583,387147008,base_link,0,1,-7.2871847,112.7960015,50.65513636725262,"(1.4328090000000002, 0.0, 0.0, 0.0, 1.4328090000000002, 0.0, 0.0, 0.0, 3.048516)",2
2025/07/05/17:49:43.672330,10399,1751712583,587147008,base_link,0,1,-7.2871846,112.7960032,50.61514192749557,"(1.435204, 0.0, 0.0, 0.0, 1.435204, 0.0, 0.0, 0.0, 3.0450250000000003)",2
2025/07/05/17:49:43.791315,10400,1751712583,587147008,base_link,0,1,-7.2871846,112.7960032,50.61514192749557,"(1.435204, 0.0, 0.0, 0.0, 1.435204, 0.0, 0.0, 0.0, 3.0450250000000003)",2
2025/07/05/17:49:43.911908,10401,1751712583,787147008,base_link,0,1,-7.2871847,112.7960048,50.55514666815263,"(1.435204, 0.0, 0.0, 0.0, 1.435204, 0.0, 0.0, 0.0, 3.0520090000000004)",2
2025/07/05/17:49:43.992562,10402,1751712583,987147008,base_link,0,1,-7.287185,112.7960066,50.57515152566473,"(1.435204, 0.0, 0.0, 0.0, 1.435204, 0.0, 0.0, 0.0, 3.0625)",2
2025/07/05/17:49:44.072099,10403,1751712583,987147008,base_link,0,1,-7.287185,112.7960066,50.57515152566473,"(1.435204, 0.0, 0.0, 0.0, 1.435204, 0.0, 0.0, 0.0, 3.0625)",2
2025/07/05/17:49:44.172185,10404,1751712583,987147008,base_link,0,1,-7.287185,112.7960066,50.57515152566473,"(1.435204, 0.0, 0.0, 0.0, 1.435204, 0.0, 0.0, 0.0, 3.0625)",2
2025/07/05/17:49:44.271955,10405,1751712584,187147008,base_link,0,1,-7.2871854,112.7960085,50.535156441595575,"(1.435204, 0.0, 0.0, 0.0, 1.435204, 0.0, 0.0, 0.0, 3.0660009999999995)",2
2025/07/05/17:49:44.351545,10406,1751712584,187147008,base_link,0,1,-7.2871854,112.7960085,50.535156441595575,"(1.435204, 0.0, 0.0, 0.0, 1.435204, 0.0, 0.0, 0.0, 3.0660009999999995)",2
2025/07/05/17:49:44.512033,10407,1751712584,387147008,base_link,0,1,-7.2871856,112.7960104,50.53516186494542,"(1.4328090000000002, 0.0, 0.0, 0.0, 1.4328090000000002, 0.0, 0.0, 0.0, 3.0590010000000003)",2
2025/07/05/17:49:44.612093,10408,1751712584,587147008,base_link,0,1,-7.2871855,112.7960123,50.54516804943467,"(1.428025, 0.0, 0.0, 0.0, 1.428025, 0.0, 0.0, 0.0, 3.0520090000000004)",2
2025/07/05/17:49:44.691429,10409,1751712584,587147008,base_link,0,1,-7.2871855,112.7960123,50.54516804943467,"(1.428025, 0.0, 0.0, 0.0, 1.428025, 0.0, 0.0, 0.0, 3.0520090000000004)",2
2025/07/05/17:49:44.792328,10410,1751712584,587147008,base_link,0,1,-7.2871855,112.7960123,50.54516804943467,"(1.428025, 0.0, 0.0, 0.0, 1.428025, 0.0, 0.0, 0.0, 3.0520090000000004)",2
2025/07/05/17:49:44.876923,10411,1751712584,787147008,base_link,0,1,-7.2871854,112.7960141,50.56517392177048,"(1.430416, 0.0, 0.0, 0.0, 1.430416, 0.0, 0.0, 0.0, 3.0660009999999995)",2
2025/07/05/17:49:44.992407,10412,1751712584,787147008,base_link,0,1,-7.2871854,112.7960141,50.56517392177048,"(1.430416, 0.0, 0.0, 0.0, 1.430416, 0.0, 0.0, 0.0, 3.0660009999999995)",2
2025/07/05/17:49:45.071125,10413,1751712584,987147008,base_link,0,1,-7.2871856,112.7960161,50.55517965723156,"(1.430416, 0.0, 0.0, 0.0, 1.430416, 0.0, 0.0, 0.0, 3.069504)",2
2025/07/05/17:49:45.191653,10414,1751712584,987147008,base_link,0,1,-7.2871856,112.7960161,50.55517965723156,"(1.430416, 0.0, 0.0, 0.0, 1.430416, 0.0, 0.0, 0.0, 3.069504)",2
2025/07/05/17:49:45.271605,10415,1751712585,187147008,base_link,0,1,-7.2871858,112.796018,50.50518508053497,"(1.430416, 0.0, 0.0, 0.0, 1.430416, 0.0, 0.0, 0.0, 3.076516)",2
2025/07/05/17:49:45.371303,10416,1751712585,187147008,base_link,0,1,-7.2871858,112.796018,50.50518508053497,"(1.430416, 0.0, 0.0, 0.0, 1.430416, 0.0, 0.0, 0.0, 3.076516)",2
2025/07/05/17:49:45.552032,10417,1751712585,387147008,base_link,0,1,-7.2871862,112.79602,50.465190308530104,"(1.428025, 0.0, 0.0, 0.0, 1.428025, 0.0, 0.0, 0.0, 3.0870489999999995)",2
2025/07/05/17:49:45.651294,10418,1751712585,587147008,base_link,0,1,-7.2871863,112.7960219,50.425195985527395,"(1.430416, 0.0, 0.0, 0.0, 1.430416, 0.0, 0.0, 0.0, 3.0940809999999996)",2
2025/07/05/17:49:45.751195,10419,1751712585,587147008,base_link,0,1,-7.2871863,112.7960219,50.425195985527395,"(1.430416, 0.0, 0.0, 0.0, 1.430416, 0.0, 0.0, 0.0, 3.0940809999999996)",2
2025/07/05/17:49:45.852921,10420,1751712585,787147008,base_link,0,1,-7.2871861,112.7960237,50.37520211153415,"(1.4376010000000001, 0.0, 0.0, 0.0, 1.4376010000000001, 0.0, 0.0, 0.0, 3.0976)",2
2025/07/05/17:49:45.950827,10421,1751712585,787147008,base_link,0,1,-7.2871861,112.7960237,50.37520211153415,"(1.4376010000000001, 0.0, 0.0, 0.0, 1.4376010000000001, 0.0, 0.0, 0.0, 3.0976)",2
2025/07/05/17:49:46.052393,10422,1751712585,987147008,base_link,0,1,-7.2871859,112.7960254,50.345207925393254,"(1.44, 0.0, 0.0, 0.0, 1.44, 0.0, 0.0, 0.0, 3.0940809999999996)",2
2025/07/05/17:49:46.150788,10423,1751712585,987147008,base_link,0,1,-7.2871859,112.7960254,50.345207925393254,"(1.44, 0.0, 0.0, 0.0, 1.44, 0.0, 0.0, 0.0, 3.0940809999999996)",2
2025/07/05/17:49:46.252507,10424,1751712586,187147008,base_link,0,1,-7.2871859,112.7960273,50.295213856084935,"(1.4376010000000001, 0.0, 0.0, 0.0, 1.4376010000000001, 0.0, 0.0, 0.0, 3.0940809999999996)",2
2025/07/05/17:49:46.392054,10425,1751712586,187147008,base_link,0,1,-7.2871859,112.7960273,50.295213856084935,"(1.4376010000000001, 0.0, 0.0, 0.0, 1.4376010000000001, 0.0, 0.0, 0.0, 3.0940809999999996)",2
2025/07/05/17:49:46.530973,10426,1751712586,387147008,base_link,0,1,-7.2871861,112.7960293,50.275219591460754,"(1.435204, 0.0, 0.0, 0.0, 1.435204, 0.0, 0.0, 0.0, 3.0940809999999996)",2
2025/07/05/17:49:46.630385,10427,1751712586,587147008,base_link,0,1,-7.2871864,112.7960312,50.24522476095909,"(1.4328090000000002, 0.0, 0.0, 0.0, 1.4328090000000002, 0.0, 0.0, 0.0, 3.0870489999999995)",2
2025/07/05/17:49:46.731282,10428,1751712586,587147008,base_link,0,1,-7.2871864,112.7960312,50.24522476095909,"(1.4328090000000002, 0.0, 0.0, 0.0, 1.4328090000000002, 0.0, 0.0, 0.0, 3.0870489999999995)",2
2025/07/05/17:49:46.812557,10429,1751712586,787147008,base_link,0,1,-7.2871866,112.796033,50.41522987202879,"(1.4232490000000002, 0.0, 0.0, 0.0, 1.4232490000000002, 0.0, 0.0, 0.0, 3.0590010000000003)",2
2025/07/05/17:49:46.912393,10430,1751712586,787147008,base_link,0,1,-7.2871866,112.796033,50.41522987202879,"(1.4232490000000002, 0.0, 0.0, 0.0, 1.4232490000000002, 0.0, 0.0, 0.0, 3.0590010000000003)",2
2025/07/05/17:49:47.012324,10431,1751712586,987147008,base_link,0,1,-7.2871869,112.7960349,50.42523504150175,"(1.418481, 0.0, 0.0, 0.0, 1.418481, 0.0, 0.0, 0.0, 3.0590010000000003)",2
2025/07/05/17:49:47.091909,10432,1751712586,987147008,base_link,0,1,-7.2871869,112.7960349,50.42523504150175,"(1.418481, 0.0, 0.0, 0.0, 1.418481, 0.0, 0.0, 0.0, 3.0590010000000003)",2
2025/07/05/17:49:47.191799,10433,1751712586,987147008,base_link,0,1,-7.2871869,112.7960349,50.42523504150175,"(1.418481, 0.0, 0.0, 0.0, 1.418481, 0.0, 0.0, 0.0, 3.0590010000000003)",2
2025/07/05/17:49:47.272089,10434,1751712587,187147008,base_link,0,1,-7.287187,112.7960368,50.435240718411386,"(1.420864, 0.0, 0.0, 0.0, 1.420864, 0.0, 0.0, 0.0, 3.0660009999999995)",2
2025/07/05/17:49:47.412599,10435,1751712587,387147008,base_link,0,1,-7.2871869,112.7960389,50.43524752703731,"(1.420864, 0.0, 0.0, 0.0, 1.420864, 0.0, 0.0, 0.0, 3.069504)",2
2025/07/05/17:49:47.591589,10436,1751712587,387147008,base_link,0,1,-7.2871869,112.7960389,50.43524752703731,"(1.420864, 0.0, 0.0, 0.0, 1.420864, 0.0, 0.0, 0.0, 3.069504)",2
2025/07/05/17:49:47.670460,10437,1751712587,587147008,base_link,0,1,-7.2871869,112.796041,50.40525408192595,"(1.420864, 0.0, 0.0, 0.0, 1.420864, 0.0, 0.0, 0.0, 3.0870489999999995)",2
2025/07/05/17:49:47.770387,10438,1751712587,587147008,base_link,0,1,-7.2871869,112.796041,50.40525408192595,"(1.420864, 0.0, 0.0, 0.0, 1.420864, 0.0, 0.0, 0.0, 3.0870489999999995)",2
2025/07/05/17:49:47.871283,10439,1751712587,787147008,base_link,0,1,-7.287187,112.7960431,50.445260383074896,"(1.420864, 0.0, 0.0, 0.0, 1.420864, 0.0, 0.0, 0.0, 3.0976)",2
2025/07/05/17:49:47.991969,10440,1751712587,787147008,base_link,0,1,-7.287187,112.7960431,50.445260383074896,"(1.420864, 0.0, 0.0, 0.0, 1.420864, 0.0, 0.0, 0.0, 3.0976)",2
2025/07/05/17:49:48.091839,10441,1751712587,987147008,base_link,0,1,-7.2871871,112.7960452,50.435266684210255,"(1.418481, 0.0, 0.0, 0.0, 1.418481, 0.0, 0.0, 0.0, 3.1081689999999997)",2
2025/07/05/17:49:48.191815,10442,1751712587,987147008,base_link,0,1,-7.2871871,112.7960452,50.435266684210255,"(1.418481, 0.0, 0.0, 0.0, 1.418481, 0.0, 0.0, 0.0, 3.1081689999999997)",2
2025/07/05/17:49:48.271482,10443,1751712588,187147008,base_link,0,1,-7.2871873,112.7960473,50.46527273160316,"(1.418481, 0.0, 0.0, 0.0, 1.418481, 0.0, 0.0, 0.0, 3.122289)",2
2025/07/05/17:49:48.371184,10444,1751712588,187147008,base_link,0,1,-7.2871873,112.7960473,50.46527273160316,"(1.418481, 0.0, 0.0, 0.0, 1.418481, 0.0, 0.0, 0.0, 3.122289)",2
2025/07/05/17:49:48.552711,10445,1751712588,387147008,base_link,0,1,-7.2871877,112.7960495,50.44527858365737,"(1.4161, 0.0, 0.0, 0.0, 1.4161, 0.0, 0.0, 0.0, 3.1364409999999996)",2
2025/07/05/17:49:48.651939,10446,1751712588,587147008,base_link,0,1,-7.2871881,112.7960517,50.44528443569348,"(1.4137210000000002, 0.0, 0.0, 0.0, 1.4137210000000002, 0.0, 0.0, 0.0, 3.1329000000000002)",2
2025/07/05/17:49:48.750912,10447,1751712588,587147008,base_link,0,1,-7.2871881,112.7960517,50.44528443569348,"(1.4137210000000002, 0.0, 0.0, 0.0, 1.4137210000000002, 0.0, 0.0, 0.0, 3.1329000000000002)",2
2025/07/05/17:49:48.852401,10448,1751712588,787147008,base_link,0,1,-7.2871889,112.796054,50.38528958492569,"(1.4089690000000001, 0.0, 0.0, 0.0, 1.4089690000000001, 0.0, 0.0, 0.0, 3.150625)",2
2025/07/05/17:49:48.950937,10449,1751712588,787147008,base_link,0,1,-7.2871889,112.796054,50.38528958492569,"(1.4089690000000001, 0.0, 0.0, 0.0, 1.4089690000000001, 0.0, 0.0, 0.0, 3.150625)",2
2025/07/05/17:49:49.052539,10450,1751712588,987147008,base_link,0,1,-7.2871895,112.7960564,50.405295553728045,"(1.404225, 0.0, 0.0, 0.0, 1.404225, 0.0, 0.0, 0.0, 3.1648409999999996)",2
2025/07/05/17:49:49.150625,10451,1751712588,987147008,base_link,0,1,-7.2871895,112.7960564,50.405295553728045,"(1.404225, 0.0, 0.0, 0.0, 1.404225, 0.0, 0.0, 0.0, 3.1648409999999996)",2
2025/07/05/17:49:49.252525,10452,1751712589,187147008,base_link,0,1,-7.2871901,112.7960586,50.43530089824551,"(1.3971239999999998, 0.0, 0.0, 0.0, 1.3971239999999998, 0.0, 0.0, 0.0, 3.1719609999999996)",2
2025/07/05/17:49:49.350926,10453,1751712589,187147008,base_link,0,1,-7.2871901,112.7960586,50.43530089824551,"(1.3971239999999998, 0.0, 0.0, 0.0, 1.3971239999999998, 0.0, 0.0, 0.0, 3.1719609999999996)",2
2025/07/05/17:49:49.530465,10454,1751712589,387147008,base_link,0,1,-7.2871907,112.7960609,50.39530655487421,"(1.3947610000000001, 0.0, 0.0, 0.0, 1.3947610000000001, 0.0, 0.0, 0.0, 3.182656)",2
2025/07/05/17:49:49.633461,10455,1751712589,587147008,base_link,0,1,-7.287191,112.7960633,50.3653132848025,"(1.390041, 0.0, 0.0, 0.0, 1.390041, 0.0, 0.0, 0.0, 3.186225)",2
2025/07/05/17:49:49.712838,10456,1751712589,587147008,base_link,0,1,-7.287191,112.7960633,50.3653132848025,"(1.390041, 0.0, 0.0, 0.0, 1.390041, 0.0, 0.0, 0.0, 3.186225)",2
2025/07/05/17:49:49.812667,10457,1751712589,787147008,base_link,0,1,-7.2871908,112.7960656,50.38532097123837,"(1.3829759999999998, 0.0, 0.0, 0.0, 1.3829759999999998, 0.0, 0.0, 0.0, 3.182656)",2
2025/07/05/17:49:49.911801,10458,1751712589,787147008,base_link,0,1,-7.2871908,112.7960656,50.38532097123837,"(1.3829759999999998, 0.0, 0.0, 0.0, 1.3829759999999998, 0.0, 0.0, 0.0, 3.182656)",2
2025/07/05/17:49:50.012214,10459,1751712589,987147008,base_link,0,1,-7.2871906,112.7960679,50.32532865766377,"(1.3829759999999998, 0.0, 0.0, 0.0, 1.3829759999999998, 0.0, 0.0, 0.0, 3.1897960000000003)",2
2025/07/05/17:49:50.091227,10460,1751712589,987147008,base_link,0,1,-7.2871906,112.7960679,50.32532865766377,"(1.3829759999999998, 0.0, 0.0, 0.0, 1.3829759999999998, 0.0, 0.0, 0.0, 3.1897960000000003)",2
2025/07/05/17:49:50.191983,10461,1751712589,987147008,base_link,0,1,-7.2871906,112.7960679,50.32532865766377,"(1.3829759999999998, 0.0, 0.0, 0.0, 1.3829759999999998, 0.0, 0.0, 0.0, 3.1897960000000003)",2
2025/07/05/17:49:50.272780,10462,1751712590,187147008,base_link,0,1,-7.2871906,112.7960704,50.31533646086689,"(1.387684, 0.0, 0.0, 0.0, 1.387684, 0.0, 0.0, 0.0, 3.218436)",2
2025/07/05/17:49:50.352183,10463,1751712590,187147008,base_link,0,1,-7.2871906,112.7960704,50.31533646086689,"(1.387684, 0.0, 0.0, 0.0, 1.387684, 0.0, 0.0, 0.0, 3.218436)",2
2025/07/05/17:49:50.511510,10464,1751712590,387147008,base_link,0,1,-7.2871909,112.796073,50.33534381497624,"(1.387684, 0.0, 0.0, 0.0, 1.387684, 0.0, 0.0, 0.0, 3.225616)",2
2025/07/05/17:49:50.611793,10465,1751712590,587147008,base_link,0,1,-7.2871914,112.7960756,50.26535066159225,"(1.3806250000000002, 0.0, 0.0, 0.0, 1.3806250000000002, 0.0, 0.0, 0.0, 3.2328040000000002)",2
2025/07/05/17:49:50.691425,10466,1751712590,587147008,base_link,0,1,-7.2871914,112.7960756,50.26535066159225,"(1.3806250000000002, 0.0, 0.0, 0.0, 1.3806250000000002, 0.0, 0.0, 0.0, 3.2328040000000002)",2
2025/07/05/17:49:50.792100,10467,1751712590,587147008,base_link,0,1,-7.2871914,112.7960756,50.26535066159225,"(1.3806250000000002, 0.0, 0.0, 0.0, 1.3806250000000002, 0.0, 0.0, 0.0, 3.2328040000000002)",2
2025/07/05/17:49:50.891418,10468,1751712590,787147008,base_link,0,1,-7.2871921,112.7960778,50.26535575221219,"(1.3712410000000002, 0.0, 0.0, 0.0, 1.3712410000000002, 0.0, 0.0, 0.0, 3.254416)",2
2025/07/05/17:49:51.012363,10469,1751712590,987147008,base_link,0,1,-7.2871933,112.7960799,50.175359262016414,"(1.3665610000000001, 0.0, 0.0, 0.0, 1.3665610000000001, 0.0, 0.0, 0.0, 3.265249)",2
2025/07/05/17:49:51.091451,10470,1751712590,987147008,base_link,0,1,-7.2871933,112.7960799,50.175359262016414,"(1.3665610000000001, 0.0, 0.0, 0.0, 1.3665610000000001, 0.0, 0.0, 0.0, 3.265249)",2
2025/07/05/17:49:51.191502,10471,1751712590,987147008,base_link,0,1,-7.2871933,112.7960799,50.175359262016414,"(1.3665610000000001, 0.0, 0.0, 0.0, 1.3665610000000001, 0.0, 0.0, 0.0, 3.265249)",2
2025/07/05/17:49:51.270643,10472,1751712591,187147008,base_link,0,1,-7.2871941,112.7960824,50.21536503523432,"(1.3688999999999998, 0.0, 0.0, 0.0, 1.3688999999999998, 0.0, 0.0, 0.0, 3.2905960000000003)",2
2025/07/05/17:49:51.351485,10473,1751712591,187147008,base_link,0,1,-7.2871941,112.7960824,50.21536503523432,"(1.3688999999999998, 0.0, 0.0, 0.0, 1.3688999999999998, 0.0, 0.0, 0.0, 3.2905960000000003)",2
2025/07/05/17:49:51.530547,10474,1751712591,387147008,base_link,0,1,-7.2871946,112.7960848,50.1653712575079,"(1.373584, 0.0, 0.0, 0.0, 1.373584, 0.0, 0.0, 0.0, 3.305124)",2
2025/07/05/17:49:51.652116,10475,1751712591,587147008,base_link,0,1,-7.2871946,112.7960875,50.21537968479961,"(1.3782759999999998, 0.0, 0.0, 0.0, 1.3782759999999998, 0.0, 0.0, 0.0, 3.316041)",2
2025/07/05/17:49:51.730224,10476,1751712591,587147008,base_link,0,1,-7.2871946,112.7960875,50.21537968479961,"(1.3782759999999998, 0.0, 0.0, 0.0, 1.3782759999999998, 0.0, 0.0, 0.0, 3.316041)",2
2025/07/05/17:49:51.829990,10477,1751712591,787147008,base_link,0,1,-7.2871944,112.7960899,50.24538768318193,"(1.3759290000000002, 0.0, 0.0, 0.0, 1.3759290000000002, 0.0, 0.0, 0.0, 3.316041)",2
2025/07/05/17:49:51.912785,10478,1751712591,787147008,base_link,0,1,-7.2871944,112.7960899,50.24538768318193,"(1.3759290000000002, 0.0, 0.0, 0.0, 1.3759290000000002, 0.0, 0.0, 0.0, 3.316041)",2
2025/07/05/17:49:52.011608,10479,1751712591,987147008,base_link,0,1,-7.2871942,112.7960924,50.26539599367301,"(1.3782759999999998, 0.0, 0.0, 0.0, 1.3782759999999998, 0.0, 0.0, 0.0, 3.3233289999999998)",2
2025/07/05/17:49:52.092011,10480,1751712591,987147008,base_link,0,1,-7.2871942,112.7960924,50.26539599367301,"(1.3782759999999998, 0.0, 0.0, 0.0, 1.3782759999999998, 0.0, 0.0, 0.0, 3.3233289999999998)",2
2025/07/05/17:49:52.191401,10481,1751712591,987147008,base_link,0,1,-7.2871942,112.7960924,50.26539599367301,"(1.3782759999999998, 0.0, 0.0, 0.0, 1.3782759999999998, 0.0, 0.0, 0.0, 3.3233289999999998)",2
2025/07/05/17:49:52.272959,10482,1751712592,187147008,base_link,0,1,-7.2871938,112.7960949,50.285404811629775,"(1.385329, 0.0, 0.0, 0.0, 1.385329, 0.0, 0.0, 0.0, 3.3342760000000005)",2
2025/07/05/17:49:52.391549,10483,1751712592,187147008,base_link,0,1,-7.2871938,112.7960949,50.285404811629775,"(1.385329, 0.0, 0.0, 0.0, 1.385329, 0.0, 0.0, 0.0, 3.3342760000000005)",2
2025/07/05/17:49:52.570344,10484,1751712592,387147008,base_link,0,1,-7.2871933,112.7960972,50.275413259081304,"(1.3923999999999999, 0.0, 0.0, 0.0, 1.3923999999999999, 0.0, 0.0, 0.0, 3.341584)",2
2025/07/05/17:49:52.672019,10485,1751712592,587147008,base_link,0,1,-7.2871928,112.7960996,50.27542201864928,"(1.3994890000000002, 0.0, 0.0, 0.0, 1.3994890000000002, 0.0, 0.0, 0.0, 3.3489000000000004)",2
2025/07/05/17:49:52.791592,10486,1751712592,587147008,base_link,0,1,-7.2871928,112.7960996,50.27542201864928,"(1.3994890000000002, 0.0, 0.0, 0.0, 1.3994890000000002, 0.0, 0.0, 0.0, 3.3489000000000004)",2
2025/07/05/17:49:52.870209,10487,1751712592,787147008,base_link,0,1,-7.287192,112.796102,50.305431539446104,"(1.406596, 0.0, 0.0, 0.0, 1.406596, 0.0, 0.0, 0.0, 3.359889)",2
2025/07/05/17:49:52.991852,10488,1751712592,787147008,base_link,0,1,-7.287192,112.796102,50.305431539446104,"(1.406596, 0.0, 0.0, 0.0, 1.406596, 0.0, 0.0, 0.0, 3.359889)",2
2025/07/05/17:49:53.091571,10489,1751712592,987147008,base_link,0,1,-7.2871911,112.7961043,50.35544100187784,"(1.4161, 0.0, 0.0, 0.0, 1.4161, 0.0, 0.0, 0.0, 3.370896)",2
2025/07/05/17:49:53.191822,10490,1751712592,987147008,base_link,0,1,-7.2871911,112.7961043,50.35544100187784,"(1.4161, 0.0, 0.0, 0.0, 1.4161, 0.0, 0.0, 0.0, 3.370896)",2
2025/07/05/17:49:53.272805,10491,1751712593,187147008,base_link,0,1,-7.2871902,112.7961064,50.37544984008508,"(1.425636, 0.0, 0.0, 0.0, 1.425636, 0.0, 0.0, 0.0, 3.3819209999999997)",2
2025/07/05/17:49:53.415884,10492,1751712593,387147008,base_link,0,1,-7.2871891,112.7961083,50.395458561569214,"(1.4328090000000002, 0.0, 0.0, 0.0, 1.4328090000000002, 0.0, 0.0, 0.0, 3.392964)",2
2025/07/05/17:49:53.591317,10493,1751712593,387147008,base_link,0,1,-7.2871891,112.7961083,50.395458561569214,"(1.4328090000000002, 0.0, 0.0, 0.0, 1.4328090000000002, 0.0, 0.0, 0.0, 3.392964)",2
2025/07/05/17:49:53.671350,10494,1751712593,587147008,base_link,0,1,-7.2871877,112.7961102,50.42546804433216,"(1.44, 0.0, 0.0, 0.0, 1.44, 0.0, 0.0, 0.0, 3.4003360000000002)",2
2025/07/05/17:49:53.771661,10495,1751712593,587147008,base_link,0,1,-7.2871877,112.7961102,50.42546804433216,"(1.44, 0.0, 0.0, 0.0, 1.44, 0.0, 0.0, 0.0, 3.4003360000000002)",2
2025/07/05/17:49:53.872044,10496,1751712593,787147008,base_link,0,1,-7.2871864,112.7961118,50.41547633702058,"(1.444804, 0.0, 0.0, 0.0, 1.444804, 0.0, 0.0, 0.0, 3.407716)",2
2025/07/05/17:49:53.992177,10497,1751712593,987147008,base_link,0,1,-7.2871849,112.7961133,50.41548482513505,"(1.444804, 0.0, 0.0, 0.0, 1.444804, 0.0, 0.0, 0.0, 3.396649)",2
2025/07/05/17:49:54.071188,10498,1751712593,987147008,base_link,0,1,-7.2871849,112.7961133,50.41548482513505,"(1.444804, 0.0, 0.0, 0.0, 1.444804, 0.0, 0.0, 0.0, 3.396649)",2
2025/07/05/17:49:54.191530,10499,1751712593,987147008,base_link,0,1,-7.2871849,112.7961133,50.41548482513505,"(1.444804, 0.0, 0.0, 0.0, 1.444804, 0.0, 0.0, 0.0, 3.396649)",2
2025/07/05/17:49:54.270778,10500,1751712594,187147008,base_link,0,1,-7.2871831,112.7961149,50.40549438668668,"(1.4424010000000003, 0.0, 0.0, 0.0, 1.4424010000000003, 0.0, 0.0, 0.0, 3.404025)",2
2025/07/05/17:49:54.351183,10501,1751712594,187147008,base_link,0,1,-7.2871831,112.7961149,50.40549438668668,"(1.4424010000000003, 0.0, 0.0, 0.0, 1.4424010000000003, 0.0, 0.0, 0.0, 3.404025)",2
2025/07/05/17:49:54.510682,10502,1751712594,387147008,base_link,0,1,-7.287181,112.7961163,50.475504085344824,"(1.4424010000000003, 0.0, 0.0, 0.0, 1.4424010000000003, 0.0, 0.0, 0.0, 3.407716)",2
2025/07/05/17:49:54.612047,10503,1751712594,587147008,base_link,0,1,-7.2871789,112.7961176,50.53551347195497,"(1.444804, 0.0, 0.0, 0.0, 1.444804, 0.0, 0.0, 0.0, 3.4225000000000003)",2
2025/07/05/17:49:54.691449,10504,1751712594,587147008,base_link,0,1,-7.2871789,112.7961176,50.53551347195497,"(1.444804, 0.0, 0.0, 0.0, 1.444804, 0.0, 0.0, 0.0, 3.4225000000000003)",2
2025/07/05/17:49:54.791647,10505,1751712594,587147008,base_link,0,1,-7.2871789,112.7961176,50.53551347195497,"(1.444804, 0.0, 0.0, 0.0, 1.444804, 0.0, 0.0, 0.0, 3.4225000000000003)",2
2025/07/05/17:49:54.911364,10506,1751712594,787147008,base_link,0,1,-7.2871771,112.7961189,50.5355220973278,"(1.444804, 0.0, 0.0, 0.0, 1.444804, 0.0, 0.0, 0.0, 3.441025)",2
2025/07/05/17:49:55.033234,10507,1751712594,987147008,base_link,0,1,-7.287175,112.79612,50.62553085982913,"(1.444804, 0.0, 0.0, 0.0, 1.444804, 0.0, 0.0, 0.0, 3.4558809999999998)",2
2025/07/05/17:49:55.111013,10508,1751712594,987147008,base_link,0,1,-7.287175,112.79612,50.62553085982913,"(1.444804, 0.0, 0.0, 0.0, 1.444804, 0.0, 0.0, 0.0, 3.4558809999999998)",2
2025/07/05/17:49:55.191222,10509,1751712594,987147008,base_link,0,1,-7.287175,112.79612,50.62553085982913,"(1.444804, 0.0, 0.0, 0.0, 1.444804, 0.0, 0.0, 0.0, 3.4558809999999998)",2
2025/07/05/17:49:55.291675,10510,1751712595,187147008,base_link,0,1,-7.2871728,112.796121,50.68553956405312,"(1.44, 0.0, 0.0, 0.0, 1.44, 0.0, 0.0, 0.0, 3.4670440000000005)",2
2025/07/05/17:49:55.450887,10511,1751712595,387147008,base_link,0,1,-7.2871707,112.7961218,50.69554739032964,"(1.4328090000000002, 0.0, 0.0, 0.0, 1.4328090000000002, 0.0, 0.0, 0.0, 3.4558809999999998)",2
2025/07/05/17:49:55.592222,10512,1751712595,387147008,base_link,0,1,-7.2871707,112.7961218,50.69554739032964,"(1.4328090000000002, 0.0, 0.0, 0.0, 1.4328090000000002, 0.0, 0.0, 0.0, 3.4558809999999998)",2
2025/07/05/17:49:55.670189,10513,1751712595,587147008,base_link,0,1,-7.2871684,112.7961222,50.77555447574461,"(1.4328090000000002, 0.0, 0.0, 0.0, 1.4328090000000002, 0.0, 0.0, 0.0, 3.4447360000000002)",2
2025/07/05/17:49:55.791782,10514,1751712595,587147008,base_link,0,1,-7.2871684,112.7961222,50.77555447574461,"(1.4328090000000002, 0.0, 0.0, 0.0, 1.4328090000000002, 0.0, 0.0, 0.0, 3.4447360000000002)",2
2025/07/05/17:49:55.870480,10515,1751712595,787147008,base_link,0,1,-7.2871659,112.7961227,50.80556238092204,"(1.44, 0.0, 0.0, 0.0, 1.44, 0.0, 0.0, 0.0, 3.4558809999999998)",2
2025/07/05/17:49:55.991689,10516,1751712595,987147008,base_link,0,1,-7.2871636,112.7961231,50.835569466486376,"(1.44, 0.0, 0.0, 0.0, 1.44, 0.0, 0.0, 0.0, 3.463321)",2
2025/07/05/17:49:56.091272,10517,1751712595,987147008,base_link,0,1,-7.2871636,112.7961231,50.835569466486376,"(1.44, 0.0, 0.0, 0.0, 1.44, 0.0, 0.0, 0.0, 3.463321)",2
2025/07/05/17:49:56.171404,10518,1751712595,987147008,base_link,0,1,-7.2871636,112.7961231,50.835569466486376,"(1.44, 0.0, 0.0, 0.0, 1.44, 0.0, 0.0, 0.0, 3.463321)",2
2025/07/05/17:49:56.271503,10519,1751712596,187147008,base_link,0,1,-7.287161,112.7961232,50.95557637711856,"(1.44, 0.0, 0.0, 0.0, 1.44, 0.0, 0.0, 0.0, 3.4819560000000003)",2
2025/07/05/17:49:56.412215,10520,1751712596,387147008,base_link,0,1,-7.2871584,112.7961227,51.06558141508006,"(1.4424010000000003, 0.0, 0.0, 0.0, 1.4424010000000003, 0.0, 0.0, 0.0, 3.4969000000000006)",2
2025/07/05/17:49:56.530206,10521,1751712596,387147008,base_link,0,1,-7.2871584,112.7961227,51.06558141508006,"(1.4424010000000003, 0.0, 0.0, 0.0, 1.4424010000000003, 0.0, 0.0, 0.0, 3.4969000000000006)",2
2025/07/05/17:49:56.630309,10522,1751712596,587147008,base_link,0,1,-7.2871558,112.7961222,51.15558645311332,"(1.4424010000000003, 0.0, 0.0, 0.0, 1.4424010000000003, 0.0, 0.0, 0.0, 3.4969000000000006)",2
2025/07/05/17:49:56.712159,10523,1751712596,587147008,base_link,0,1,-7.2871558,112.7961222,51.15558645311332,"(1.4424010000000003, 0.0, 0.0, 0.0, 1.4424010000000003, 0.0, 0.0, 0.0, 3.4969000000000006)",2
2025/07/05/17:49:56.814068,10524,1751712596,787147008,base_link,0,1,-7.2871532,112.7961218,51.235591803346594,"(1.435204, 0.0, 0.0, 0.0, 1.435204, 0.0, 0.0, 0.0, 3.485689)",2
2025/07/05/17:49:56.891407,10525,1751712596,787147008,base_link,0,1,-7.2871532,112.7961218,51.235591803346594,"(1.435204, 0.0, 0.0, 0.0, 1.435204, 0.0, 0.0, 0.0, 3.485689)",2
2025/07/05/17:49:57.013880,10526,1751712596,987147008,base_link,0,1,-7.2871508,112.7961213,51.3155963339201,"(1.430416, 0.0, 0.0, 0.0, 1.430416, 0.0, 0.0, 0.0, 3.493161)",2
2025/07/05/17:49:57.091134,10527,1751712596,987147008,base_link,0,1,-7.2871508,112.7961213,51.3155963339201,"(1.430416, 0.0, 0.0, 0.0, 1.430416, 0.0, 0.0, 0.0, 3.493161)",2
2025/07/05/17:49:57.191259,10528,1751712596,987147008,base_link,0,1,-7.2871508,112.7961213,51.3155963339201,"(1.430416, 0.0, 0.0, 0.0, 1.430416, 0.0, 0.0, 0.0, 3.493161)",2
2025/07/05/17:49:57.310993,10529,1751712597,187147008,base_link,0,1,-7.2871483,112.7961207,51.395600806228416,"(1.428025, 0.0, 0.0, 0.0, 1.428025, 0.0, 0.0, 0.0, 3.500641)",2
2025/07/05/17:49:57.433952,10530,1751712597,387147008,base_link,0,1,-7.2871462,112.7961203,51.385604887633235,"(1.418481, 0.0, 0.0, 0.0, 1.418481, 0.0, 0.0, 0.0, 3.4969000000000006)",2
2025/07/05/17:49:57.591190,10531,1751712597,387147008,base_link,0,1,-7.2871462,112.7961203,51.385604887633235,"(1.418481, 0.0, 0.0, 0.0, 1.418481, 0.0, 0.0, 0.0, 3.4969000000000006)",2
2025/07/05/17:49:57.671088,10532,1751712597,587147008,base_link,0,1,-7.2871439,112.7961194,51.42560791604252,"(1.411344, 0.0, 0.0, 0.0, 1.411344, 0.0, 0.0, 0.0, 3.508129)",2
2025/07/05/17:49:57.791344,10533,1751712597,587147008,base_link,0,1,-7.2871439,112.7961194,51.42560791604252,"(1.411344, 0.0, 0.0, 0.0, 1.411344, 0.0, 0.0, 0.0, 3.508129)",2
2025/07/05/17:49:57.891079,10534,1751712597,787147008,base_link,0,1,-7.2871418,112.7961183,51.425609812606794,"(1.406596, 0.0, 0.0, 0.0, 1.406596, 0.0, 0.0, 0.0, 3.508129)",2
2025/07/05/17:49:57.970081,10535,1751712597,787147008,base_link,0,1,-7.2871418,112.7961183,51.425609812606794,"(1.406596, 0.0, 0.0, 0.0, 1.406596, 0.0, 0.0, 0.0, 3.508129)",2
2025/07/05/17:49:58.070105,10536,1751712597,987147008,base_link,0,1,-7.2871398,112.7961171,51.455611143254956,"(1.4018559999999998, 0.0, 0.0, 0.0, 1.4018559999999998, 0.0, 0.0, 0.0, 3.5193759999999994)",2
2025/07/05/17:49:58.150232,10537,1751712597,987147008,base_link,0,1,-7.2871398,112.7961171,51.455611143254956,"(1.4018559999999998, 0.0, 0.0, 0.0, 1.4018559999999998, 0.0, 0.0, 0.0, 3.5193759999999994)",2
2025/07/05/17:49:58.252439,10538,1751712598,187147008,base_link,0,1,-7.287138,112.7961157,51.41561134202641,"(1.4018559999999998, 0.0, 0.0, 0.0, 1.4018559999999998, 0.0, 0.0, 0.0, 3.5118760000000004)",2
2025/07/05/17:49:58.330038,10539,1751712598,187147008,base_link,0,1,-7.287138,112.7961157,51.41561134202641,"(1.4018559999999998, 0.0, 0.0, 0.0, 1.4018559999999998, 0.0, 0.0, 0.0, 3.5118760000000004)",2
2025/07/05/17:49:58.492120,10540,1751712598,387147008,base_link,0,1,-7.2871361,112.796114,51.515610858218864,"(1.3994890000000002, 0.0, 0.0, 0.0, 1.3994890000000002, 0.0, 0.0, 0.0, 3.5118760000000004)",2
2025/07/05/17:49:58.591425,10541,1751712598,387147008,base_link,0,1,-7.2871361,112.796114,51.515610858218864,"(1.3994890000000002, 0.0, 0.0, 0.0, 1.3994890000000002, 0.0, 0.0, 0.0, 3.5118760000000004)",2
2025/07/05/17:49:58.670306,10542,1751712598,587147008,base_link,0,1,-7.2871344,112.7961125,51.52561049106113,"(1.3994890000000002, 0.0, 0.0, 0.0, 1.3994890000000002, 0.0, 0.0, 0.0, 3.5268839999999995)",2
2025/07/05/17:49:58.791448,10543,1751712598,587147008,base_link,0,1,-7.2871344,112.7961125,51.52561049106113,"(1.3994890000000002, 0.0, 0.0, 0.0, 1.3994890000000002, 0.0, 0.0, 0.0, 3.5268839999999995)",2
2025/07/05/17:49:58.870400,10544,1751712598,787147008,base_link,0,1,-7.2871323,112.7961113,51.50561207561219,"(1.3923999999999999, 0.0, 0.0, 0.0, 1.3923999999999999, 0.0, 0.0, 0.0, 3.538161)",2
2025/07/05/17:49:58.991474,10545,1751712598,787147008,base_link,0,1,-7.2871323,112.7961113,51.50561207561219,"(1.3923999999999999, 0.0, 0.0, 0.0, 1.3923999999999999, 0.0, 0.0, 0.0, 3.538161)",2
2025/07/05/17:49:59.091197,10546,1751712598,987147008,base_link,0,1,-7.2871302,112.7961099,51.485613035912806,"(1.387684, 0.0, 0.0, 0.0, 1.387684, 0.0, 0.0, 0.0, 3.556996)",2
2025/07/05/17:49:59.191371,10547,1751712598,987147008,base_link,0,1,-7.2871302,112.7961099,51.485613035912806,"(1.387684, 0.0, 0.0, 0.0, 1.387684, 0.0, 0.0, 0.0, 3.556996)",2
2025/07/05/17:49:59.272517,10548,1751712599,187147008,base_link,0,1,-7.2871281,112.7961086,51.50561430838067,"(1.3829759999999998, 0.0, 0.0, 0.0, 1.3829759999999998, 0.0, 0.0, 0.0, 3.5645439999999997)",2
2025/07/05/17:49:59.411945,10549,1751712599,387147008,base_link,0,1,-7.2871261,112.796107,51.56561439062153,"(1.3806250000000002, 0.0, 0.0, 0.0, 1.3806250000000002, 0.0, 0.0, 0.0, 3.575881)",2
2025/07/05/17:49:59.530576,10550,1751712599,387147008,base_link,0,1,-7.2871261,112.796107,51.56561439062153,"(1.3806250000000002, 0.0, 0.0, 0.0, 1.3806250000000002, 0.0, 0.0, 0.0, 3.575881)",2
2025/07/05/17:49:59.633301,10551,1751712599,587147008,base_link,0,1,-7.2871243,112.7961054,51.65561396522252,"(1.373584, 0.0, 0.0, 0.0, 1.373584, 0.0, 0.0, 0.0, 3.575881)",2
2025/07/05/17:49:59.730069,10552,1751712599,587147008,base_link,0,1,-7.2871243,112.7961054,51.65561396522252,"(1.373584, 0.0, 0.0, 0.0, 1.373584, 0.0, 0.0, 0.0, 3.575881)",2
2025/07/05/17:49:59.832955,10553,1751712599,787147008,base_link,0,1,-7.2871226,112.7961036,51.70561266171383,"(1.3665610000000001, 0.0, 0.0, 0.0, 1.3665610000000001, 0.0, 0.0, 0.0, 3.5645439999999997)",2
2025/07/05/17:49:59.930437,10554,1751712599,787147008,base_link,0,1,-7.2871226,112.7961036,51.70561266171383,"(1.3665610000000001, 0.0, 0.0, 0.0, 1.3665610000000001, 0.0, 0.0, 0.0, 3.5645439999999997)",2
2025/07/05/17:50:00.050813,10555,1751712599,987147008,base_link,0,1,-7.2871211,112.7961016,51.735610226253655,"(1.3642239999999999, 0.0, 0.0, 0.0, 1.3642239999999999, 0.0, 0.0, 0.0, 3.556996)",2
2025/07/05/17:50:00.171217,10556,1751712599,987147008,base_link,0,1,-7.2871211,112.7961016,51.735610226253655,"(1.3642239999999999, 0.0, 0.0, 0.0, 1.3642239999999999, 0.0, 0.0, 0.0, 3.556996)",2
2025/07/05/17:50:00.252588,10557,1751712600,187147008,base_link,0,1,-7.2871197,112.7960995,51.79560722480773,"(1.3618890000000001, 0.0, 0.0, 0.0, 1.3618890000000001, 0.0, 0.0, 0.0, 3.5494559999999997)",2
2025/07/05/17:50:00.350932,10558,1751712600,187147008,base_link,0,1,-7.2871197,112.7960995,51.79560722480773,"(1.3618890000000001, 0.0, 0.0, 0.0, 1.3618890000000001, 0.0, 0.0, 0.0, 3.5494559999999997)",2
2025/07/05/17:50:00.530187,10559,1751712600,387147008,base_link,0,1,-7.2871181,112.7960974,51.85560473101601,"(1.3572250000000001, 0.0, 0.0, 0.0, 1.3572250000000001, 0.0, 0.0, 0.0, 3.560769)",2
2025/07/05/17:50:00.612515,10560,1751712600,587147008,base_link,0,1,-7.2871163,112.7960956,51.92560368133469,"(1.3525690000000001, 0.0, 0.0, 0.0, 1.3525690000000001, 0.0, 0.0, 0.0, 3.575881)",2
2025/07/05/17:50:00.691274,10561,1751712600,587147008,base_link,0,1,-7.2871163,112.7960956,51.92560368133469,"(1.3525690000000001, 0.0, 0.0, 0.0, 1.3525690000000001, 0.0, 0.0, 0.0, 3.575881)",2
2025/07/05/17:50:00.791622,10562,1751712600,587147008,base_link,0,1,-7.2871163,112.7960956,51.92560368133469,"(1.3525690000000001, 0.0, 0.0, 0.0, 1.3525690000000001, 0.0, 0.0, 0.0, 3.575881)",2
2025/07/05/17:50:00.892010,10563,1751712600,787147008,base_link,0,1,-7.2871147,112.7960939,51.955602436138506,"(1.3479210000000001, 0.0, 0.0, 0.0, 1.3479210000000001, 0.0, 0.0, 0.0, 3.583449)",2
2025/07/05/17:50:00.970644,10564,1751712600,787147008,base_link,0,1,-7.2871147,112.7960939,51.955602436138506,"(1.3479210000000001, 0.0, 0.0, 0.0, 1.3479210000000001, 0.0, 0.0, 0.0, 3.583449)",2
2025/07/05/17:50:01.070029,10565,1751712600,987147008,base_link,0,1,-7.2871131,112.7960922,51.93560119094459,"(1.3432810000000002, 0.0, 0.0, 0.0, 1.3432810000000002, 0.0, 0.0, 0.0, 3.568321)",2
2025/07/05/17:50:01.191152,10566,1751712600,987147008,base_link,0,1,-7.2871131,112.7960922,51.93560119094459,"(1.3432810000000002, 0.0, 0.0, 0.0, 1.3432810000000002, 0.0, 0.0, 0.0, 3.568321)",2
2025/07/05/17:50:01.270758,10567,1751712601,187147008,base_link,0,1,-7.2871117,112.7960902,51.92559850161801,"(1.3409639999999998, 0.0, 0.0, 0.0, 1.3409639999999998, 0.0, 0.0, 0.0, 3.5494559999999997)",2
2025/07/05/17:50:01.391225,10568,1751712601,187147008,base_link,0,1,-7.2871117,112.7960902,51.92559850161801,"(1.3409639999999998, 0.0, 0.0, 0.0, 1.3409639999999998, 0.0, 0.0, 0.0, 3.5494559999999997)",2
2025/07/05/17:50:01.571226,10569,1751712601,387147008,base_link,0,1,-7.2871103,112.7960883,51.92559612443675,"(1.338649, 0.0, 0.0, 0.0, 1.338649, 0.0, 0.0, 0.0, 3.538161)",2
2025/07/05/17:50:01.670579,10570,1751712601,587147008,base_link,0,1,-7.2871089,112.7960864,51.94559374724898,"(1.338649, 0.0, 0.0, 0.0, 1.338649, 0.0, 0.0, 0.0, 3.5343999999999998)",2
2025/07/05/17:50:01.751377,10571,1751712601,587147008,base_link,0,1,-7.2871089,112.7960864,51.94559374724898,"(1.338649, 0.0, 0.0, 0.0, 1.338649, 0.0, 0.0, 0.0, 3.5343999999999998)",2
2025/07/05/17:50:01.850758,10572,1751712601,787147008,base_link,0,1,-7.2871074,112.7960846,51.93559193605153,"(1.3224999999999998, 0.0, 0.0, 0.0, 1.3224999999999998, 0.0, 0.0, 0.0, 3.538161)",2
2025/07/05/17:50:01.990972,10573,1751712601,787147008,base_link,0,1,-7.2871074,112.7960846,51.93559193605153,"(1.3224999999999998, 0.0, 0.0, 0.0, 1.3224999999999998, 0.0, 0.0, 0.0, 3.538161)",2
2025/07/05/17:50:02.069808,10574,1751712601,987147008,base_link,0,1,-7.2871059,112.796083,51.89559074916609,"(1.311025, 0.0, 0.0, 0.0, 1.311025, 0.0, 0.0, 0.0, 3.5419239999999994)",2
2025/07/05/17:50:02.169771,10575,1751712601,987147008,base_link,0,1,-7.2871059,112.796083,51.89559074916609,"(1.311025, 0.0, 0.0, 0.0, 1.311025, 0.0, 0.0, 0.0, 3.5419239999999994)",2
2025/07/05/17:50:02.251776,10576,1751712602,187147008,base_link,0,1,-7.2871044,112.7960811,51.935588625807775,"(1.2995999999999999, 0.0, 0.0, 0.0, 1.2995999999999999, 0.0, 0.0, 0.0, 3.5419239999999994)",2
2025/07/05/17:50:02.351446,10577,1751712602,187147008,base_link,0,1,-7.2871044,112.7960811,51.935588625807775,"(1.2995999999999999, 0.0, 0.0, 0.0, 1.2995999999999999, 0.0, 0.0, 0.0, 3.5419239999999994)",2
2025/07/05/17:50:02.529985,10578,1751712602,387147008,base_link,0,1,-7.2871032,112.7960791,51.975585428753504,"(1.292769, 0.0, 0.0, 0.0, 1.292769, 0.0, 0.0, 0.0, 3.530641)",2
2025/07/05/17:50:02.633528,10579,1751712602,587147008,base_link,0,1,-7.2871022,112.7960771,51.93558172399843,"(1.292769, 0.0, 0.0, 0.0, 1.292769, 0.0, 0.0, 0.0, 3.5193759999999994)",2
2025/07/05/17:50:02.712389,10580,1751712602,587147008,base_link,0,1,-7.2871022,112.7960771,51.93558172399843,"(1.292769, 0.0, 0.0, 0.0, 1.292769, 0.0, 0.0, 0.0, 3.5193759999999994)",2
2025/07/05/17:50:02.811666,10581,1751712602,787147008,base_link,0,1,-7.287101,112.7960752,51.87557883907999,"(1.2950439999999999, 0.0, 0.0, 0.0, 1.2950439999999999, 0.0, 0.0, 0.0, 3.5268839999999995)",2
2025/07/05/17:50:02.891828,10582,1751712602,787147008,base_link,0,1,-7.287101,112.7960752,51.87557883907999,"(1.2950439999999999, 0.0, 0.0, 0.0, 1.2950439999999999, 0.0, 0.0, 0.0, 3.5268839999999995)",2
2025/07/05/17:50:02.992412,10583,1751712602,987147008,base_link,0,1,-7.2870994,112.7960735,51.83557759386012,"(1.2995999999999999, 0.0, 0.0, 0.0, 1.2995999999999999, 0.0, 0.0, 0.0, 3.530641)",2
2025/07/05/17:50:03.072808,10584,1751712602,987147008,base_link,0,1,-7.2870994,112.7960735,51.83557759386012,"(1.2995999999999999, 0.0, 0.0, 0.0, 1.2995999999999999, 0.0, 0.0, 0.0, 3.530641)",2
2025/07/05/17:50:03.191711,10585,1751712602,987147008,base_link,0,1,-7.2870994,112.7960735,51.83557759386012,"(1.2995999999999999, 0.0, 0.0, 0.0, 1.2995999999999999, 0.0, 0.0, 0.0, 3.530641)",2
2025/07/05/17:50:03.271169,10586,1751712603,187147008,base_link,0,1,-7.2870979,112.7960717,51.74557578263166,"(1.297321, 0.0, 0.0, 0.0, 1.297321, 0.0, 0.0, 0.0, 3.5343999999999998)",2
2025/07/05/17:50:03.369988,10587,1751712603,187147008,base_link,0,1,-7.2870979,112.7960717,51.74557578263166,"(1.297321, 0.0, 0.0, 0.0, 1.297321, 0.0, 0.0, 0.0, 3.5343999999999998)",2
2025/07/05/17:50:03.551468,10588,1751712603,387147008,base_link,0,1,-7.2870967,112.7960697,51.71557258552692,"(1.2904959999999999, 0.0, 0.0, 0.0, 1.2904959999999999, 0.0, 0.0, 0.0, 3.530641)",2
2025/07/05/17:50:03.650895,10589,1751712603,587147008,base_link,0,1,-7.2870955,112.7960677,51.69556938841015,"(1.288225, 0.0, 0.0, 0.0, 1.288225, 0.0, 0.0, 0.0, 3.530641)",2
2025/07/05/17:50:03.751091,10590,1751712603,587147008,base_link,0,1,-7.2870955,112.7960677,51.69556938841015,"(1.288225, 0.0, 0.0, 0.0, 1.288225, 0.0, 0.0, 0.0, 3.530641)",2
2025/07/05/17:50:03.851651,10591,1751712603,787147008,base_link,0,1,-7.287094,112.7960655,51.775566328497305,"(1.2859559999999999, 0.0, 0.0, 0.0, 1.2859559999999999, 0.0, 0.0, 0.0, 3.5268839999999995)",2
2025/07/05/17:50:03.950285,10592,1751712603,787147008,base_link,0,1,-7.287094,112.7960655,51.775566328497305,"(1.2859559999999999, 0.0, 0.0, 0.0, 1.2859559999999999, 0.0, 0.0, 0.0, 3.5268839999999995)",2
2025/07/05/17:50:04.052280,10593,1751712603,987147008,base_link,0,1,-7.2870925,112.7960633,51.775563268573066,"(1.288225, 0.0, 0.0, 0.0, 1.288225, 0.0, 0.0, 0.0, 3.5343999999999998)",2
