time,.header.seq,.header.stamp.secs,.header.stamp.nsecs,.header.frame_id,.child_frame_id,.pose.pose.position.x,.pose.pose.position.y,.pose.pose.position.z,.pose.pose.orientation.x,.pose.pose.orientation.y,.pose.pose.orientation.z,.pose.pose.orientation.w,.pose.covariance,.twist.twist.linear.x,.twist.twist.linear.y,.twist.twist.linear.z,.twist.twist.angular.x,.twist.twist.angular.y,.twist.twist.angular.z,.twist.covariance
2025/07/05/17:49:30.931211,10277,1751712570,940147008,map,base_link,0.26502536149154365,-2.919657377289447,-3.357,-0.04823575707955357,-0.048114415479261735,0.5921074568720106,-0.8029738938960663,"(1.7503289999999998, 0.0, 0.0, 0.0, 0.0, 0.0, 0.0, 1.7503289999999998, 0.0, 0.0, 0.0, 0.0, 0.0, 0.0, 4.096576, 0.0, 0.0, 0.0, 0.0, 0.0, 0.0, 99999.0, 0.0, 0.0, 0.0, 0.0, 0.0, 0.0, 99999.0, 0.0, 0.0, 0.0, 0.0, 0.0, 0.0, 99999.0)",0.0,-0.19,0.0,0.0,0.0,0.0,"(-1.0, 0.0, 0.0, 0.0, 0.0, 0.0, 0.0, 0.0, 0.0, 0.0, 0.0, 0.0, 0.0, 0.0, 0.0, 0.0, 0.0, 0.0, 0.0, 0.0, 0.0, 0.0, 0.0, 0.0, 0.0, 0.0, 0.0, 0.0, 0.0, 0.0, 0.0, 0.0, 0.0, 0.0, 0.0, 0.0)"
2025/07/05/17:49:31.031066,10278,1751712571,40147008,map,base_link,0.2650253615565188,-2.941775993854785,-3.356,-0.04792660816790173,-0.048700518819793905,0.5891107357865868,-0.8051582705761582,"(1.7503289999999998, 0.0, 0.0, 0.0, 0.0, 0.0, 0.0, 1.7503289999999998, 0.0, 0.0, 0.0, 0.0, 0.0, 0.0, 4.096576, 0.0, 0.0, 0.0, 0.0, 0.0, 0.0, 99999.0, 0.0, 0.0, 0.0, 0.0, 0.0, 0.0, 99999.0, 0.0, 0.0, 0.0, 0.0, 0.0, 0.0, 99999.0)",0.0,-0.19,0.0,0.0,0.0,0.0,"(-1.0, 0.0, 0.0, 0.0, 0.0, 0.0, 0.0, 0.0, 0.0, 0.0, 0.0, 0.0, 0.0, 0.0, 0.0, 0.0, 0.0, 0.0, 0.0, 0.0, 0.0, 0.0, 0.0, 0.0, 0.0, 0.0, 0.0, 0.0, 0.0, 0.0, 0.0, 0.0, 0.0, 0.0, 0.0, 0.0)"
2025/07/05/17:49:31.131268,10279,1751712571,140147008,map,base_link,0.2650253611922051,-2.9638946100965824,-3.357,-0.04779821521778762,-0.04901976778235104,0.5862093889863232,-0.8072613859542892,"(1.755625, 0.0, 0.0, 0.0, 0.0, 0.0, 0.0, 1.755625, 0.0, 0.0, 0.0, 0.0, 0.0, 0.0, 4.108729, 0.0, 0.0, 0.0, 0.0, 0.0, 0.0, 99999.0, 0.0, 0.0, 0.0, 0.0, 0.0, 0.0, 99999.0, 0.0, 0.0, 0.0, 0.0, 0.0, 0.0, 99999.0)",0.0,-0.19,0.0,0.0,0.0,0.0,"(-1.0, 0.0, 0.0, 0.0, 0.0, 0.0, 0.0, 0.0, 0.0, 0.0, 0.0, 0.0, 0.0, 0.0, 0.0, 0.0, 0.0, 0.0, 0.0, 0.0, 0.0, 0.0, 0.0, 0.0, 0.0, 0.0, 0.0, 0.0, 0.0, 0.0, 0.0, 0.0, 0.0, 0.0, 0.0, 0.0)"
2025/07/05/17:49:31.233738,10280,1751712571,243147008,map,base_link,0.26502536118873277,-2.9860132266782333,-3.358,-0.04797162526702975,-0.04890045322150972,0.5831831089592963,-0.8094472992533485,"(1.755625, 0.0, 0.0, 0.0, 0.0, 0.0, 0.0, 1.755625, 0.0, 0.0, 0.0, 0.0, 0.0, 0.0, 4.108729, 0.0, 0.0, 0.0, 0.0, 0.0, 0.0, 99999.0, 0.0, 0.0, 0.0, 0.0, 0.0, 0.0, 99999.0, 0.0, 0.0, 0.0, 0.0, 0.0, 0.0, 99999.0)",0.0,-0.19,0.0,0.0,0.0,0.0,"(-1.0, 0.0, 0.0, 0.0, 0.0, 0.0, 0.0, 0.0, 0.0, 0.0, 0.0, 0.0, 0.0, 0.0, 0.0, 0.0, 0.0, 0.0, 0.0, 0.0, 0.0, 0.0, 0.0, 0.0, 0.0, 0.0, 0.0, 0.0, 0.0, 0.0, 0.0, 0.0, 0.0, 0.0, 0.0, 0.0)"
2025/07/05/17:49:31.331686,10281,1751712571,340147008,map,base_link,0.2650253607598778,-2.9970725302805263,-3.36,-0.04831761287523649,-0.04855840252214796,0.5800550839535223,-0.8116918069133187,"(1.7635840000000003, 0.0, 0.0, 0.0, 0.0, 0.0, 0.0, 1.7635840000000003, 0.0, 0.0, 0.0, 0.0, 0.0, 0.0, 4.108729, 0.0, 0.0, 0.0, 0.0, 0.0, 0.0, 99999.0, 0.0, 0.0, 0.0, 0.0, 0.0, 0.0, 99999.0, 0.0, 0.0, 0.0, 0.0, 0.0, 0.0, 99999.0)",0.0,-0.18,0.0,0.0,0.0,0.0,"(-1.0, 0.0, 0.0, 0.0, 0.0, 0.0, 0.0, 0.0, 0.0, 0.0, 0.0, 0.0, 0.0, 0.0, 0.0, 0.0, 0.0, 0.0, 0.0, 0.0, 0.0, 0.0, 0.0, 0.0, 0.0, 0.0, 0.0, 0.0, 0.0, 0.0, 0.0, 0.0, 0.0, 0.0, 0.0, 0.0)"
2025/07/05/17:49:31.492741,10282,1751712571,502147008,map,base_link,0.2650253608573405,-3.0302504547243703,-3.36,-0.04795216084644746,-0.04859245589212354,0.5750825707246042,-0.815241927497175,"(1.7635840000000003, 0.0, 0.0, 0.0, 0.0, 0.0, 0.0, 1.7635840000000003, 0.0, 0.0, 0.0, 0.0, 0.0, 0.0, 4.108729, 0.0, 0.0, 0.0, 0.0, 0.0, 0.0, 99999.0, 0.0, 0.0, 0.0, 0.0, 0.0, 0.0, 99999.0, 0.0, 0.0, 0.0, 0.0, 0.0, 0.0, 99999.0)",0.0,-0.18,0.0,0.0,0.0,0.0,"(-1.0, 0.0, 0.0, 0.0, 0.0, 0.0, 0.0, 0.0, 0.0, 0.0, 0.0, 0.0, 0.0, 0.0, 0.0, 0.0, 0.0, 0.0, 0.0, 0.0, 0.0, 0.0, 0.0, 0.0, 0.0, 0.0, 0.0, 0.0, 0.0, 0.0, 0.0, 0.0, 0.0, 0.0, 0.0, 0.0)"
2025/07/05/17:49:31.591656,10283,1751712571,601147008,map,base_link,0.26502536107737984,-3.0413097678681424,-3.358,-0.04700435614066085,-0.04932608644817494,0.5720905256077764,-0.81735546625035,"(1.7635840000000003, 0.0, 0.0, 0.0, 0.0, 0.0, 0.0, 1.7635840000000003, 0.0, 0.0, 0.0, 0.0, 0.0, 0.0, 4.1046759999999995, 0.0, 0.0, 0.0, 0.0, 0.0, 0.0, 99999.0, 0.0, 0.0, 0.0, 0.0, 0.0, 0.0, 99999.0, 0.0, 0.0, 0.0, 0.0, 0.0, 0.0, 99999.0)",0.0,-0.17,0.0,0.0,0.0,0.0,"(-1.0, 0.0, 0.0, 0.0, 0.0, 0.0, 0.0, 0.0, 0.0, 0.0, 0.0, 0.0, 0.0, 0.0, 0.0, 0.0, 0.0, 0.0, 0.0, 0.0, 0.0, 0.0, 0.0, 0.0, 0.0, 0.0, 0.0, 0.0, 0.0, 0.0, 0.0, 0.0, 0.0, 0.0, 0.0, 0.0)"
2025/07/05/17:49:31.671901,10284,1751712571,680147008,map,base_link,0.26502536071306615,-3.063428384456365,-3.357,-0.04623115088131527,-0.05000878532057574,0.5697481995242644,-0.8189925464971026,"(1.7635840000000003, 0.0, 0.0, 0.0, 0.0, 0.0, 0.0, 1.7635840000000003, 0.0, 0.0, 0.0, 0.0, 0.0, 0.0, 4.100625, 0.0, 0.0, 0.0, 0.0, 0.0, 0.0, 99999.0, 0.0, 0.0, 0.0, 0.0, 0.0, 0.0, 99999.0, 0.0, 0.0, 0.0, 0.0, 0.0, 0.0, 99999.0)",0.0,-0.17,0.0,0.0,0.0,0.0,"(-1.0, 0.0, 0.0, 0.0, 0.0, 0.0, 0.0, 0.0, 0.0, 0.0, 0.0, 0.0, 0.0, 0.0, 0.0, 0.0, 0.0, 0.0, 0.0, 0.0, 0.0, 0.0, 0.0, 0.0, 0.0, 0.0, 0.0, 0.0, 0.0, 0.0, 0.0, 0.0, 0.0, 0.0, 0.0, 0.0)"
2025/07/05/17:49:31.751853,10285,1751712571,760147008,map,base_link,0.2760680851500079,-3.074487692858127,-3.356,-0.045891381109925265,-0.05037113908592927,0.5673652361415086,-0.8206420768551292,"(1.7635840000000003, 0.0, 0.0, 0.0, 0.0, 0.0, 0.0, 1.7635840000000003, 0.0, 0.0, 0.0, 0.0, 0.0, 0.0, 4.100625, 0.0, 0.0, 0.0, 0.0, 0.0, 0.0, 99999.0, 0.0, 0.0, 0.0, 0.0, 0.0, 0.0, 99999.0, 0.0, 0.0, 0.0, 0.0, 0.0, 0.0, 99999.0)",0.0,-0.17,0.0,0.0,0.0,0.0,"(-1.0, 0.0, 0.0, 0.0, 0.0, 0.0, 0.0, 0.0, 0.0, 0.0, 0.0, 0.0, 0.0, 0.0, 0.0, 0.0, 0.0, 0.0, 0.0, 0.0, 0.0, 0.0, 0.0, 0.0, 0.0, 0.0, 0.0, 0.0, 0.0, 0.0, 0.0, 0.0, 0.0, 0.0, 0.0, 0.0)"
2025/07/05/17:49:31.851001,10286,1751712571,860147008,map,base_link,0.2871108076098885,-3.0966063092201925,-3.357,-0.04619920729495192,-0.05021395541483757,0.564323429580184,-0.8227291527311852,"(1.755625, 0.0, 0.0, 0.0, 0.0, 0.0, 0.0, 1.755625, 0.0, 0.0, 0.0, 0.0, 0.0, 0.0, 4.088483999999999, 0.0, 0.0, 0.0, 0.0, 0.0, 0.0, 99999.0, 0.0, 0.0, 0.0, 0.0, 0.0, 0.0, 99999.0, 0.0, 0.0, 0.0, 0.0, 0.0, 0.0, 99999.0)",0.01,-0.17,0.0,0.0,0.0,0.0,"(-1.0, 0.0, 0.0, 0.0, 0.0, 0.0, 0.0, 0.0, 0.0, 0.0, 0.0, 0.0, 0.0, 0.0, 0.0, 0.0, 0.0, 0.0, 0.0, 0.0, 0.0, 0.0, 0.0, 0.0, 0.0, 0.0, 0.0, 0.0, 0.0, 0.0, 0.0, 0.0, 0.0, 0.0, 0.0, 0.0)"
2025/07/05/17:49:31.971913,10287,1751712571,980147008,map,base_link,0.29815353029371505,-3.118724925954738,-3.358,-0.04698306002069436,-0.04971589449582303,0.5607065105456895,-0.8251843011941322,"(1.755625, 0.0, 0.0, 0.0, 0.0, 0.0, 0.0, 1.755625, 0.0, 0.0, 0.0, 0.0, 0.0, 0.0, 4.088483999999999, 0.0, 0.0, 0.0, 0.0, 0.0, 0.0, 99999.0, 0.0, 0.0, 0.0, 0.0, 0.0, 0.0, 99999.0, 0.0, 0.0, 0.0, 0.0, 0.0, 0.0, 99999.0)",0.01,-0.17,0.0,0.0,0.0,0.0,"(-1.0, 0.0, 0.0, 0.0, 0.0, 0.0, 0.0, 0.0, 0.0, 0.0, 0.0, 0.0, 0.0, 0.0, 0.0, 0.0, 0.0, 0.0, 0.0, 0.0, 0.0, 0.0, 0.0, 0.0, 0.0, 0.0, 0.0, 0.0, 0.0, 0.0, 0.0, 0.0, 0.0, 0.0, 0.0, 0.0)"
2025/07/05/17:49:32.051212,10288,1751712572,60147008,map,base_link,0.2981535298284661,-3.1297842342188673,-3.357,-0.0471896750675959,-0.04973713016485663,0.558379919467595,-0.8267473725300496,"(1.755625, 0.0, 0.0, 0.0, 0.0, 0.0, 0.0, 1.755625, 0.0, 0.0, 0.0, 0.0, 0.0, 0.0, 4.088483999999999, 0.0, 0.0, 0.0, 0.0, 0.0, 0.0, 99999.0, 0.0, 0.0, 0.0, 0.0, 0.0, 0.0, 99999.0, 0.0, 0.0, 0.0, 0.0, 0.0, 0.0, 99999.0)",0.01,-0.16,0.0,0.0,0.0,0.0,"(-1.0, 0.0, 0.0, 0.0, 0.0, 0.0, 0.0, 0.0, 0.0, 0.0, 0.0, 0.0, 0.0, 0.0, 0.0, 0.0, 0.0, 0.0, 0.0, 0.0, 0.0, 0.0, 0.0, 0.0, 0.0, 0.0, 0.0, 0.0, 0.0, 0.0, 0.0, 0.0, 0.0, 0.0, 0.0, 0.0)"
2025/07/05/17:49:32.150910,10289,1751712572,160147008,map,base_link,0.3091962542978952,-3.1519028507300852,-3.356,-0.04677124947667585,-0.05022824318772214,0.555601681504972,-0.8286110941313258,"(1.734489, 0.0, 0.0, 0.0, 0.0, 0.0, 0.0, 1.734489, 0.0, 0.0, 0.0, 0.0, 0.0, 0.0, 4.064256, 0.0, 0.0, 0.0, 0.0, 0.0, 0.0, 99999.0, 0.0, 0.0, 0.0, 0.0, 0.0, 0.0, 99999.0, 0.0, 0.0, 0.0, 0.0, 0.0, 0.0, 99999.0)",0.02,-0.17,0.0,0.0,0.0,0.0,"(-1.0, 0.0, 0.0, 0.0, 0.0, 0.0, 0.0, 0.0, 0.0, 0.0, 0.0, 0.0, 0.0, 0.0, 0.0, 0.0, 0.0, 0.0, 0.0, 0.0, 0.0, 0.0, 0.0, 0.0, 0.0, 0.0, 0.0, 0.0, 0.0, 0.0, 0.0, 0.0, 0.0, 0.0, 0.0, 0.0)"
2025/07/05/17:49:32.251644,10290,1751712572,260147008,map,base_link,0.32023897705016946,-3.1740214673328424,-3.357,-0.046003093401239856,-0.050848272779650115,0.5529343741030172,-0.830398546776274,"(1.734489, 0.0, 0.0, 0.0, 0.0, 0.0, 0.0, 1.734489, 0.0, 0.0, 0.0, 0.0, 0.0, 0.0, 4.064256, 0.0, 0.0, 0.0, 0.0, 0.0, 0.0, 99999.0, 0.0, 0.0, 0.0, 0.0, 0.0, 0.0, 99999.0, 0.0, 0.0, 0.0, 0.0, 0.0, 0.0, 99999.0)",0.02,-0.17,0.0,0.0,0.0,0.0,"(-1.0, 0.0, 0.0, 0.0, 0.0, 0.0, 0.0, 0.0, 0.0, 0.0, 0.0, 0.0, 0.0, 0.0, 0.0, 0.0, 0.0, 0.0, 0.0, 0.0, 0.0, 0.0, 0.0, 0.0, 0.0, 0.0, 0.0, 0.0, 0.0, 0.0, 0.0, 0.0, 0.0, 0.0, 0.0, 0.0)"
2025/07/05/17:49:32.350544,10291,1751712572,360147008,map,base_link,0.3312817006250608,-3.207199392131075,-3.359,-0.04535489285384895,-0.05123812478124834,0.5502444670166687,-0.8321950581328028,"(1.7134809999999998, 0.0, 0.0, 0.0, 0.0, 0.0, 0.0, 1.7134809999999998, 0.0, 0.0, 0.0, 0.0, 0.0, 0.0, 4.0441210000000005, 0.0, 0.0, 0.0, 0.0, 0.0, 0.0, 99999.0, 0.0, 0.0, 0.0, 0.0, 0.0, 0.0, 99999.0, 0.0, 0.0, 0.0, 0.0, 0.0, 0.0, 99999.0)",0.02,-0.17,0.0,0.0,0.0,0.0,"(-1.0, 0.0, 0.0, 0.0, 0.0, 0.0, 0.0, 0.0, 0.0, 0.0, 0.0, 0.0, 0.0, 0.0, 0.0, 0.0, 0.0, 0.0, 0.0, 0.0, 0.0, 0.0, 0.0, 0.0, 0.0, 0.0, 0.0, 0.0, 0.0, 0.0, 0.0, 0.0, 0.0, 0.0, 0.0, 0.0)"
2025/07/05/17:49:32.512939,10292,1751712572,521147008,map,base_link,0.3533671453074254,-3.251436620143148,-3.363,-0.04519883876233255,-0.051309548568896315,0.5459265651688814,-0.8350380713734553,"(1.7056360000000002, 0.0, 0.0, 0.0, 0.0, 0.0, 0.0, 1.7056360000000002, 0.0, 0.0, 0.0, 0.0, 0.0, 0.0, 4.048144, 0.0, 0.0, 0.0, 0.0, 0.0, 0.0, 99999.0, 0.0, 0.0, 0.0, 0.0, 0.0, 0.0, 99999.0, 0.0, 0.0, 0.0, 0.0, 0.0, 0.0, 99999.0)",0.03,-0.17,0.0,0.0,0.0,0.0,"(-1.0, 0.0, 0.0, 0.0, 0.0, 0.0, 0.0, 0.0, 0.0, 0.0, 0.0, 0.0, 0.0, 0.0, 0.0, 0.0, 0.0, 0.0, 0.0, 0.0, 0.0, 0.0, 0.0, 0.0, 0.0, 0.0, 0.0, 0.0, 0.0, 0.0, 0.0, 0.0, 0.0, 0.0, 0.0, 0.0)"
2025/07/05/17:49:32.633327,10293,1751712572,643147008,map,base_link,0.35336714523550516,-3.2735552367411116,-3.364,-0.04555658377607384,-0.05140421269427996,0.5426836883257963,-0.837124016509528,"(1.7056360000000002, 0.0, 0.0, 0.0, 0.0, 0.0, 0.0, 1.7056360000000002, 0.0, 0.0, 0.0, 0.0, 0.0, 0.0, 4.048144, 0.0, 0.0, 0.0, 0.0, 0.0, 0.0, 99999.0, 0.0, 0.0, 0.0, 0.0, 0.0, 0.0, 99999.0, 0.0, 0.0, 0.0, 0.0, 0.0, 0.0, 99999.0)",0.03,-0.18,0.0,0.0,0.0,0.0,"(-1.0, 0.0, 0.0, 0.0, 0.0, 0.0, 0.0, 0.0, 0.0, 0.0, 0.0, 0.0, 0.0, 0.0, 0.0, 0.0, 0.0, 0.0, 0.0, 0.0, 0.0, 0.0, 0.0, 0.0, 0.0, 0.0, 0.0, 0.0, 0.0, 0.0, 0.0, 0.0, 0.0, 0.0, 0.0, 0.0)"
2025/07/05/17:49:32.731181,10294,1751712572,740147008,map,base_link,0.36440986934409336,-3.2956738530279517,-3.364,-0.04565160881063236,-0.05169626234809942,0.5399785777029267,-0.8388483550047422,"(1.7004160000000001, 0.0, 0.0, 0.0, 0.0, 0.0, 0.0, 1.7004160000000001, 0.0, 0.0, 0.0, 0.0, 0.0, 0.0, 4.0441210000000005, 0.0, 0.0, 0.0, 0.0, 0.0, 0.0, 99999.0, 0.0, 0.0, 0.0, 0.0, 0.0, 0.0, 99999.0, 0.0, 0.0, 0.0, 0.0, 0.0, 0.0, 99999.0)",0.03,-0.18,0.0,0.0,0.0,0.0,"(-1.0, 0.0, 0.0, 0.0, 0.0, 0.0, 0.0, 0.0, 0.0, 0.0, 0.0, 0.0, 0.0, 0.0, 0.0, 0.0, 0.0, 0.0, 0.0, 0.0, 0.0, 0.0, 0.0, 0.0, 0.0, 0.0, 0.0, 0.0, 0.0, 0.0, 0.0, 0.0, 0.0, 0.0, 0.0, 0.0)"
2025/07/05/17:49:32.834239,10295,1751712572,843147008,map,base_link,0.37545259199195957,-3.3288517778882665,-3.364,-0.04537227335207892,-0.052029810728552714,0.5373216856454403,-0.8405472394467535,"(1.7004160000000001, 0.0, 0.0, 0.0, 0.0, 0.0, 0.0, 1.7004160000000001, 0.0, 0.0, 0.0, 0.0, 0.0, 0.0, 4.0441210000000005, 0.0, 0.0, 0.0, 0.0, 0.0, 0.0, 99999.0, 0.0, 0.0, 0.0, 0.0, 0.0, 0.0, 99999.0, 0.0, 0.0, 0.0, 0.0, 0.0, 0.0, 99999.0)",0.04,-0.18,0.0,0.0,0.0,0.0,"(-1.0, 0.0, 0.0, 0.0, 0.0, 0.0, 0.0, 0.0, 0.0, 0.0, 0.0, 0.0, 0.0, 0.0, 0.0, 0.0, 0.0, 0.0, 0.0, 0.0, 0.0, 0.0, 0.0, 0.0, 0.0, 0.0, 0.0, 0.0, 0.0, 0.0, 0.0, 0.0, 0.0, 0.0, 0.0, 0.0)"
2025/07/05/17:49:32.931642,10296,1751712572,940147008,map,base_link,0.39753803865095105,-3.350970394707052,-3.365,-0.04481065562269457,-0.052315745255816205,0.5347445445128503,-0.8422014842392151,"(1.6952040000000002, 0.0, 0.0, 0.0, 0.0, 0.0, 0.0, 1.6952040000000002, 0.0, 0.0, 0.0, 0.0, 0.0, 0.0, 4.040099999999999, 0.0, 0.0, 0.0, 0.0, 0.0, 0.0, 99999.0, 0.0, 0.0, 0.0, 0.0, 0.0, 0.0, 99999.0, 0.0, 0.0, 0.0, 0.0, 0.0, 0.0, 99999.0)",0.04,-0.18,0.0,0.0,0.0,0.0,"(-1.0, 0.0, 0.0, 0.0, 0.0, 0.0, 0.0, 0.0, 0.0, 0.0, 0.0, 0.0, 0.0, 0.0, 0.0, 0.0, 0.0, 0.0, 0.0, 0.0, 0.0, 0.0, 0.0, 0.0, 0.0, 0.0, 0.0, 0.0, 0.0, 0.0, 0.0, 0.0, 0.0, 0.0, 0.0, 0.0)"
2025/07/05/17:49:33.033555,10297,1751712573,43147008,map,base_link,0.408580761832514,-3.3730890111714498,-3.367,-0.044486779088978724,-0.052400337986892746,0.5321531875056789,-0.8438531365662473,"(1.6952040000000002, 0.0, 0.0, 0.0, 0.0, 0.0, 0.0, 1.6952040000000002, 0.0, 0.0, 0.0, 0.0, 0.0, 0.0, 4.040099999999999, 0.0, 0.0, 0.0, 0.0, 0.0, 0.0, 99999.0, 0.0, 0.0, 0.0, 0.0, 0.0, 0.0, 99999.0, 0.0, 0.0, 0.0, 0.0, 0.0, 0.0, 99999.0)",0.05,-0.18,0.0,0.0,0.0,0.0,"(-1.0, 0.0, 0.0, 0.0, 0.0, 0.0, 0.0, 0.0, 0.0, 0.0, 0.0, 0.0, 0.0, 0.0, 0.0, 0.0, 0.0, 0.0, 0.0, 0.0, 0.0, 0.0, 0.0, 0.0, 0.0, 0.0, 0.0, 0.0, 0.0, 0.0, 0.0, 0.0, 0.0, 0.0, 0.0, 0.0)"
2025/07/05/17:49:33.131379,10298,1751712573,140147008,map,base_link,0.4306662069112459,-3.3952076278181984,-3.368,-0.04454361655086836,-0.0524154570628735,0.5294980495956507,-0.8455177712856552,"(1.6952040000000002, 0.0, 0.0, 0.0, 0.0, 0.0, 0.0, 1.6952040000000002, 0.0, 0.0, 0.0, 0.0, 0.0, 0.0, 4.036080999999999, 0.0, 0.0, 0.0, 0.0, 0.0, 0.0, 99999.0, 0.0, 0.0, 0.0, 0.0, 0.0, 0.0, 99999.0, 0.0, 0.0, 0.0, 0.0, 0.0, 0.0, 99999.0)",0.05,-0.18,0.0,0.0,0.0,0.0,"(-1.0, 0.0, 0.0, 0.0, 0.0, 0.0, 0.0, 0.0, 0.0, 0.0, 0.0, 0.0, 0.0, 0.0, 0.0, 0.0, 0.0, 0.0, 0.0, 0.0, 0.0, 0.0, 0.0, 0.0, 0.0, 0.0, 0.0, 0.0, 0.0, 0.0, 0.0, 0.0, 0.0, 0.0, 0.0, 0.0)"
2025/07/05/17:49:33.233623,10299,1751712573,243147008,map,base_link,0.4417089308508849,-3.417326239030241,-3.37,-0.04469052922621372,-0.05249958763226692,0.5267210116948088,-0.8472375851761536,"(1.6952040000000002, 0.0, 0.0, 0.0, 0.0, 0.0, 0.0, 1.6952040000000002, 0.0, 0.0, 0.0, 0.0, 0.0, 0.0, 4.036080999999999, 0.0, 0.0, 0.0, 0.0, 0.0, 0.0, 99999.0, 0.0, 0.0, 0.0, 0.0, 0.0, 0.0, 99999.0, 0.0, 0.0, 0.0, 0.0, 0.0, 0.0, 99999.0)",0.05,-0.18,0.0,0.0,0.0,0.0,"(-1.0, 0.0, 0.0, 0.0, 0.0, 0.0, 0.0, 0.0, 0.0, 0.0, 0.0, 0.0, 0.0, 0.0, 0.0, 0.0, 0.0, 0.0, 0.0, 0.0, 0.0, 0.0, 0.0, 0.0, 0.0, 0.0, 0.0, 0.0, 0.0, 0.0, 0.0, 0.0, 0.0, 0.0, 0.0, 0.0)"
2025/07/05/17:49:33.331181,10300,1751712573,340147008,map,base_link,0.4637943772174832,-3.4394448557238104,-3.37,-0.044562310001548235,-0.052855596203093345,0.5239800778990829,-0.8489201166436171,"(1.697809, 0.0, 0.0, 0.0, 0.0, 0.0, 0.0, 1.697809, 0.0, 0.0, 0.0, 0.0, 0.0, 0.0, 4.032064, 0.0, 0.0, 0.0, 0.0, 0.0, 0.0, 99999.0, 0.0, 0.0, 0.0, 0.0, 0.0, 0.0, 99999.0, 0.0, 0.0, 0.0, 0.0, 0.0, 0.0, 99999.0)",0.06,-0.18,0.0,0.0,0.0,0.0,"(-1.0, 0.0, 0.0, 0.0, 0.0, 0.0, 0.0, 0.0, 0.0, 0.0, 0.0, 0.0, 0.0, 0.0, 0.0, 0.0, 0.0, 0.0, 0.0, 0.0, 0.0, 0.0, 0.0, 0.0, 0.0, 0.0, 0.0, 0.0, 0.0, 0.0, 0.0, 0.0, 0.0, 0.0, 0.0, 0.0)"
2025/07/05/17:49:33.492727,10301,1751712573,501147008,map,base_link,0.4858798225162544,-3.4726227860917067,-3.367,-0.04223012835843667,-0.051944929419719135,0.5188733506655997,-0.8522257837776699,"(1.697809, 0.0, 0.0, 0.0, 0.0, 0.0, 0.0, 1.697809, 0.0, 0.0, 0.0, 0.0, 0.0, 0.0, 4.032064, 0.0, 0.0, 0.0, 0.0, 0.0, 0.0, 99999.0, 0.0, 0.0, 0.0, 0.0, 0.0, 0.0, 99999.0, 0.0, 0.0, 0.0, 0.0, 0.0, 0.0, 99999.0)",0.08,-0.27,0.0,0.0,0.0,0.0,"(-1.0, 0.0, 0.0, 0.0, 0.0, 0.0, 0.0, 0.0, 0.0, 0.0, 0.0, 0.0, 0.0, 0.0, 0.0, 0.0, 0.0, 0.0, 0.0, 0.0, 0.0, 0.0, 0.0, 0.0, 0.0, 0.0, 0.0, 0.0, 0.0, 0.0, 0.0, 0.0, 0.0, 0.0, 0.0, 0.0)"
2025/07/05/17:49:33.592767,10302,1751712573,602147008,map,base_link,0.49692254638353917,-3.5058007107842055,-3.364,-0.03780360189318414,-0.05314077645602389,0.5128753946066178,-0.8559823451267313,"(1.7004160000000001, 0.0, 0.0, 0.0, 0.0, 0.0, 0.0, 1.7004160000000001, 0.0, 0.0, 0.0, 0.0, 0.0, 0.0, 4.028049, 0.0, 0.0, 0.0, 0.0, 0.0, 0.0, 99999.0, 0.0, 0.0, 0.0, 0.0, 0.0, 0.0, 99999.0, 0.0, 0.0, 0.0, 0.0, 0.0, 0.0, 99999.0)",0.09,-0.31,0.0,0.0,0.0,0.0,"(-1.0, 0.0, 0.0, 0.0, 0.0, 0.0, 0.0, 0.0, 0.0, 0.0, 0.0, 0.0, 0.0, 0.0, 0.0, 0.0, 0.0, 0.0, 0.0, 0.0, 0.0, 0.0, 0.0, 0.0, 0.0, 0.0, 0.0, 0.0, 0.0, 0.0, 0.0, 0.0, 0.0, 0.0, 0.0, 0.0)"
2025/07/05/17:49:33.671556,10303,1751712573,680147008,map,base_link,0.5190079934718198,-3.527919327349156,-3.361,-0.03703587475528694,-0.05354514054922718,0.5075961228364092,-0.8591317931412614,"(1.7030249999999998, 0.0, 0.0, 0.0, 0.0, 0.0, 0.0, 1.7030249999999998, 0.0, 0.0, 0.0, 0.0, 0.0, 0.0, 4.028049, 0.0, 0.0, 0.0, 0.0, 0.0, 0.0, 99999.0, 0.0, 0.0, 0.0, 0.0, 0.0, 0.0, 99999.0, 0.0, 0.0, 0.0, 0.0, 0.0, 0.0, 99999.0)",0.11,-0.33,0.0,0.0,0.0,0.0,"(-1.0, 0.0, 0.0, 0.0, 0.0, 0.0, 0.0, 0.0, 0.0, 0.0, 0.0, 0.0, 0.0, 0.0, 0.0, 0.0, 0.0, 0.0, 0.0, 0.0, 0.0, 0.0, 0.0, 0.0, 0.0, 0.0, 0.0, 0.0, 0.0, 0.0, 0.0, 0.0, 0.0, 0.0, 0.0, 0.0)"
2025/07/05/17:49:33.771842,10304,1751712573,780147008,map,base_link,0.5410934400584572,-3.561097257994823,-3.356,-0.03859203150261953,-0.053552149226141016,0.49992696453384355,-0.8635484077628418,"(1.7030249999999998, 0.0, 0.0, 0.0, 0.0, 0.0, 0.0, 1.7030249999999998, 0.0, 0.0, 0.0, 0.0, 0.0, 0.0, 4.028049, 0.0, 0.0, 0.0, 0.0, 0.0, 0.0, 99999.0, 0.0, 0.0, 0.0, 0.0, 0.0, 0.0, 99999.0, 0.0, 0.0, 0.0, 0.0, 0.0, 0.0, 99999.0)",0.13,-0.36,0.0,0.0,0.0,0.0,"(-1.0, 0.0, 0.0, 0.0, 0.0, 0.0, 0.0, 0.0, 0.0, 0.0, 0.0, 0.0, 0.0, 0.0, 0.0, 0.0, 0.0, 0.0, 0.0, 0.0, 0.0, 0.0, 0.0, 0.0, 0.0, 0.0, 0.0, 0.0, 0.0, 0.0, 0.0, 0.0, 0.0, 0.0, 0.0, 0.0)"
2025/07/05/17:49:33.851237,10305,1751712573,860147008,map,base_link,0.5631788850327812,-3.5942751830146045,-3.354,-0.04062359719310788,-0.05330828698407524,0.4931624398618608,-0.8673515768126626,"(1.7030249999999998, 0.0, 0.0, 0.0, 0.0, 0.0, 0.0, 1.7030249999999998, 0.0, 0.0, 0.0, 0.0, 0.0, 0.0, 4.028049, 0.0, 0.0, 0.0, 0.0, 0.0, 0.0, 99999.0, 0.0, 0.0, 0.0, 0.0, 0.0, 0.0, 99999.0, 0.0, 0.0, 0.0, 0.0, 0.0, 0.0, 99999.0)",0.15,-0.38,0.0,0.0,0.0,0.0,"(-1.0, 0.0, 0.0, 0.0, 0.0, 0.0, 0.0, 0.0, 0.0, 0.0, 0.0, 0.0, 0.0, 0.0, 0.0, 0.0, 0.0, 0.0, 0.0, 0.0, 0.0, 0.0, 0.0, 0.0, 0.0, 0.0, 0.0, 0.0, 0.0, 0.0, 0.0, 0.0, 0.0, 0.0, 0.0, 0.0)"
2025/07/05/17:49:33.950991,10306,1751712573,960147008,map,base_link,0.5852643314145095,-3.638512416249344,-3.353,-0.042489869289781504,-0.053059855777852195,0.48456813655065056,-0.8721083555111719,"(1.708249, 0.0, 0.0, 0.0, 0.0, 0.0, 0.0, 1.708249, 0.0, 0.0, 0.0, 0.0, 0.0, 0.0, 4.032064, 0.0, 0.0, 0.0, 0.0, 0.0, 0.0, 99999.0, 0.0, 0.0, 0.0, 0.0, 0.0, 0.0, 99999.0, 0.0, 0.0, 0.0, 0.0, 0.0, 0.0, 99999.0)",0.18,-0.41,0.0,0.0,0.0,0.0,"(-1.0, 0.0, 0.0, 0.0, 0.0, 0.0, 0.0, 0.0, 0.0, 0.0, 0.0, 0.0, 0.0, 0.0, 0.0, 0.0, 0.0, 0.0, 0.0, 0.0, 0.0, 0.0, 0.0, 0.0, 0.0, 0.0, 0.0, 0.0, 0.0, 0.0, 0.0, 0.0, 0.0, 0.0, 0.0, 0.0)"
2025/07/05/17:49:34.050839,10307,1751712574,60147008,map,base_link,0.6183925006888796,-3.682749649588038,-3.352,-0.04276472809640905,-0.05320698088205476,0.47597101499274597,-0.8768077258458848,"(1.708249, 0.0, 0.0, 0.0, 0.0, 0.0, 0.0, 1.708249, 0.0, 0.0, 0.0, 0.0, 0.0, 0.0, 4.032064, 0.0, 0.0, 0.0, 0.0, 0.0, 0.0, 99999.0, 0.0, 0.0, 0.0, 0.0, 0.0, 0.0, 99999.0, 0.0, 0.0, 0.0, 0.0, 0.0, 0.0, 99999.0)",0.2,-0.44,0.0,0.0,0.0,0.0,"(-1.0, 0.0, 0.0, 0.0, 0.0, 0.0, 0.0, 0.0, 0.0, 0.0, 0.0, 0.0, 0.0, 0.0, 0.0, 0.0, 0.0, 0.0, 0.0, 0.0, 0.0, 0.0, 0.0, 0.0, 0.0, 0.0, 0.0, 0.0, 0.0, 0.0, 0.0, 0.0, 0.0, 0.0, 0.0, 0.0)"
2025/07/05/17:49:34.151142,10308,1751712574,160147008,map,base_link,0.6515206707533798,-3.7269868832437014,-3.351,-0.04143654636388776,-0.05412173392821614,0.4671564126817386,-0.8815433832956638,"(1.7056360000000002, 0.0, 0.0, 0.0, 0.0, 0.0, 0.0, 1.7056360000000002, 0.0, 0.0, 0.0, 0.0, 0.0, 0.0, 4.032064, 0.0, 0.0, 0.0, 0.0, 0.0, 0.0, 99999.0, 0.0, 0.0, 0.0, 0.0, 0.0, 0.0, 99999.0, 0.0, 0.0, 0.0, 0.0, 0.0, 0.0, 99999.0)",0.22,-0.47,0.0,0.0,0.0,0.0,"(-1.0, 0.0, 0.0, 0.0, 0.0, 0.0, 0.0, 0.0, 0.0, 0.0, 0.0, 0.0, 0.0, 0.0, 0.0, 0.0, 0.0, 0.0, 0.0, 0.0, 0.0, 0.0, 0.0, 0.0, 0.0, 0.0, 0.0, 0.0, 0.0, 0.0, 0.0, 0.0, 0.0, 0.0, 0.0, 0.0)"
2025/07/05/17:49:34.251155,10309,1751712574,260147008,map,base_link,0.6736061164134258,-3.771224116376109,-3.351,-0.039524506507717605,-0.05535430446542108,0.4579461066941717,-0.8863741183755994,"(1.7056360000000002, 0.0, 0.0, 0.0, 0.0, 0.0, 0.0, 1.7056360000000002, 0.0, 0.0, 0.0, 0.0, 0.0, 0.0, 4.032064, 0.0, 0.0, 0.0, 0.0, 0.0, 0.0, 99999.0, 0.0, 0.0, 0.0, 0.0, 0.0, 0.0, 99999.0, 0.0, 0.0, 0.0, 0.0, 0.0, 0.0, 99999.0)",0.25,-0.49,0.0,0.0,0.0,0.0,"(-1.0, 0.0, 0.0, 0.0, 0.0, 0.0, 0.0, 0.0, 0.0, 0.0, 0.0, 0.0, 0.0, 0.0, 0.0, 0.0, 0.0, 0.0, 0.0, 0.0, 0.0, 0.0, 0.0, 0.0, 0.0, 0.0, 0.0, 0.0, 0.0, 0.0, 0.0, 0.0, 0.0, 0.0, 0.0, 0.0)"
2025/07/05/17:49:34.351709,10310,1751712574,360147008,map,base_link,0.7067342853780452,-3.826520658252251,-3.35,-0.037637873459092835,-0.05641749277014766,0.4485001791718263,-0.8912059505377234,"(1.6900000000000002, 0.0, 0.0, 0.0, 0.0, 0.0, 0.0, 1.6900000000000002, 0.0, 0.0, 0.0, 0.0, 0.0, 0.0, 3.968064, 0.0, 0.0, 0.0, 0.0, 0.0, 0.0, 99999.0, 0.0, 0.0, 0.0, 0.0, 0.0, 0.0, 99999.0, 0.0, 0.0, 0.0, 0.0, 0.0, 0.0, 99999.0)",0.28,-0.52,0.0,0.0,0.0,0.0,"(-1.0, 0.0, 0.0, 0.0, 0.0, 0.0, 0.0, 0.0, 0.0, 0.0, 0.0, 0.0, 0.0, 0.0, 0.0, 0.0, 0.0, 0.0, 0.0, 0.0, 0.0, 0.0, 0.0, 0.0, 0.0, 0.0, 0.0, 0.0, 0.0, 0.0, 0.0, 0.0, 0.0, 0.0, 0.0, 0.0)"
2025/07/05/17:49:34.551820,10311,1751712574,560147008,map,base_link,0.7950760685623437,-3.926054433680286,-3.353,-0.03594110353752461,-0.056682657884364766,0.4284406771324014,-0.9010737481194303,"(1.6900000000000002, 0.0, 0.0, 0.0, 0.0, 0.0, 0.0, 1.6900000000000002, 0.0, 0.0, 0.0, 0.0, 0.0, 0.0, 3.968064, 0.0, 0.0, 0.0, 0.0, 0.0, 0.0, 99999.0, 0.0, 0.0, 0.0, 0.0, 0.0, 0.0, 99999.0, 0.0, 0.0, 0.0, 0.0, 0.0, 0.0, 99999.0)",0.34,-0.55,0.0,0.0,0.0,0.0,"(-1.0, 0.0, 0.0, 0.0, 0.0, 0.0, 0.0, 0.0, 0.0, 0.0, 0.0, 0.0, 0.0, 0.0, 0.0, 0.0, 0.0, 0.0, 0.0, 0.0, 0.0, 0.0, 0.0, 0.0, 0.0, 0.0, 0.0, 0.0, 0.0, 0.0, 0.0, 0.0, 0.0, 0.0, 0.0, 0.0)"
2025/07/05/17:49:34.651037,10312,1751712574,660147008,map,base_link,0.8392469610043917,-3.981350975910817,-3.353,-0.0362645077441722,-0.056458469980486245,0.41776288901270586,-0.9060747735199857,"(1.6770249999999998, 0.0, 0.0, 0.0, 0.0, 0.0, 0.0, 1.6770249999999998, 0.0, 0.0, 0.0, 0.0, 0.0, 0.0, 3.9204, 0.0, 0.0, 0.0, 0.0, 0.0, 0.0, 99999.0, 0.0, 0.0, 0.0, 0.0, 0.0, 0.0, 99999.0, 0.0, 0.0, 0.0, 0.0, 0.0, 0.0, 99999.0)",0.36,-0.56,0.0,0.0,0.0,0.0,"(-1.0, 0.0, 0.0, 0.0, 0.0, 0.0, 0.0, 0.0, 0.0, 0.0, 0.0, 0.0, 0.0, 0.0, 0.0, 0.0, 0.0, 0.0, 0.0, 0.0, 0.0, 0.0, 0.0, 0.0, 0.0, 0.0, 0.0, 0.0, 0.0, 0.0, 0.0, 0.0, 0.0, 0.0, 0.0, 0.0)"
2025/07/05/17:49:34.751098,10313,1751712574,760147008,map,base_link,0.88341785190214,-4.02558820961259,-3.35,-0.036825084194818156,-0.05621335341857581,0.40697025298298245,-0.9109660725067922,"(1.6641000000000001, 0.0, 0.0, 0.0, 0.0, 0.0, 0.0, 1.6641000000000001, 0.0, 0.0, 0.0, 0.0, 0.0, 0.0, 3.873024, 0.0, 0.0, 0.0, 0.0, 0.0, 0.0, 99999.0, 0.0, 0.0, 0.0, 0.0, 0.0, 0.0, 99999.0, 0.0, 0.0, 0.0, 0.0, 0.0, 0.0, 99999.0)",0.39,-0.57,-0.01,0.0,0.0,0.0,"(-1.0, 0.0, 0.0, 0.0, 0.0, 0.0, 0.0, 0.0, 0.0, 0.0, 0.0, 0.0, 0.0, 0.0, 0.0, 0.0, 0.0, 0.0, 0.0, 0.0, 0.0, 0.0, 0.0, 0.0, 0.0, 0.0, 0.0, 0.0, 0.0, 0.0, 0.0, 0.0, 0.0, 0.0, 0.0, 0.0)"
2025/07/05/17:49:34.851336,10314,1751712574,860147008,map,base_link,0.9275887450979239,-4.080884758207626,-3.348,-0.03610739492818339,-0.05691305788160327,0.39603335882374663,-0.9157591050996146,"(1.6641000000000001, 0.0, 0.0, 0.0, 0.0, 0.0, 0.0, 1.6641000000000001, 0.0, 0.0, 0.0, 0.0, 0.0, 0.0, 3.873024, 0.0, 0.0, 0.0, 0.0, 0.0, 0.0, 99999.0, 0.0, 0.0, 0.0, 0.0, 0.0, 0.0, 99999.0, 0.0, 0.0, 0.0, 0.0, 0.0, 0.0, 99999.0)",0.42,-0.58,-0.01,0.0,0.0,0.0,"(-1.0, 0.0, 0.0, 0.0, 0.0, 0.0, 0.0, 0.0, 0.0, 0.0, 0.0, 0.0, 0.0, 0.0, 0.0, 0.0, 0.0, 0.0, 0.0, 0.0, 0.0, 0.0, 0.0, 0.0, 0.0, 0.0, 0.0, 0.0, 0.0, 0.0, 0.0, 0.0, 0.0, 0.0, 0.0, 0.0)"
2025/07/05/17:49:34.971763,10315,1751712574,980147008,map,base_link,0.9828023596935741,-4.147240608640543,-3.346,-0.034007992227819445,-0.05786245127348742,0.3831904238865795,-0.9212277092222527,"(1.640961, 0.0, 0.0, 0.0, 0.0, 0.0, 0.0, 1.640961, 0.0, 0.0, 0.0, 0.0, 0.0, 0.0, 3.825936, 0.0, 0.0, 0.0, 0.0, 0.0, 0.0, 99999.0, 0.0, 0.0, 0.0, 0.0, 0.0, 0.0, 99999.0, 0.0, 0.0, 0.0, 0.0, 0.0, 0.0, 99999.0)",0.45,-0.59,-0.01,0.0,0.0,0.0,"(-1.0, 0.0, 0.0, 0.0, 0.0, 0.0, 0.0, 0.0, 0.0, 0.0, 0.0, 0.0, 0.0, 0.0, 0.0, 0.0, 0.0, 0.0, 0.0, 0.0, 0.0, 0.0, 0.0, 0.0, 0.0, 0.0, 0.0, 0.0, 0.0, 0.0, 0.0, 0.0, 0.0, 0.0, 0.0, 0.0)"
2025/07/05/17:49:35.051148,10316,1751712575,60147008,map,base_link,1.0269732513130045,-4.1914778426755985,-3.344,-0.03298708211675761,-0.058228226147571505,0.3749148087485509,-0.9246405854569477,"(1.640961, 0.0, 0.0, 0.0, 0.0, 0.0, 0.0, 1.640961, 0.0, 0.0, 0.0, 0.0, 0.0, 0.0, 3.825936, 0.0, 0.0, 0.0, 0.0, 0.0, 0.0, 99999.0, 0.0, 0.0, 0.0, 0.0, 0.0, 0.0, 99999.0, 0.0, 0.0, 0.0, 0.0, 0.0, 0.0, 99999.0)",0.49,-0.58,-0.01,0.0,0.0,0.0,"(-1.0, 0.0, 0.0, 0.0, 0.0, 0.0, 0.0, 0.0, 0.0, 0.0, 0.0, 0.0, 0.0, 0.0, 0.0, 0.0, 0.0, 0.0, 0.0, 0.0, 0.0, 0.0, 0.0, 0.0, 0.0, 0.0, 0.0, 0.0, 0.0, 0.0, 0.0, 0.0, 0.0, 0.0, 0.0, 0.0)"
2025/07/05/17:49:35.151087,10317,1751712575,160147008,map,base_link,1.07114414358567,-4.235715076829298,-3.34,-0.03793894301994799,-0.056082017592026606,0.3683823118111983,-0.9272054336822955,"(1.6256249999999999, 0.0, 0.0, 0.0, 0.0, 0.0, 0.0, 1.6256249999999999, 0.0, 0.0, 0.0, 0.0, 0.0, 0.0, 3.779136, 0.0, 0.0, 0.0, 0.0, 0.0, 0.0, 99999.0, 0.0, 0.0, 0.0, 0.0, 0.0, 0.0, 99999.0, 0.0, 0.0, 0.0, 0.0, 0.0, 0.0, 99999.0)",0.56,-0.54,-0.01,0.0,0.0,0.0,"(-1.0, 0.0, 0.0, 0.0, 0.0, 0.0, 0.0, 0.0, 0.0, 0.0, 0.0, 0.0, 0.0, 0.0, 0.0, 0.0, 0.0, 0.0, 0.0, 0.0, 0.0, 0.0, 0.0, 0.0, 0.0, 0.0, 0.0, 0.0, 0.0, 0.0, 0.0, 0.0, 0.0, 0.0, 0.0, 0.0)"
2025/07/05/17:49:35.251251,10318,1751712575,260147008,map,base_link,1.1374004825528528,-4.279952318059682,-3.333,-0.04689409340535334,-0.05305421827392341,0.3661104363251653,-0.9278735594577691,"(1.6256249999999999, 0.0, 0.0, 0.0, 0.0, 0.0, 0.0, 1.6256249999999999, 0.0, 0.0, 0.0, 0.0, 0.0, 0.0, 3.779136, 0.0, 0.0, 0.0, 0.0, 0.0, 0.0, 99999.0, 0.0, 0.0, 0.0, 0.0, 0.0, 0.0, 99999.0, 0.0, 0.0, 0.0, 0.0, 0.0, 0.0, 99999.0)",0.59,-0.53,-0.01,0.0,0.0,0.0,"(-1.0, 0.0, 0.0, 0.0, 0.0, 0.0, 0.0, 0.0, 0.0, 0.0, 0.0, 0.0, 0.0, 0.0, 0.0, 0.0, 0.0, 0.0, 0.0, 0.0, 0.0, 0.0, 0.0, 0.0, 0.0, 0.0, 0.0, 0.0, 0.0, 0.0, 0.0, 0.0, 0.0, 0.0, 0.0, 0.0)"
2025/07/05/17:49:35.330782,10319,1751712575,340147008,map,base_link,1.1815713765422389,-4.313130250967411,-3.327,-0.04963954837788055,-0.052153665639605044,0.3660077601731671,-0.9278223051264795,"(1.6103609999999997, 0.0, 0.0, 0.0, 0.0, 0.0, 0.0, 1.6103609999999997, 0.0, 0.0, 0.0, 0.0, 0.0, 0.0, 3.7249, 0.0, 0.0, 0.0, 0.0, 0.0, 0.0, 99999.0, 0.0, 0.0, 0.0, 0.0, 0.0, 0.0, 99999.0, 0.0, 0.0, 0.0, 0.0, 0.0, 0.0, 99999.0)",0.63,-0.52,-0.01,0.0,0.0,0.0,"(-1.0, 0.0, 0.0, 0.0, 0.0, 0.0, 0.0, 0.0, 0.0, 0.0, 0.0, 0.0, 0.0, 0.0, 0.0, 0.0, 0.0, 0.0, 0.0, 0.0, 0.0, 0.0, 0.0, 0.0, 0.0, 0.0, 0.0, 0.0, 0.0, 0.0, 0.0, 0.0, 0.0, 0.0, 0.0, 0.0)"
2025/07/05/17:49:35.471645,10320,1751712575,480147008,map,base_link,1.2809558852351557,-4.379486110277173,-3.318,-0.05052357373952823,-0.051829501270937293,0.37322904790892164,-0.9249114277008323,"(1.6103609999999997, 0.0, 0.0, 0.0, 0.0, 0.0, 0.0, 1.6103609999999997, 0.0, 0.0, 0.0, 0.0, 0.0, 0.0, 3.7249, 0.0, 0.0, 0.0, 0.0, 0.0, 0.0, 99999.0, 0.0, 0.0, 0.0, 0.0, 0.0, 0.0, 99999.0, 0.0, 0.0, 0.0, 0.0, 0.0, 0.0, 99999.0)",0.7,-0.48,-0.02,0.0,0.0,0.0,"(-1.0, 0.0, 0.0, 0.0, 0.0, 0.0, 0.0, 0.0, 0.0, 0.0, 0.0, 0.0, 0.0, 0.0, 0.0, 0.0, 0.0, 0.0, 0.0, 0.0, 0.0, 0.0, 0.0, 0.0, 0.0, 0.0, 0.0, 0.0, 0.0, 0.0, 0.0, 0.0, 0.0, 0.0, 0.0, 0.0)"
2025/07/05/17:49:35.592087,10321,1751712575,601147008,map,base_link,1.369297670486604,-4.434782661106778,-3.308,-0.05061128971533503,-0.052346098171756485,0.3861072484657492,-0.919575758728856,"(1.5901209999999997, 0.0, 0.0, 0.0, 0.0, 0.0, 0.0, 1.5901209999999997, 0.0, 0.0, 0.0, 0.0, 0.0, 0.0, 3.6979290000000002, 0.0, 0.0, 0.0, 0.0, 0.0, 0.0, 99999.0, 0.0, 0.0, 0.0, 0.0, 0.0, 0.0, 99999.0, 0.0, 0.0, 0.0, 0.0, 0.0, 0.0, 99999.0)",0.73,-0.46,-0.02,0.0,0.0,0.0,"(-1.0, 0.0, 0.0, 0.0, 0.0, 0.0, 0.0, 0.0, 0.0, 0.0, 0.0, 0.0, 0.0, 0.0, 0.0, 0.0, 0.0, 0.0, 0.0, 0.0, 0.0, 0.0, 0.0, 0.0, 0.0, 0.0, 0.0, 0.0, 0.0, 0.0, 0.0, 0.0, 0.0, 0.0, 0.0, 0.0)"
2025/07/05/17:49:35.671561,10322,1751712575,681147008,map,base_link,1.4245112855869357,-4.456901279260997,-3.3,-0.04816241954199219,-0.05328226063597394,0.39650382773539433,-0.9152191522452763,"(1.572516, 0.0, 0.0, 0.0, 0.0, 0.0, 0.0, 1.572516, 0.0, 0.0, 0.0, 0.0, 0.0, 0.0, 3.6940839999999997, 0.0, 0.0, 0.0, 0.0, 0.0, 0.0, 99999.0, 0.0, 0.0, 0.0, 0.0, 0.0, 0.0, 99999.0, 0.0, 0.0, 0.0, 0.0, 0.0, 0.0, 99999.0)",0.74,-0.47,-0.02,0.0,0.0,0.0,"(-1.0, 0.0, 0.0, 0.0, 0.0, 0.0, 0.0, 0.0, 0.0, 0.0, 0.0, 0.0, 0.0, 0.0, 0.0, 0.0, 0.0, 0.0, 0.0, 0.0, 0.0, 0.0, 0.0, 0.0, 0.0, 0.0, 0.0, 0.0, 0.0, 0.0, 0.0, 0.0, 0.0, 0.0, 0.0, 0.0)"
2025/07/05/17:49:35.751191,10323,1751712575,760147008,map,base_link,1.490767625106418,-4.490079213440682,-3.296,-0.044928021244619074,-0.05414997491573421,0.4077066878529516,-0.9103979952765959,"(1.572516, 0.0, 0.0, 0.0, 0.0, 0.0, 0.0, 1.572516, 0.0, 0.0, 0.0, 0.0, 0.0, 0.0, 3.6940839999999997, 0.0, 0.0, 0.0, 0.0, 0.0, 0.0, 99999.0, 0.0, 0.0, 0.0, 0.0, 0.0, 0.0, 99999.0, 0.0, 0.0, 0.0, 0.0, 0.0, 0.0, 99999.0)",0.75,-0.47,-0.02,0.0,0.0,0.0,"(-1.0, 0.0, 0.0, 0.0, 0.0, 0.0, 0.0, 0.0, 0.0, 0.0, 0.0, 0.0, 0.0, 0.0, 0.0, 0.0, 0.0, 0.0, 0.0, 0.0, 0.0, 0.0, 0.0, 0.0, 0.0, 0.0, 0.0, 0.0, 0.0, 0.0, 0.0, 0.0, 0.0, 0.0, 0.0, 0.0)"
2025/07/05/17:49:35.850723,10324,1751712575,860147008,map,base_link,1.5680666855964775,-4.534316449250185,-3.291,-0.04156868071696561,-0.054379450759499535,0.42214494883913034,-0.9039405745336107,"(1.572516, 0.0, 0.0, 0.0, 0.0, 0.0, 0.0, 1.572516, 0.0, 0.0, 0.0, 0.0, 0.0, 0.0, 3.6940839999999997, 0.0, 0.0, 0.0, 0.0, 0.0, 0.0, 99999.0, 0.0, 0.0, 0.0, 0.0, 0.0, 0.0, 99999.0, 0.0, 0.0, 0.0, 0.0, 0.0, 0.0, 99999.0)",0.76,-0.49,-0.02,0.0,0.0,0.0,"(-1.0, 0.0, 0.0, 0.0, 0.0, 0.0, 0.0, 0.0, 0.0, 0.0, 0.0, 0.0, 0.0, 0.0, 0.0, 0.0, 0.0, 0.0, 0.0, 0.0, 0.0, 0.0, 0.0, 0.0, 0.0, 0.0, 0.0, 0.0, 0.0, 0.0, 0.0, 0.0, 0.0, 0.0, 0.0, 0.0)"
2025/07/05/17:49:35.971996,10325,1751712575,980147008,map,base_link,1.6453657483672148,-4.6006723093084645,-3.284,-0.03620478033693386,-0.05586707936807659,0.4351311536244618,-0.8979025350610613,"(1.552516, 0.0, 0.0, 0.0, 0.0, 0.0, 0.0, 1.552516, 0.0, 0.0, 0.0, 0.0, 0.0, 0.0, 3.6710559999999997, 0.0, 0.0, 0.0, 0.0, 0.0, 0.0, 99999.0, 0.0, 0.0, 0.0, 0.0, 0.0, 0.0, 99999.0, 0.0, 0.0, 0.0, 0.0, 0.0, 0.0, 99999.0)",0.71,-0.57,-0.02,0.0,0.0,0.0,"(-1.0, 0.0, 0.0, 0.0, 0.0, 0.0, 0.0, 0.0, 0.0, 0.0, 0.0, 0.0, 0.0, 0.0, 0.0, 0.0, 0.0, 0.0, 0.0, 0.0, 0.0, 0.0, 0.0, 0.0, 0.0, 0.0, 0.0, 0.0, 0.0, 0.0, 0.0, 0.0, 0.0, 0.0, 0.0, 0.0)"
2025/07/05/17:49:36.050953,10326,1751712576,60147008,map,base_link,1.700579364785239,-4.655968860014785,-3.279,-0.022687623342460855,-0.06176358705386238,0.43573115260105144,-0.8976685879066226,"(1.552516, 0.0, 0.0, 0.0, 0.0, 0.0, 0.0, 1.552516, 0.0, 0.0, 0.0, 0.0, 0.0, 0.0, 3.6710559999999997, 0.0, 0.0, 0.0, 0.0, 0.0, 0.0, 99999.0, 0.0, 0.0, 0.0, 0.0, 0.0, 0.0, 99999.0, 0.0, 0.0, 0.0, 0.0, 0.0, 0.0, 99999.0)",0.61,-0.65,-0.03,0.0,0.0,0.0,"(-1.0, 0.0, 0.0, 0.0, 0.0, 0.0, 0.0, 0.0, 0.0, 0.0, 0.0, 0.0, 0.0, 0.0, 0.0, 0.0, 0.0, 0.0, 0.0, 0.0, 0.0, 0.0, 0.0, 0.0, 0.0, 0.0, 0.0, 0.0, 0.0, 0.0, 0.0, 0.0, 0.0, 0.0, 0.0, 0.0)"
2025/07/05/17:49:36.130963,10327,1751712576,140147008,map,base_link,1.74475025657877,-4.700206095321953,-3.276,-0.009463258889381904,-0.06824064127573182,0.43119368185069684,-0.8996252944095722,"(1.5351210000000002, 0.0, 0.0, 0.0, 0.0, 0.0, 0.0, 1.5351210000000002, 0.0, 0.0, 0.0, 0.0, 0.0, 0.0, 3.6442810000000003, 0.0, 0.0, 0.0, 0.0, 0.0, 0.0, 99999.0, 0.0, 0.0, 0.0, 0.0, 0.0, 0.0, 99999.0, 0.0, 0.0, 0.0, 0.0, 0.0, 0.0, 99999.0)",0.59,-0.66,-0.03,0.0,0.0,0.0,"(-1.0, 0.0, 0.0, 0.0, 0.0, 0.0, 0.0, 0.0, 0.0, 0.0, 0.0, 0.0, 0.0, 0.0, 0.0, 0.0, 0.0, 0.0, 0.0, 0.0, 0.0, 0.0, 0.0, 0.0, 0.0, 0.0, 0.0, 0.0, 0.0, 0.0, 0.0, 0.0, 0.0, 0.0, 0.0, 0.0)"
2025/07/05/17:49:36.231369,10328,1751712576,240147008,map,base_link,1.7999638694260223,-4.766561947629362,-3.274,-0.006766650977125546,-0.07010452081754226,0.42282515004828913,-0.9034702325379284,"(1.5351210000000002, 0.0, 0.0, 0.0, 0.0, 0.0, 0.0, 1.5351210000000002, 0.0, 0.0, 0.0, 0.0, 0.0, 0.0, 3.6442810000000003, 0.0, 0.0, 0.0, 0.0, 0.0, 0.0, 99999.0, 0.0, 0.0, 0.0, 0.0, 0.0, 0.0, 99999.0, 0.0, 0.0, 0.0, 0.0, 0.0, 0.0, 99999.0)",0.6,-0.67,-0.03,0.0,0.0,0.0,"(-1.0, 0.0, 0.0, 0.0, 0.0, 0.0, 0.0, 0.0, 0.0, 0.0, 0.0, 0.0, 0.0, 0.0, 0.0, 0.0, 0.0, 0.0, 0.0, 0.0, 0.0, 0.0, 0.0, 0.0, 0.0, 0.0, 0.0, 0.0, 0.0, 0.0, 0.0, 0.0, 0.0, 0.0, 0.0, 0.0)"
2025/07/05/17:49:36.331147,10329,1751712576,340147008,map,base_link,1.8662202064039377,-4.832917800409804,-3.271,-0.016591238922215555,-0.06598064588615747,0.4114206261321681,-0.9089028295436681,"(1.5252250000000003, 0.0, 0.0, 0.0, 0.0, 0.0, 0.0, 1.5252250000000003, 0.0, 0.0, 0.0, 0.0, 0.0, 0.0, 3.6252159999999995, 0.0, 0.0, 0.0, 0.0, 0.0, 0.0, 99999.0, 0.0, 0.0, 0.0, 0.0, 0.0, 0.0, 99999.0, 0.0, 0.0, 0.0, 0.0, 0.0, 0.0, 99999.0)",0.61,-0.67,-0.03,0.0,0.0,0.0,"(-1.0, 0.0, 0.0, 0.0, 0.0, 0.0, 0.0, 0.0, 0.0, 0.0, 0.0, 0.0, 0.0, 0.0, 0.0, 0.0, 0.0, 0.0, 0.0, 0.0, 0.0, 0.0, 0.0, 0.0, 0.0, 0.0, 0.0, 0.0, 0.0, 0.0, 0.0, 0.0, 0.0, 0.0, 0.0, 0.0)"
2025/07/05/17:49:36.492845,10330,1751712576,501147008,map,base_link,1.9545619898688005,-4.932451587251829,-3.262,-0.036357788250841336,-0.056983841318207634,0.38923216341122785,-0.9186562338700717,"(1.5252250000000003, 0.0, 0.0, 0.0, 0.0, 0.0, 0.0, 1.5252250000000003, 0.0, 0.0, 0.0, 0.0, 0.0, 0.0, 3.6252159999999995, 0.0, 0.0, 0.0, 0.0, 0.0, 0.0, 99999.0, 0.0, 0.0, 0.0, 0.0, 0.0, 0.0, 99999.0, 0.0, 0.0, 0.0, 0.0, 0.0, 0.0, 99999.0)",0.62,-0.69,-0.02,0.0,0.0,0.0,"(-1.0, 0.0, 0.0, 0.0, 0.0, 0.0, 0.0, 0.0, 0.0, 0.0, 0.0, 0.0, 0.0, 0.0, 0.0, 0.0, 0.0, 0.0, 0.0, 0.0, 0.0, 0.0, 0.0, 0.0, 0.0, 0.0, 0.0, 0.0, 0.0, 0.0, 0.0, 0.0, 0.0, 0.0, 0.0, 0.0)"
2025/07/05/17:49:36.633686,10331,1751712576,643147008,map,base_link,2.0429037738673594,-5.020926066044362,-3.255,-0.040249083613745754,-0.054368728718262475,0.3694667412311373,-0.9267784955046472,"(1.517824, 0.0, 0.0, 0.0, 0.0, 0.0, 0.0, 1.517824, 0.0, 0.0, 0.0, 0.0, 0.0, 0.0, 3.5872359999999994, 0.0, 0.0, 0.0, 0.0, 0.0, 0.0, 99999.0, 0.0, 0.0, 0.0, 0.0, 0.0, 0.0, 99999.0, 0.0, 0.0, 0.0, 0.0, 0.0, 0.0, 99999.0)",0.64,-0.69,-0.03,0.0,0.0,0.0,"(-1.0, 0.0, 0.0, 0.0, 0.0, 0.0, 0.0, 0.0, 0.0, 0.0, 0.0, 0.0, 0.0, 0.0, 0.0, 0.0, 0.0, 0.0, 0.0, 0.0, 0.0, 0.0, 0.0, 0.0, 0.0, 0.0, 0.0, 0.0, 0.0, 0.0, 0.0, 0.0, 0.0, 0.0, 0.0, 0.0)"
2025/07/05/17:49:36.711552,10332,1751712576,721147008,map,base_link,2.0870746675482397,-5.076222618074797,-3.247,-0.03662745766741233,-0.055582917098463955,0.358548202496986,-0.9311348748477994,"(1.5153610000000002, 0.0, 0.0, 0.0, 0.0, 0.0, 0.0, 1.5153610000000002, 0.0, 0.0, 0.0, 0.0, 0.0, 0.0, 3.5645439999999997, 0.0, 0.0, 0.0, 0.0, 0.0, 0.0, 99999.0, 0.0, 0.0, 0.0, 0.0, 0.0, 0.0, 99999.0, 0.0, 0.0, 0.0, 0.0, 0.0, 0.0, 99999.0)",0.65,-0.69,-0.04,0.0,0.0,0.0,"(-1.0, 0.0, 0.0, 0.0, 0.0, 0.0, 0.0, 0.0, 0.0, 0.0, 0.0, 0.0, 0.0, 0.0, 0.0, 0.0, 0.0, 0.0, 0.0, 0.0, 0.0, 0.0, 0.0, 0.0, 0.0, 0.0, 0.0, 0.0, 0.0, 0.0, 0.0, 0.0, 0.0, 0.0, 0.0, 0.0)"
2025/07/05/17:49:36.812283,10333,1751712576,821147008,map,base_link,2.1533310078742263,-5.14257847969788,-3.239,-0.029994163169865015,-0.05851730044916901,0.34497184116854646,-0.9363068431474078,"(1.5153610000000002, 0.0, 0.0, 0.0, 0.0, 0.0, 0.0, 1.5153610000000002, 0.0, 0.0, 0.0, 0.0, 0.0, 0.0, 3.5645439999999997, 0.0, 0.0, 0.0, 0.0, 0.0, 0.0, 99999.0, 0.0, 0.0, 0.0, 0.0, 0.0, 0.0, 99999.0, 0.0, 0.0, 0.0, 0.0, 0.0, 0.0, 99999.0)",0.67,-0.68,-0.04,0.0,0.0,0.0,"(-1.0, 0.0, 0.0, 0.0, 0.0, 0.0, 0.0, 0.0, 0.0, 0.0, 0.0, 0.0, 0.0, 0.0, 0.0, 0.0, 0.0, 0.0, 0.0, 0.0, 0.0, 0.0, 0.0, 0.0, 0.0, 0.0, 0.0, 0.0, 0.0, 0.0, 0.0, 0.0, 0.0, 0.0, 0.0, 0.0)"
2025/07/05/17:49:36.892829,10334,1751712576,901147008,map,base_link,2.2195873429656037,-5.197875025185882,-3.233,-0.02596528190684498,-0.06038706818775632,0.3339055238064968,-0.9403118138695771,"(1.507984, 0.0, 0.0, 0.0, 0.0, 0.0, 0.0, 1.507984, 0.0, 0.0, 0.0, 0.0, 0.0, 0.0, 3.5268839999999995, 0.0, 0.0, 0.0, 0.0, 0.0, 0.0, 99999.0, 0.0, 0.0, 0.0, 0.0, 0.0, 0.0, 99999.0, 0.0, 0.0, 0.0, 0.0, 0.0, 0.0, 99999.0)",0.69,-0.67,-0.04,0.0,0.0,0.0,"(-1.0, 0.0, 0.0, 0.0, 0.0, 0.0, 0.0, 0.0, 0.0, 0.0, 0.0, 0.0, 0.0, 0.0, 0.0, 0.0, 0.0, 0.0, 0.0, 0.0, 0.0, 0.0, 0.0, 0.0, 0.0, 0.0, 0.0, 0.0, 0.0, 0.0, 0.0, 0.0, 0.0, 0.0, 0.0, 0.0)"
2025/07/05/17:49:37.012094,10335,1751712577,21147008,map,base_link,2.3079291277577654,-5.264230888175632,-3.225,-0.024764017588469564,-0.061056895530709,0.3165074185099091,-0.9462990293608163,"(1.507984, 0.0, 0.0, 0.0, 0.0, 0.0, 0.0, 1.507984, 0.0, 0.0, 0.0, 0.0, 0.0, 0.0, 3.5268839999999995, 0.0, 0.0, 0.0, 0.0, 0.0, 0.0, 99999.0, 0.0, 0.0, 0.0, 0.0, 0.0, 0.0, 99999.0, 0.0, 0.0, 0.0, 0.0, 0.0, 0.0, 99999.0)",0.72,-0.66,-0.04,0.0,0.0,0.0,"(-1.0, 0.0, 0.0, 0.0, 0.0, 0.0, 0.0, 0.0, 0.0, 0.0, 0.0, 0.0, 0.0, 0.0, 0.0, 0.0, 0.0, 0.0, 0.0, 0.0, 0.0, 0.0, 0.0, 0.0, 0.0, 0.0, 0.0, 0.0, 0.0, 0.0, 0.0, 0.0, 0.0, 0.0, 0.0, 0.0)"
2025/07/05/17:49:37.111834,10336,1751712577,121147008,map,base_link,2.396270910439877,-5.330586743269195,-3.22,-0.02703489564549889,-0.06030625561691558,0.30098499807074036,-0.9513360609622978,"(1.4884, 0.0, 0.0, 0.0, 0.0, 0.0, 0.0, 1.4884, 0.0, 0.0, 0.0, 0.0, 0.0, 0.0, 3.485689, 0.0, 0.0, 0.0, 0.0, 0.0, 0.0, 99999.0, 0.0, 0.0, 0.0, 0.0, 0.0, 0.0, 99999.0, 0.0, 0.0, 0.0, 0.0, 0.0, 0.0, 99999.0)",0.75,-0.65,-0.04,0.0,0.0,0.0,"(-1.0, 0.0, 0.0, 0.0, 0.0, 0.0, 0.0, 0.0, 0.0, 0.0, 0.0, 0.0, 0.0, 0.0, 0.0, 0.0, 0.0, 0.0, 0.0, 0.0, 0.0, 0.0, 0.0, 0.0, 0.0, 0.0, 0.0, 0.0, 0.0, 0.0, 0.0, 0.0, 0.0, 0.0, 0.0, 0.0)"
2025/07/05/17:49:37.212064,10337,1751712577,221147008,map,base_link,2.473569973576173,-5.385883297901885,-3.215,-0.029678507555097548,-0.059230628345249385,0.2854277008080656,-0.9561077065197989,"(1.4884, 0.0, 0.0, 0.0, 0.0, 0.0, 0.0, 1.4884, 0.0, 0.0, 0.0, 0.0, 0.0, 0.0, 3.485689, 0.0, 0.0, 0.0, 0.0, 0.0, 0.0, 99999.0, 0.0, 0.0, 0.0, 0.0, 0.0, 0.0, 99999.0, 0.0, 0.0, 0.0, 0.0, 0.0, 0.0, 99999.0)",0.77,-0.62,-0.04,0.0,0.0,0.0,"(-1.0, 0.0, 0.0, 0.0, 0.0, 0.0, 0.0, 0.0, 0.0, 0.0, 0.0, 0.0, 0.0, 0.0, 0.0, 0.0, 0.0, 0.0, 0.0, 0.0, 0.0, 0.0, 0.0, 0.0, 0.0, 0.0, 0.0, 0.0, 0.0, 0.0, 0.0, 0.0, 0.0, 0.0, 0.0, 0.0)"
2025/07/05/17:49:37.292217,10338,1751712577,301147008,map,base_link,2.5398263126177656,-5.430120543820298,-3.208,-0.030755470657018936,-0.05876483956456573,0.27286807320074874,-0.9597623712582856,"(1.478656, 0.0, 0.0, 0.0, 0.0, 0.0, 0.0, 1.478656, 0.0, 0.0, 0.0, 0.0, 0.0, 0.0, 3.4558809999999998, 0.0, 0.0, 0.0, 0.0, 0.0, 0.0, 99999.0, 0.0, 0.0, 0.0, 0.0, 0.0, 0.0, 99999.0, 0.0, 0.0, 0.0, 0.0, 0.0, 0.0, 99999.0)",0.78,-0.61,-0.04,0.0,0.0,0.0,"(-1.0, 0.0, 0.0, 0.0, 0.0, 0.0, 0.0, 0.0, 0.0, 0.0, 0.0, 0.0, 0.0, 0.0, 0.0, 0.0, 0.0, 0.0, 0.0, 0.0, 0.0, 0.0, 0.0, 0.0, 0.0, 0.0, 0.0, 0.0, 0.0, 0.0, 0.0, 0.0, 0.0, 0.0, 0.0, 0.0)"
2025/07/05/17:49:37.392744,10339,1751712577,402147008,map,base_link,2.617125371926856,-5.485417090417389,-3.201,-0.030599549994428144,-0.05879810355776664,0.257042588179616,-0.9641242442860116,"(1.478656, 0.0, 0.0, 0.0, 0.0, 0.0, 0.0, 1.478656, 0.0, 0.0, 0.0, 0.0, 0.0, 0.0, 3.4558809999999998, 0.0, 0.0, 0.0, 0.0, 0.0, 0.0, 99999.0, 0.0, 0.0, 0.0, 0.0, 0.0, 0.0, 99999.0, 0.0, 0.0, 0.0, 0.0, 0.0, 0.0, 99999.0)",0.8,-0.59,-0.04,0.0,0.0,0.0,"(-1.0, 0.0, 0.0, 0.0, 0.0, 0.0, 0.0, 0.0, 0.0, 0.0, 0.0, 0.0, 0.0, 0.0, 0.0, 0.0, 0.0, 0.0, 0.0, 0.0, 0.0, 0.0, 0.0, 0.0, 0.0, 0.0, 0.0, 0.0, 0.0, 0.0, 0.0, 0.0, 0.0, 0.0, 0.0, 0.0)"
2025/07/05/17:49:37.550897,10340,1751712577,560147008,map,base_link,2.738595330929909,-5.562832273990795,-3.187,-0.029319689457196662,-0.05955947376396225,0.23319614104537434,-0.9701611127522267,"(1.468944, 0.0, 0.0, 0.0, 0.0, 0.0, 0.0, 1.468944, 0.0, 0.0, 0.0, 0.0, 0.0, 0.0, 3.4188009999999998, 0.0, 0.0, 0.0, 0.0, 0.0, 0.0, 99999.0, 0.0, 0.0, 0.0, 0.0, 0.0, 0.0, 99999.0, 0.0, 0.0, 0.0, 0.0, 0.0, 0.0, 99999.0)",0.83,-0.55,-0.05,0.0,0.0,0.0,"(-1.0, 0.0, 0.0, 0.0, 0.0, 0.0, 0.0, 0.0, 0.0, 0.0, 0.0, 0.0, 0.0, 0.0, 0.0, 0.0, 0.0, 0.0, 0.0, 0.0, 0.0, 0.0, 0.0, 0.0, 0.0, 0.0, 0.0, 0.0, 0.0, 0.0, 0.0, 0.0, 0.0, 0.0, 0.0, 0.0)"
2025/07/05/17:49:37.631091,10341,1751712577,640147008,map,base_link,2.793808944264485,-5.596010202913119,-3.182,-0.030234679640343712,-0.05944679200693245,0.2235363098947007,-0.9724111585259554,"(1.468944, 0.0, 0.0, 0.0, 0.0, 0.0, 0.0, 1.468944, 0.0, 0.0, 0.0, 0.0, 0.0, 0.0, 3.4188009999999998, 0.0, 0.0, 0.0, 0.0, 0.0, 0.0, 99999.0, 0.0, 0.0, 0.0, 0.0, 0.0, 0.0, 99999.0, 0.0, 0.0, 0.0, 0.0, 0.0, 0.0, 99999.0)",0.87,-0.49,-0.05,0.0,0.0,0.0,"(-1.0, 0.0, 0.0, 0.0, 0.0, 0.0, 0.0, 0.0, 0.0, 0.0, 0.0, 0.0, 0.0, 0.0, 0.0, 0.0, 0.0, 0.0, 0.0, 0.0, 0.0, 0.0, 0.0, 0.0, 0.0, 0.0, 0.0, 0.0, 0.0, 0.0, 0.0, 0.0, 0.0, 0.0, 0.0, 0.0)"
2025/07/05/17:49:37.730935,10342,1751712577,740147008,map,base_link,2.8821507311740753,-5.6291881425985135,-3.176,-0.042384841280689194,-0.057542534745097254,0.2188721811224349,-0.9731327505820715,"(1.4544359999999998, 0.0, 0.0, 0.0, 0.0, 0.0, 0.0, 1.4544359999999998, 0.0, 0.0, 0.0, 0.0, 0.0, 0.0, 3.370896, 0.0, 0.0, 0.0, 0.0, 0.0, 0.0, 99999.0, 0.0, 0.0, 0.0, 0.0, 0.0, 0.0, 99999.0, 0.0, 0.0, 0.0, 0.0, 0.0, 0.0, 99999.0)",0.91,-0.39,-0.06,0.0,0.0,0.0,"(-1.0, 0.0, 0.0, 0.0, 0.0, 0.0, 0.0, 0.0, 0.0, 0.0, 0.0, 0.0, 0.0, 0.0, 0.0, 0.0, 0.0, 0.0, 0.0, 0.0, 0.0, 0.0, 0.0, 0.0, 0.0, 0.0, 0.0, 0.0, 0.0, 0.0, 0.0, 0.0, 0.0, 0.0, 0.0, 0.0)"
2025/07/05/17:49:37.830934,10343,1751712577,840147008,map,base_link,2.959449791121271,-5.662366072657605,-3.172,-0.05406264022085578,-0.056216771795449635,0.2197605991895325,-0.9724310693026557,"(1.4544359999999998, 0.0, 0.0, 0.0, 0.0, 0.0, 0.0, 1.4544359999999998, 0.0, 0.0, 0.0, 0.0, 0.0, 0.0, 3.370896, 0.0, 0.0, 0.0, 0.0, 0.0, 0.0, 99999.0, 0.0, 0.0, 0.0, 0.0, 0.0, 0.0, 99999.0, 0.0, 0.0, 0.0, 0.0, 0.0, 0.0, 99999.0)",0.92,-0.34,-0.06,0.0,0.0,0.0,"(-1.0, 0.0, 0.0, 0.0, 0.0, 0.0, 0.0, 0.0, 0.0, 0.0, 0.0, 0.0, 0.0, 0.0, 0.0, 0.0, 0.0, 0.0, 0.0, 0.0, 0.0, 0.0, 0.0, 0.0, 0.0, 0.0, 0.0, 0.0, 0.0, 0.0, 0.0, 0.0, 0.0, 0.0, 0.0, 0.0)"
2025/07/05/17:49:37.951754,10344,1751712577,960147008,map,base_link,3.058834297183348,-5.695544004470037,-3.172,-0.056626850364034365,-0.05673449680281731,0.22675966058203173,-0.9706465129093608,"(1.4376010000000001, 0.0, 0.0, 0.0, 0.0, 0.0, 0.0, 1.4376010000000001, 0.0, 0.0, 0.0, 0.0, 0.0, 0.0, 3.330625, 0.0, 0.0, 0.0, 0.0, 0.0, 0.0, 99999.0, 0.0, 0.0, 0.0, 0.0, 0.0, 0.0, 99999.0, 0.0, 0.0, 0.0, 0.0, 0.0, 0.0, 99999.0)",0.94,-0.3,-0.06,0.0,0.0,0.0,"(-1.0, 0.0, 0.0, 0.0, 0.0, 0.0, 0.0, 0.0, 0.0, 0.0, 0.0, 0.0, 0.0, 0.0, 0.0, 0.0, 0.0, 0.0, 0.0, 0.0, 0.0, 0.0, 0.0, 0.0, 0.0, 0.0, 0.0, 0.0, 0.0, 0.0, 0.0, 0.0, 0.0, 0.0, 0.0, 0.0)"
2025/07/05/17:49:38.034037,10345,1751712578,43147008,map,base_link,3.13613335766424,-5.717662626595111,-3.174,-0.051887129805998494,-0.05822999017096275,0.234496571773458,-0.9689831535334763,"(1.4376010000000001, 0.0, 0.0, 0.0, 0.0, 0.0, 0.0, 1.4376010000000001, 0.0, 0.0, 0.0, 0.0, 0.0, 0.0, 3.330625, 0.0, 0.0, 0.0, 0.0, 0.0, 0.0, 99999.0, 0.0, 0.0, 0.0, 0.0, 0.0, 0.0, 99999.0, 0.0, 0.0, 0.0, 0.0, 0.0, 0.0, 99999.0)",0.95,-0.28,-0.05,0.0,0.0,0.0,"(-1.0, 0.0, 0.0, 0.0, 0.0, 0.0, 0.0, 0.0, 0.0, 0.0, 0.0, 0.0, 0.0, 0.0, 0.0, 0.0, 0.0, 0.0, 0.0, 0.0, 0.0, 0.0, 0.0, 0.0, 0.0, 0.0, 0.0, 0.0, 0.0, 0.0, 0.0, 0.0, 0.0, 0.0, 0.0, 0.0)"
2025/07/05/17:49:38.131033,10346,1751712578,140147008,map,base_link,3.2134324180766844,-5.739781248621023,-3.178,-0.04354229905596405,-0.05970687969828744,0.2474898637137728,-0.9660682812661605,"(1.4089690000000001, 0.0, 0.0, 0.0, 0.0, 0.0, 0.0, 1.4089690000000001, 0.0, 0.0, 0.0, 0.0, 0.0, 0.0, 3.2869689999999996, 0.0, 0.0, 0.0, 0.0, 0.0, 0.0, 99999.0, 0.0, 0.0, 0.0, 0.0, 0.0, 0.0, 99999.0, 0.0, 0.0, 0.0, 0.0, 0.0, 0.0, 99999.0)",0.96,-0.26,-0.04,0.0,0.0,0.0,"(-1.0, 0.0, 0.0, 0.0, 0.0, 0.0, 0.0, 0.0, 0.0, 0.0, 0.0, 0.0, 0.0, 0.0, 0.0, 0.0, 0.0, 0.0, 0.0, 0.0, 0.0, 0.0, 0.0, 0.0, 0.0, 0.0, 0.0, 0.0, 0.0, 0.0, 0.0, 0.0, 0.0, 0.0, 0.0, 0.0)"
2025/07/05/17:49:38.230891,10347,1751712578,240147008,map,base_link,3.290731473150111,-5.761899861499186,-3.184,-0.03468644276663082,-0.06057506304931824,0.26149492827863763,-0.962677471902879,"(1.4089690000000001, 0.0, 0.0, 0.0, 0.0, 0.0, 0.0, 1.4089690000000001, 0.0, 0.0, 0.0, 0.0, 0.0, 0.0, 3.2869689999999996, 0.0, 0.0, 0.0, 0.0, 0.0, 0.0, 99999.0, 0.0, 0.0, 0.0, 0.0, 0.0, 0.0, 99999.0, 0.0, 0.0, 0.0, 0.0, 0.0, 0.0, 99999.0)",0.95,-0.27,-0.04,0.0,0.0,0.0,"(-1.0, 0.0, 0.0, 0.0, 0.0, 0.0, 0.0, 0.0, 0.0, 0.0, 0.0, 0.0, 0.0, 0.0, 0.0, 0.0, 0.0, 0.0, 0.0, 0.0, 0.0, 0.0, 0.0, 0.0, 0.0, 0.0, 0.0, 0.0, 0.0, 0.0, 0.0, 0.0, 0.0, 0.0, 0.0, 0.0)"
2025/07/05/17:49:38.330962,10348,1751712578,340147008,map,base_link,3.368030525630448,-5.795077783408272,-3.191,-0.028389156395685344,-0.06119944206429005,0.2750742815991709,-0.9590530870045,"(1.3947610000000001, 0.0, 0.0, 0.0, 0.0, 0.0, 0.0, 1.3947610000000001, 0.0, 0.0, 0.0, 0.0, 0.0, 0.0, 3.250809, 0.0, 0.0, 0.0, 0.0, 0.0, 0.0, 99999.0, 0.0, 0.0, 0.0, 0.0, 0.0, 0.0, 99999.0, 0.0, 0.0, 0.0, 0.0, 0.0, 0.0, 99999.0)",0.94,-0.28,-0.04,0.0,0.0,0.0,"(-1.0, 0.0, 0.0, 0.0, 0.0, 0.0, 0.0, 0.0, 0.0, 0.0, 0.0, 0.0, 0.0, 0.0, 0.0, 0.0, 0.0, 0.0, 0.0, 0.0, 0.0, 0.0, 0.0, 0.0, 0.0, 0.0, 0.0, 0.0, 0.0, 0.0, 0.0, 0.0, 0.0, 0.0, 0.0, 0.0)"
2025/07/05/17:49:38.511884,10349,1751712578,521147008,map,base_link,3.5115859173650996,-5.839315018138686,-3.2,-0.027187902679629124,-0.060251208526155335,0.2961954187484289,-0.9528372808257783,"(1.3947610000000001, 0.0, 0.0, 0.0, 0.0, 0.0, 0.0, 1.3947610000000001, 0.0, 0.0, 0.0, 0.0, 0.0, 0.0, 3.250809, 0.0, 0.0, 0.0, 0.0, 0.0, 0.0, 99999.0, 0.0, 0.0, 0.0, 0.0, 0.0, 0.0, 99999.0, 0.0, 0.0, 0.0, 0.0, 0.0, 0.0, 99999.0)",0.93,-0.31,-0.04,0.0,0.0,0.0,"(-1.0, 0.0, 0.0, 0.0, 0.0, 0.0, 0.0, 0.0, 0.0, 0.0, 0.0, 0.0, 0.0, 0.0, 0.0, 0.0, 0.0, 0.0, 0.0, 0.0, 0.0, 0.0, 0.0, 0.0, 0.0, 0.0, 0.0, 0.0, 0.0, 0.0, 0.0, 0.0, 0.0, 0.0, 0.0, 0.0)"
2025/07/05/17:49:38.614699,10350,1751712578,624147008,map,base_link,3.5999276986804847,-5.872492950202279,-3.204,-0.03061837411644461,-0.05885468963181896,0.3069285704920664,-0.9494174494343909,"(1.387684, 0.0, 0.0, 0.0, 0.0, 0.0, 0.0, 1.387684, 0.0, 0.0, 0.0, 0.0, 0.0, 0.0, 3.218436, 0.0, 0.0, 0.0, 0.0, 0.0, 0.0, 99999.0, 0.0, 0.0, 0.0, 0.0, 0.0, 0.0, 99999.0, 0.0, 0.0, 0.0, 0.0, 0.0, 0.0, 99999.0)",0.92,-0.32,-0.04,0.0,0.0,0.0,"(-1.0, 0.0, 0.0, 0.0, 0.0, 0.0, 0.0, 0.0, 0.0, 0.0, 0.0, 0.0, 0.0, 0.0, 0.0, 0.0, 0.0, 0.0, 0.0, 0.0, 0.0, 0.0, 0.0, 0.0, 0.0, 0.0, 0.0, 0.0, 0.0, 0.0, 0.0, 0.0, 0.0, 0.0, 0.0, 0.0)"
2025/07/05/17:49:38.692067,10351,1751712578,701147008,map,base_link,3.6551413110381903,-5.905670879855369,-3.208,-0.0326818018408225,-0.058047164487817354,0.3152442612062081,-0.9466696796137042,"(1.3759290000000002, 0.0, 0.0, 0.0, 0.0, 0.0, 0.0, 1.3759290000000002, 0.0, 0.0, 0.0, 0.0, 0.0, 0.0, 3.182656, 0.0, 0.0, 0.0, 0.0, 0.0, 0.0, 99999.0, 0.0, 0.0, 0.0, 0.0, 0.0, 0.0, 99999.0, 0.0, 0.0, 0.0, 0.0, 0.0, 0.0, 99999.0)",0.92,-0.33,-0.04,0.0,0.0,0.0,"(-1.0, 0.0, 0.0, 0.0, 0.0, 0.0, 0.0, 0.0, 0.0, 0.0, 0.0, 0.0, 0.0, 0.0, 0.0, 0.0, 0.0, 0.0, 0.0, 0.0, 0.0, 0.0, 0.0, 0.0, 0.0, 0.0, 0.0, 0.0, 0.0, 0.0, 0.0, 0.0, 0.0, 0.0, 0.0, 0.0)"
2025/07/05/17:49:38.792719,10352,1751712578,802147008,map,base_link,3.74348308773624,-5.938848802411644,-3.212,-0.033760982307793744,-0.057844917439604106,0.3256007893726322,-0.9431321686592695,"(1.3759290000000002, 0.0, 0.0, 0.0, 0.0, 0.0, 0.0, 1.3759290000000002, 0.0, 0.0, 0.0, 0.0, 0.0, 0.0, 3.182656, 0.0, 0.0, 0.0, 0.0, 0.0, 0.0, 99999.0, 0.0, 0.0, 0.0, 0.0, 0.0, 0.0, 99999.0, 0.0, 0.0, 0.0, 0.0, 0.0, 0.0, 99999.0)",0.91,-0.36,-0.03,0.0,0.0,0.0,"(-1.0, 0.0, 0.0, 0.0, 0.0, 0.0, 0.0, 0.0, 0.0, 0.0, 0.0, 0.0, 0.0, 0.0, 0.0, 0.0, 0.0, 0.0, 0.0, 0.0, 0.0, 0.0, 0.0, 0.0, 0.0, 0.0, 0.0, 0.0, 0.0, 0.0, 0.0, 0.0, 0.0, 0.0, 0.0, 0.0)"
2025/07/05/17:49:38.871707,10353,1751712578,880147008,map,base_link,3.8097394215804288,-5.972026732922339,-3.215,-0.03323879260690721,-0.057811171665396295,0.3333561718087671,-0.9404396385806548,"(1.3712410000000002, 0.0, 0.0, 0.0, 0.0, 0.0, 0.0, 1.3712410000000002, 0.0, 0.0, 0.0, 0.0, 0.0, 0.0, 3.147076, 0.0, 0.0, 0.0, 0.0, 0.0, 0.0, 99999.0, 0.0, 0.0, 0.0, 0.0, 0.0, 0.0, 99999.0, 0.0, 0.0, 0.0, 0.0, 0.0, 0.0, 99999.0)",0.89,-0.39,-0.03,0.0,0.0,0.0,"(-1.0, 0.0, 0.0, 0.0, 0.0, 0.0, 0.0, 0.0, 0.0, 0.0, 0.0, 0.0, 0.0, 0.0, 0.0, 0.0, 0.0, 0.0, 0.0, 0.0, 0.0, 0.0, 0.0, 0.0, 0.0, 0.0, 0.0, 0.0, 0.0, 0.0, 0.0, 0.0, 0.0, 0.0, 0.0, 0.0)"
2025/07/05/17:49:38.992895,10354,1751712579,2147008,map,base_link,3.898081195289832,-6.038382581379536,-3.22,-0.018962641344240524,-0.061857657515643656,0.33713199952017747,-0.9392316345499943,"(1.3712410000000002, 0.0, 0.0, 0.0, 0.0, 0.0, 0.0, 1.3712410000000002, 0.0, 0.0, 0.0, 0.0, 0.0, 0.0, 3.147076, 0.0, 0.0, 0.0, 0.0, 0.0, 0.0, 99999.0, 0.0, 0.0, 0.0, 0.0, 0.0, 0.0, 99999.0, 0.0, 0.0, 0.0, 0.0, 0.0, 0.0, 99999.0)",0.79,-0.53,-0.03,0.0,0.0,0.0,"(-1.0, 0.0, 0.0, 0.0, 0.0, 0.0, 0.0, 0.0, 0.0, 0.0, 0.0, 0.0, 0.0, 0.0, 0.0, 0.0, 0.0, 0.0, 0.0, 0.0, 0.0, 0.0, 0.0, 0.0, 0.0, 0.0, 0.0, 0.0, 0.0, 0.0, 0.0, 0.0, 0.0, 0.0, 0.0, 0.0)"
2025/07/05/17:49:39.071856,10355,1751712579,80147008,map,base_link,3.953294806273866,-6.082619819433832,-3.221,-0.001479388253142378,-0.06762862333770317,0.33176859445424306,-0.9409323995110912,"(1.3665610000000001, 0.0, 0.0, 0.0, 0.0, 0.0, 0.0, 1.3665610000000001, 0.0, 0.0, 0.0, 0.0, 0.0, 0.0, 3.1152249999999997, 0.0, 0.0, 0.0, 0.0, 0.0, 0.0, 99999.0, 0.0, 0.0, 0.0, 0.0, 0.0, 0.0, 99999.0, 0.0, 0.0, 0.0, 0.0, 0.0, 0.0, 99999.0)",0.76,-0.55,-0.04,0.0,0.0,0.0,"(-1.0, 0.0, 0.0, 0.0, 0.0, 0.0, 0.0, 0.0, 0.0, 0.0, 0.0, 0.0, 0.0, 0.0, 0.0, 0.0, 0.0, 0.0, 0.0, 0.0, 0.0, 0.0, 0.0, 0.0, 0.0, 0.0, 0.0, 0.0, 0.0, 0.0, 0.0, 0.0, 0.0, 0.0, 0.0, 0.0)"
2025/07/05/17:49:39.171750,10356,1751712579,180147008,map,base_link,4.019551137987985,-6.14897567603063,-3.221,0.007963485155403781,-0.07121829720590418,0.3214494736958594,-0.9442111908402304,"(1.3665610000000001, 0.0, 0.0, 0.0, 0.0, 0.0, 0.0, 1.3665610000000001, 0.0, 0.0, 0.0, 0.0, 0.0, 0.0, 3.1152249999999997, 0.0, 0.0, 0.0, 0.0, 0.0, 0.0, 99999.0, 0.0, 0.0, 0.0, 0.0, 0.0, 0.0, 99999.0, 0.0, 0.0, 0.0, 0.0, 0.0, 0.0, 99999.0)",0.75,-0.55,-0.04,0.0,0.0,0.0,"(-1.0, 0.0, 0.0, 0.0, 0.0, 0.0, 0.0, 0.0, 0.0, 0.0, 0.0, 0.0, 0.0, 0.0, 0.0, 0.0, 0.0, 0.0, 0.0, 0.0, 0.0, 0.0, 0.0, 0.0, 0.0, 0.0, 0.0, 0.0, 0.0, 0.0, 0.0, 0.0, 0.0, 0.0, 0.0, 0.0)"
2025/07/05/17:49:39.272213,10357,1751712579,280147008,map,base_link,4.074764748766677,-6.19321291424934,-3.222,0.00031973816899555623,-0.06947859384979173,0.30786286910651683,-0.9488904449880728,"(1.3665610000000001, 0.0, 0.0, 0.0, 0.0, 0.0, 0.0, 1.3665610000000001, 0.0, 0.0, 0.0, 0.0, 0.0, 0.0, 3.1152249999999997, 0.0, 0.0, 0.0, 0.0, 0.0, 0.0, 99999.0, 0.0, 0.0, 0.0, 0.0, 0.0, 0.0, 99999.0, 0.0, 0.0, 0.0, 0.0, 0.0, 0.0, 99999.0)",0.75,-0.55,-0.03,0.0,0.0,0.0,"(-1.0, 0.0, 0.0, 0.0, 0.0, 0.0, 0.0, 0.0, 0.0, 0.0, 0.0, 0.0, 0.0, 0.0, 0.0, 0.0, 0.0, 0.0, 0.0, 0.0, 0.0, 0.0, 0.0, 0.0, 0.0, 0.0, 0.0, 0.0, 0.0, 0.0, 0.0, 0.0, 0.0, 0.0, 0.0, 0.0)"
2025/07/05/17:49:39.371621,10358,1751712579,380147008,map,base_link,4.14102108187307,-6.24850946240445,-3.223,-0.016223895264967734,-0.06452943818756726,0.2921156521297156,-0.9540656070787055,"(1.3595559999999998, 0.0, 0.0, 0.0, 0.0, 0.0, 0.0, 1.3595559999999998, 0.0, 0.0, 0.0, 0.0, 0.0, 0.0, 3.076516, 0.0, 0.0, 0.0, 0.0, 0.0, 0.0, 99999.0, 0.0, 0.0, 0.0, 0.0, 0.0, 0.0, 99999.0, 0.0, 0.0, 0.0, 0.0, 0.0, 0.0, 99999.0)",0.75,-0.54,-0.03,0.0,0.0,0.0,"(-1.0, 0.0, 0.0, 0.0, 0.0, 0.0, 0.0, 0.0, 0.0, 0.0, 0.0, 0.0, 0.0, 0.0, 0.0, 0.0, 0.0, 0.0, 0.0, 0.0, 0.0, 0.0, 0.0, 0.0, 0.0, 0.0, 0.0, 0.0, 0.0, 0.0, 0.0, 0.0, 0.0, 0.0, 0.0, 0.0)"
2025/07/05/17:49:39.531159,10359,1751712579,540147008,map,base_link,4.262491025209329,-6.336983940402068,-3.226,-0.03348275686372975,-0.05847887105928595,0.26538981847286447,-0.9617834324230046,"(1.3572250000000001, 0.0, 0.0, 0.0, 0.0, 0.0, 0.0, 1.3572250000000001, 0.0, 0.0, 0.0, 0.0, 0.0, 0.0, 3.055504, 0.0, 0.0, 0.0, 0.0, 0.0, 0.0, 99999.0, 0.0, 0.0, 0.0, 0.0, 0.0, 0.0, 99999.0, 0.0, 0.0, 0.0, 0.0, 0.0, 0.0, 99999.0)",0.76,-0.54,-0.03,0.0,0.0,0.0,"(-1.0, 0.0, 0.0, 0.0, 0.0, 0.0, 0.0, 0.0, 0.0, 0.0, 0.0, 0.0, 0.0, 0.0, 0.0, 0.0, 0.0, 0.0, 0.0, 0.0, 0.0, 0.0, 0.0, 0.0, 0.0, 0.0, 0.0, 0.0, 0.0, 0.0, 0.0, 0.0, 0.0, 0.0, 0.0, 0.0)"
2025/07/05/17:49:39.633735,10360,1751712579,643147008,map,base_link,4.339790080455439,-6.392280489533429,-3.228,-0.033374800533490304,-0.058461398025690295,0.24898669844640858,-0.9661645882700262,"(1.3572250000000001, 0.0, 0.0, 0.0, 0.0, 0.0, 0.0, 1.3572250000000001, 0.0, 0.0, 0.0, 0.0, 0.0, 0.0, 3.055504, 0.0, 0.0, 0.0, 0.0, 0.0, 0.0, 99999.0, 0.0, 0.0, 0.0, 0.0, 0.0, 0.0, 99999.0, 0.0, 0.0, 0.0, 0.0, 0.0, 0.0, 99999.0)",0.78,-0.53,-0.03,0.0,0.0,0.0,"(-1.0, 0.0, 0.0, 0.0, 0.0, 0.0, 0.0, 0.0, 0.0, 0.0, 0.0, 0.0, 0.0, 0.0, 0.0, 0.0, 0.0, 0.0, 0.0, 0.0, 0.0, 0.0, 0.0, 0.0, 0.0, 0.0, 0.0, 0.0, 0.0, 0.0, 0.0, 0.0, 0.0, 0.0, 0.0, 0.0)"
2025/07/05/17:49:39.730840,10361,1751712579,740147008,map,base_link,4.42813185998771,-6.447577039873041,-3.225,-0.027621459191050697,-0.06010248847407513,0.23303793713713694,-0.9702154738645683,"(1.3595559999999998, 0.0, 0.0, 0.0, 0.0, 0.0, 0.0, 1.3595559999999998, 0.0, 0.0, 0.0, 0.0, 0.0, 0.0, 3.048516, 0.0, 0.0, 0.0, 0.0, 0.0, 0.0, 99999.0, 0.0, 0.0, 0.0, 0.0, 0.0, 0.0, 99999.0, 0.0, 0.0, 0.0, 0.0, 0.0, 0.0, 99999.0)",0.8,-0.52,-0.03,0.0,0.0,0.0,"(-1.0, 0.0, 0.0, 0.0, 0.0, 0.0, 0.0, 0.0, 0.0, 0.0, 0.0, 0.0, 0.0, 0.0, 0.0, 0.0, 0.0, 0.0, 0.0, 0.0, 0.0, 0.0, 0.0, 0.0, 0.0, 0.0, 0.0, 0.0, 0.0, 0.0, 0.0, 0.0, 0.0, 0.0, 0.0, 0.0)"
2025/07/05/17:49:39.833567,10362,1751712579,843147008,map,base_link,4.505430915096926,-6.502873589267978,-3.223,-0.021698530199609167,-0.06148534353219856,0.2179889968153374,-0.9737707756886871,"(1.3595559999999998, 0.0, 0.0, 0.0, 0.0, 0.0, 0.0, 1.3595559999999998, 0.0, 0.0, 0.0, 0.0, 0.0, 0.0, 3.048516, 0.0, 0.0, 0.0, 0.0, 0.0, 0.0, 99999.0, 0.0, 0.0, 0.0, 0.0, 0.0, 0.0, 99999.0, 0.0, 0.0, 0.0, 0.0, 0.0, 0.0, 99999.0)",0.83,-0.48,-0.03,0.0,0.0,0.0,"(-1.0, 0.0, 0.0, 0.0, 0.0, 0.0, 0.0, 0.0, 0.0, 0.0, 0.0, 0.0, 0.0, 0.0, 0.0, 0.0, 0.0, 0.0, 0.0, 0.0, 0.0, 0.0, 0.0, 0.0, 0.0, 0.0, 0.0, 0.0, 0.0, 0.0, 0.0, 0.0, 0.0, 0.0, 0.0, 0.0)"
2025/07/05/17:49:39.930946,10363,1751712579,940147008,map,base_link,4.593772699780229,-6.54711084164279,-3.219,-0.027040758579575615,-0.060490101411154455,0.20899286676677603,-0.9756698861025249,"(1.3618890000000001, 0.0, 0.0, 0.0, 0.0, 0.0, 0.0, 1.3618890000000001, 0.0, 0.0, 0.0, 0.0, 0.0, 0.0, 3.041536, 0.0, 0.0, 0.0, 0.0, 0.0, 0.0, 99999.0, 0.0, 0.0, 0.0, 0.0, 0.0, 0.0, 99999.0, 0.0, 0.0, 0.0, 0.0, 0.0, 0.0, 99999.0)",0.89,-0.36,-0.03,0.0,0.0,0.0,"(-1.0, 0.0, 0.0, 0.0, 0.0, 0.0, 0.0, 0.0, 0.0, 0.0, 0.0, 0.0, 0.0, 0.0, 0.0, 0.0, 0.0, 0.0, 0.0, 0.0, 0.0, 0.0, 0.0, 0.0, 0.0, 0.0, 0.0, 0.0, 0.0, 0.0, 0.0, 0.0, 0.0, 0.0, 0.0, 0.0)"
2025/07/05/17:49:40.033963,10364,1751712580,43147008,map,base_link,4.693157202706352,-6.58028877638931,-3.216,-0.045881836639739555,-0.05775900484868908,0.20798756530310875,-0.9753460550516102,"(1.3618890000000001, 0.0, 0.0, 0.0, 0.0, 0.0, 0.0, 1.3618890000000001, 0.0, 0.0, 0.0, 0.0, 0.0, 0.0, 3.041536, 0.0, 0.0, 0.0, 0.0, 0.0, 0.0, 99999.0, 0.0, 0.0, 0.0, 0.0, 0.0, 0.0, 99999.0, 0.0, 0.0, 0.0, 0.0, 0.0, 0.0, 99999.0)",0.92,-0.29,-0.05,0.0,0.0,0.0,"(-1.0, 0.0, 0.0, 0.0, 0.0, 0.0, 0.0, 0.0, 0.0, 0.0, 0.0, 0.0, 0.0, 0.0, 0.0, 0.0, 0.0, 0.0, 0.0, 0.0, 0.0, 0.0, 0.0, 0.0, 0.0, 0.0, 0.0, 0.0, 0.0, 0.0, 0.0, 0.0, 0.0, 0.0, 0.0, 0.0)"
2025/07/05/17:49:40.130611,10365,1751712580,140147008,map,base_link,4.781498981794205,-6.613466710095162,-3.211,-0.06269537697722238,-0.05581735582738782,0.21362201543231885,-0.9733033170686087,"(1.3688999999999998, 0.0, 0.0, 0.0, 0.0, 0.0, 0.0, 1.3688999999999998, 0.0, 0.0, 0.0, 0.0, 0.0, 0.0, 3.0450250000000003, 0.0, 0.0, 0.0, 0.0, 0.0, 0.0, 99999.0, 0.0, 0.0, 0.0, 0.0, 0.0, 0.0, 99999.0, 0.0, 0.0, 0.0, 0.0, 0.0, 0.0, 99999.0)",0.94,-0.26,-0.05,0.0,0.0,0.0,"(-1.0, 0.0, 0.0, 0.0, 0.0, 0.0, 0.0, 0.0, 0.0, 0.0, 0.0, 0.0, 0.0, 0.0, 0.0, 0.0, 0.0, 0.0, 0.0, 0.0, 0.0, 0.0, 0.0, 0.0, 0.0, 0.0, 0.0, 0.0, 0.0, 0.0, 0.0, 0.0, 0.0, 0.0, 0.0, 0.0)"
2025/07/05/17:49:40.233688,10366,1751712580,243147008,map,base_link,4.869840767801335,-6.64664465473745,-3.209,-0.062350668074053046,-0.056695651551647866,0.2226009115126475,-0.9712604344250781,"(1.3688999999999998, 0.0, 0.0, 0.0, 0.0, 0.0, 0.0, 1.3688999999999998, 0.0, 0.0, 0.0, 0.0, 0.0, 0.0, 3.0450250000000003, 0.0, 0.0, 0.0, 0.0, 0.0, 0.0, 99999.0, 0.0, 0.0, 0.0, 0.0, 0.0, 0.0, 99999.0, 0.0, 0.0, 0.0, 0.0, 0.0, 0.0, 99999.0)",0.93,-0.28,-0.04,0.0,0.0,0.0,"(-1.0, 0.0, 0.0, 0.0, 0.0, 0.0, 0.0, 0.0, 0.0, 0.0, 0.0, 0.0, 0.0, 0.0, 0.0, 0.0, 0.0, 0.0, 0.0, 0.0, 0.0, 0.0, 0.0, 0.0, 0.0, 0.0, 0.0, 0.0, 0.0, 0.0, 0.0, 0.0, 0.0, 0.0, 0.0, 0.0)"
2025/07/05/17:49:40.330717,10367,1751712580,340147008,map,base_link,4.9581825472326715,-6.690881897676769,-3.209,-0.04012349646399412,-0.060537988905952834,0.22864002417152235,-0.9707981233385096,"(1.373584, 0.0, 0.0, 0.0, 0.0, 0.0, 0.0, 1.373584, 0.0, 0.0, 0.0, 0.0, 0.0, 0.0, 3.048516, 0.0, 0.0, 0.0, 0.0, 0.0, 0.0, 99999.0, 0.0, 0.0, 0.0, 0.0, 0.0, 0.0, 99999.0, 0.0, 0.0, 0.0, 0.0, 0.0, 0.0, 99999.0)",0.9,-0.37,-0.02,0.0,0.0,0.0,"(-1.0, 0.0, 0.0, 0.0, 0.0, 0.0, 0.0, 0.0, 0.0, 0.0, 0.0, 0.0, 0.0, 0.0, 0.0, 0.0, 0.0, 0.0, 0.0, 0.0, 0.0, 0.0, 0.0, 0.0, 0.0, 0.0, 0.0, 0.0, 0.0, 0.0, 0.0, 0.0, 0.0, 0.0, 0.0, 0.0)"
2025/07/05/17:49:40.511698,10368,1751712580,521147008,map,base_link,5.112780657558982,-6.7682970730131355,-3.206,0.01064946490711842,-0.06888034697380567,0.22131364734062753,-0.9727087725515526,"(1.373584, 0.0, 0.0, 0.0, 0.0, 0.0, 0.0, 1.373584, 0.0, 0.0, 0.0, 0.0, 0.0, 0.0, 3.048516, 0.0, 0.0, 0.0, 0.0, 0.0, 0.0, 99999.0, 0.0, 0.0, 0.0, 0.0, 0.0, 0.0, 99999.0, 0.0, 0.0, 0.0, 0.0, 0.0, 0.0, 99999.0)",0.86,-0.45,-0.04,0.0,0.0,0.0,"(-1.0, 0.0, 0.0, 0.0, 0.0, 0.0, 0.0, 0.0, 0.0, 0.0, 0.0, 0.0, 0.0, 0.0, 0.0, 0.0, 0.0, 0.0, 0.0, 0.0, 0.0, 0.0, 0.0, 0.0, 0.0, 0.0, 0.0, 0.0, 0.0, 0.0, 0.0, 0.0, 0.0, 0.0, 0.0, 0.0)"
2025/07/05/17:49:40.591920,10369,1751712580,601147008,map,base_link,5.179036992043764,-6.801475005615897,-3.204,0.017573140996904345,-0.06984330403287792,0.21045723342867328,-0.9749465885343784,"(1.3782759999999998, 0.0, 0.0, 0.0, 0.0, 0.0, 0.0, 1.3782759999999998, 0.0, 0.0, 0.0, 0.0, 0.0, 0.0, 3.0450250000000003, 0.0, 0.0, 0.0, 0.0, 0.0, 0.0, 99999.0, 0.0, 0.0, 0.0, 0.0, 0.0, 0.0, 99999.0, 0.0, 0.0, 0.0, 0.0, 0.0, 0.0, 99999.0)",0.86,-0.44,-0.04,0.0,0.0,0.0,"(-1.0, 0.0, 0.0, 0.0, 0.0, 0.0, 0.0, 0.0, 0.0, 0.0, 0.0, 0.0, 0.0, 0.0, 0.0, 0.0, 0.0, 0.0, 0.0, 0.0, 0.0, 0.0, 0.0, 0.0, 0.0, 0.0, 0.0, 0.0, 0.0, 0.0, 0.0, 0.0, 0.0, 0.0, 0.0, 0.0)"
2025/07/05/17:49:40.671892,10370,1751712580,681147008,map,base_link,5.245293323865765,-6.8346529378353855,-3.201,0.007352664480878562,-0.06779579921103807,0.1992558265250715,-0.977571881515717,"(1.387684, 0.0, 0.0, 0.0, 0.0, 0.0, 0.0, 1.387684, 0.0, 0.0, 0.0, 0.0, 0.0, 0.0, 3.048516, 0.0, 0.0, 0.0, 0.0, 0.0, 0.0, 99999.0, 0.0, 0.0, 0.0, 0.0, 0.0, 0.0, 99999.0, 0.0, 0.0, 0.0, 0.0, 0.0, 0.0, 99999.0)",0.87,-0.43,-0.04,0.0,0.0,0.0,"(-1.0, 0.0, 0.0, 0.0, 0.0, 0.0, 0.0, 0.0, 0.0, 0.0, 0.0, 0.0, 0.0, 0.0, 0.0, 0.0, 0.0, 0.0, 0.0, 0.0, 0.0, 0.0, 0.0, 0.0, 0.0, 0.0, 0.0, 0.0, 0.0, 0.0, 0.0, 0.0, 0.0, 0.0, 0.0, 0.0)"
