time,.header.seq,.header.stamp.secs,.header.stamp.nsecs,.header.frame_id,.magnetic_field.x,.magnetic_field.y,.magnetic_field.z,.magnetic_field_covariance
2025/07/05/17:49:30.950773,10277,1751712570,960618008,base_link,-350000.0,120000.00000000003,220999.99999999997,"(-1.0, 0.0, 0.0, 0.0, 0.0, 0.0, 0.0, 0.0, 0.0)"
2025/07/05/17:49:31.031328,10278,1751712571,41285008,base_link,-348000.0,122000.00000000003,219999.99999999997,"(-1.0, 0.0, 0.0, 0.0, 0.0, 0.0, 0.0, 0.0, 0.0)"
2025/07/05/17:49:31.150800,10279,1751712571,160596008,base_link,-346000.0,124000.00000000003,219999.99999999997,"(-1.0, 0.0, 0.0, 0.0, 0.0, 0.0, 0.0, 0.0, 0.0)"
2025/07/05/17:49:31.250698,10280,1751712571,260586008,base_link,-345000.0,127000.00000000003,219999.99999999997,"(-1.0, 0.0, 0.0, 0.0, 0.0, 0.0, 0.0, 0.0, 0.0)"
2025/07/05/17:49:31.350775,10281,1751712571,360748008,base_link,-344000.0,130000.00000000003,220999.99999999997,"(-1.0, 0.0, 0.0, 0.0, 0.0, 0.0, 0.0, 0.0, 0.0)"
2025/07/05/17:49:31.511655,10282,1751712571,521676008,base_link,-341000.0,135000.00000000003,219999.99999999997,"(-1.0, 0.0, 0.0, 0.0, 0.0, 0.0, 0.0, 0.0, 0.0)"
2025/07/05/17:49:31.592128,10283,1751712571,602156008,base_link,-338000.0,138000.00000000003,218999.99999999997,"(-1.0, 0.0, 0.0, 0.0, 0.0, 0.0, 0.0, 0.0, 0.0)"
2025/07/05/17:49:31.672283,10284,1751712571,681696008,base_link,-338000.0,138000.00000000003,218999.99999999997,"(-1.0, 0.0, 0.0, 0.0, 0.0, 0.0, 0.0, 0.0, 0.0)"
2025/07/05/17:49:31.771743,10285,1751712571,781395008,base_link,-338000.0,140000.00000000003,220999.99999999997,"(-1.0, 0.0, 0.0, 0.0, 0.0, 0.0, 0.0, 0.0, 0.0)"
2025/07/05/17:49:31.851352,10286,1751712571,861316008,base_link,-336000.0,142000.00000000003,219999.99999999997,"(-1.0, 0.0, 0.0, 0.0, 0.0, 0.0, 0.0, 0.0, 0.0)"
2025/07/05/17:49:31.992227,10287,1751712572,2262008,base_link,-335000.0,148000.00000000003,220999.99999999997,"(-1.0, 0.0, 0.0, 0.0, 0.0, 0.0, 0.0, 0.0, 0.0)"
2025/07/05/17:49:32.051340,10288,1751712572,61306008,base_link,-335000.0,148000.00000000003,220999.99999999997,"(-1.0, 0.0, 0.0, 0.0, 0.0, 0.0, 0.0, 0.0, 0.0)"
2025/07/05/17:49:32.171799,10289,1751712572,180727008,base_link,-333000.0,151000.00000000003,220999.99999999997,"(-1.0, 0.0, 0.0, 0.0, 0.0, 0.0, 0.0, 0.0, 0.0)"
2025/07/05/17:49:32.271924,10290,1751712572,281119008,base_link,-331000.0,153000.00000000003,219999.99999999997,"(-1.0, 0.0, 0.0, 0.0, 0.0, 0.0, 0.0, 0.0, 0.0)"
2025/07/05/17:49:32.350961,10291,1751712572,361327008,base_link,-330000.0,154000.00000000003,220999.99999999997,"(-1.0, 0.0, 0.0, 0.0, 0.0, 0.0, 0.0, 0.0, 0.0)"
2025/07/05/17:49:32.531149,10292,1751712572,540991008,base_link,-328000.0,159000.00000000003,220999.99999999997,"(-1.0, 0.0, 0.0, 0.0, 0.0, 0.0, 0.0, 0.0, 0.0)"
2025/07/05/17:49:32.633844,10293,1751712572,644243008,base_link,-326000.0,161000.00000000003,220999.99999999997,"(-1.0, 0.0, 0.0, 0.0, 0.0, 0.0, 0.0, 0.0, 0.0)"
2025/07/05/17:49:32.751196,10294,1751712572,760718008,base_link,-325000.0,163000.00000000003,220999.99999999997,"(-1.0, 0.0, 0.0, 0.0, 0.0, 0.0, 0.0, 0.0, 0.0)"
2025/07/05/17:49:32.834593,10295,1751712572,844011008,base_link,-323000.0,165000.00000000003,219999.99999999997,"(-1.0, 0.0, 0.0, 0.0, 0.0, 0.0, 0.0, 0.0, 0.0)"
2025/07/05/17:49:32.953080,10296,1751712572,960710008,base_link,-323000.0,167000.00000000003,219999.99999999997,"(-1.0, 0.0, 0.0, 0.0, 0.0, 0.0, 0.0, 0.0, 0.0)"
2025/07/05/17:49:33.033857,10297,1751712573,44203008,base_link,-320000.0,169000.00000000003,220999.99999999997,"(-1.0, 0.0, 0.0, 0.0, 0.0, 0.0, 0.0, 0.0, 0.0)"
2025/07/05/17:49:33.131550,10298,1751712573,141171008,base_link,-320000.0,171000.00000000003,221999.99999999997,"(-1.0, 0.0, 0.0, 0.0, 0.0, 0.0, 0.0, 0.0, 0.0)"
2025/07/05/17:49:33.250663,10299,1751712573,260616008,base_link,-318000.0,173000.00000000003,220999.99999999997,"(-1.0, 0.0, 0.0, 0.0, 0.0, 0.0, 0.0, 0.0, 0.0)"
2025/07/05/17:49:33.350984,10300,1751712573,360569008,base_link,-317000.0,176000.00000000003,221999.99999999997,"(-1.0, 0.0, 0.0, 0.0, 0.0, 0.0, 0.0, 0.0, 0.0)"
2025/07/05/17:49:33.512871,10301,1751712573,522196008,base_link,-229000.0,177000.00000000003,154999.99999999997,"(-1.0, 0.0, 0.0, 0.0, 0.0, 0.0, 0.0, 0.0, 0.0)"
2025/07/05/17:49:33.593148,10302,1751712573,602693008,base_link,-287000.0,178000.00000000003,187999.99999999997,"(-1.0, 0.0, 0.0, 0.0, 0.0, 0.0, 0.0, 0.0, 0.0)"
2025/07/05/17:49:33.692056,10303,1751712573,701683008,base_link,-283000.0,184000.00000000003,182999.99999999997,"(-1.0, 0.0, 0.0, 0.0, 0.0, 0.0, 0.0, 0.0, 0.0)"
2025/07/05/17:49:33.791857,10304,1751712573,801756008,base_link,-258000.0,190000.00000000003,193999.99999999997,"(-1.0, 0.0, 0.0, 0.0, 0.0, 0.0, 0.0, 0.0, 0.0)"
2025/07/05/17:49:33.892003,10305,1751712573,901723008,base_link,-269000.0,196000.00000000003,187999.99999999997,"(-1.0, 0.0, 0.0, 0.0, 0.0, 0.0, 0.0, 0.0, 0.0)"
2025/07/05/17:49:33.971433,10306,1751712573,980662008,base_link,-269000.0,196000.00000000003,187999.99999999997,"(-1.0, 0.0, 0.0, 0.0, 0.0, 0.0, 0.0, 0.0, 0.0)"
2025/07/05/17:49:34.071506,10307,1751712574,81028008,base_link,-259000.0,202000.00000000003,179999.99999999997,"(-1.0, 0.0, 0.0, 0.0, 0.0, 0.0, 0.0, 0.0, 0.0)"
2025/07/05/17:49:34.171889,10308,1751712574,181346008,base_link,-272000.0,211000.00000000003,206999.99999999997,"(-1.0, 0.0, 0.0, 0.0, 0.0, 0.0, 0.0, 0.0, 0.0)"
2025/07/05/17:49:34.251479,10309,1751712574,261373008,base_link,-232000.0,215000.00000000003,169999.99999999997,"(-1.0, 0.0, 0.0, 0.0, 0.0, 0.0, 0.0, 0.0, 0.0)"
2025/07/05/17:49:34.392000,10310,1751712574,402072008,base_link,-238000.0,225000.00000000003,177999.99999999997,"(-1.0, 0.0, 0.0, 0.0, 0.0, 0.0, 0.0, 0.0, 0.0)"
2025/07/05/17:49:34.571563,10311,1751712574,581241008,base_link,-253000.0,234000.00000000003,191999.99999999997,"(-1.0, 0.0, 0.0, 0.0, 0.0, 0.0, 0.0, 0.0, 0.0)"
2025/07/05/17:49:34.651284,10312,1751712574,661322008,base_link,-207000.0,239000.00000000003,171999.99999999997,"(-1.0, 0.0, 0.0, 0.0, 0.0, 0.0, 0.0, 0.0, 0.0)"
2025/07/05/17:49:34.751380,10313,1751712574,761111008,base_link,-229000.0,244000.00000000003,195999.99999999997,"(-1.0, 0.0, 0.0, 0.0, 0.0, 0.0, 0.0, 0.0, 0.0)"
2025/07/05/17:49:34.872035,10314,1751712574,880898008,base_link,-218000.0,251000.00000000003,183999.99999999997,"(-1.0, 0.0, 0.0, 0.0, 0.0, 0.0, 0.0, 0.0, 0.0)"
2025/07/05/17:49:34.991830,10315,1751712575,1686008,base_link,-210000.0,273000.0,208999.99999999997,"(-1.0, 0.0, 0.0, 0.0, 0.0, 0.0, 0.0, 0.0, 0.0)"
2025/07/05/17:49:35.051402,10316,1751712575,61527008,base_link,-210000.0,273000.0,208999.99999999997,"(-1.0, 0.0, 0.0, 0.0, 0.0, 0.0, 0.0, 0.0, 0.0)"
2025/07/05/17:49:35.151524,10317,1751712575,161275008,base_link,-183000.0,285000.0,204999.99999999997,"(-1.0, 0.0, 0.0, 0.0, 0.0, 0.0, 0.0, 0.0, 0.0)"
2025/07/05/17:49:35.251475,10318,1751712575,261308008,base_link,-177000.0,277000.0,190999.99999999997,"(-1.0, 0.0, 0.0, 0.0, 0.0, 0.0, 0.0, 0.0, 0.0)"
2025/07/05/17:49:35.351141,10319,1751712575,360562008,base_link,-170000.0,286000.0,187999.99999999997,"(-1.0, 0.0, 0.0, 0.0, 0.0, 0.0, 0.0, 0.0, 0.0)"
2025/07/05/17:49:35.511641,10320,1751712575,521705008,base_link,-184000.0,289000.0,185999.99999999997,"(-1.0, 0.0, 0.0, 0.0, 0.0, 0.0, 0.0, 0.0, 0.0)"
2025/07/05/17:49:35.612015,10321,1751712575,621734008,base_link,-191000.0,280000.0,176999.99999999997,"(-1.0, 0.0, 0.0, 0.0, 0.0, 0.0, 0.0, 0.0, 0.0)"
2025/07/05/17:49:35.672064,10322,1751712575,681696008,base_link,-191000.0,280000.0,176999.99999999997,"(-1.0, 0.0, 0.0, 0.0, 0.0, 0.0, 0.0, 0.0, 0.0)"
2025/07/05/17:49:35.770788,10323,1751712575,780928008,base_link,-209000.0,268000.0,188999.99999999997,"(-1.0, 0.0, 0.0, 0.0, 0.0, 0.0, 0.0, 0.0, 0.0)"
2025/07/05/17:49:35.871716,10324,1751712575,880887008,base_link,-214000.0,254000.00000000003,177999.99999999997,"(-1.0, 0.0, 0.0, 0.0, 0.0, 0.0, 0.0, 0.0, 0.0)"
2025/07/05/17:49:35.991511,10325,1751712576,1734008,base_link,-218000.0,247000.00000000003,192999.99999999997,"(-1.0, 0.0, 0.0, 0.0, 0.0, 0.0, 0.0, 0.0, 0.0)"
2025/07/05/17:49:36.071459,10326,1751712576,80683008,base_link,-218000.0,247000.00000000003,192999.99999999997,"(-1.0, 0.0, 0.0, 0.0, 0.0, 0.0, 0.0, 0.0, 0.0)"
2025/07/05/17:49:36.151737,10327,1751712576,160892008,base_link,-244000.0,236000.00000000003,209999.99999999997,"(-1.0, 0.0, 0.0, 0.0, 0.0, 0.0, 0.0, 0.0, 0.0)"
2025/07/05/17:49:36.231645,10328,1751712576,241341008,base_link,-232000.0,226000.00000000003,215999.99999999997,"(-1.0, 0.0, 0.0, 0.0, 0.0, 0.0, 0.0, 0.0, 0.0)"
2025/07/05/17:49:36.331335,10329,1751712576,341377008,base_link,-228000.0,229000.00000000003,207999.99999999997,"(-1.0, 0.0, 0.0, 0.0, 0.0, 0.0, 0.0, 0.0, 0.0)"
2025/07/05/17:49:36.531139,10330,1751712576,540763008,base_link,-200000.0,252000.00000000003,182999.99999999997,"(-1.0, 0.0, 0.0, 0.0, 0.0, 0.0, 0.0, 0.0, 0.0)"
2025/07/05/17:49:36.650810,10331,1751712576,660605008,base_link,-204000.0,266000.0,188999.99999999997,"(-1.0, 0.0, 0.0, 0.0, 0.0, 0.0, 0.0, 0.0, 0.0)"
2025/07/05/17:49:36.712179,10332,1751712576,722154008,base_link,-177000.0,272000.0,171999.99999999997,"(-1.0, 0.0, 0.0, 0.0, 0.0, 0.0, 0.0, 0.0, 0.0)"
2025/07/05/17:49:36.812647,10333,1751712576,822582008,base_link,-174000.0,279000.0,187999.99999999997,"(-1.0, 0.0, 0.0, 0.0, 0.0, 0.0, 0.0, 0.0, 0.0)"
2025/07/05/17:49:36.911453,10334,1751712576,921703008,base_link,-179000.0,282000.0,199999.99999999997,"(-1.0, 0.0, 0.0, 0.0, 0.0, 0.0, 0.0, 0.0, 0.0)"
2025/07/05/17:49:37.033995,10335,1751712577,43591008,base_link,-172000.0,285000.0,199999.99999999997,"(-1.0, 0.0, 0.0, 0.0, 0.0, 0.0, 0.0, 0.0, 0.0)"
2025/07/05/17:49:37.130859,10336,1751712577,140605008,base_link,-154000.0,291000.0,205999.99999999997,"(-1.0, 0.0, 0.0, 0.0, 0.0, 0.0, 0.0, 0.0, 0.0)"
2025/07/05/17:49:37.212363,10337,1751712577,222459008,base_link,-128000.0,299000.0,182999.99999999997,"(-1.0, 0.0, 0.0, 0.0, 0.0, 0.0, 0.0, 0.0, 0.0)"
2025/07/05/17:49:37.292464,10338,1751712577,302263008,base_link,-136000.0,311000.0,205999.99999999997,"(-1.0, 0.0, 0.0, 0.0, 0.0, 0.0, 0.0, 0.0, 0.0)"
2025/07/05/17:49:37.393214,10339,1751712577,403017008,base_link,-133000.0,313000.0,206999.99999999997,"(-1.0, 0.0, 0.0, 0.0, 0.0, 0.0, 0.0, 0.0, 0.0)"
2025/07/05/17:49:37.551298,10340,1751712577,561136008,base_link,-97000.0,321000.0,191999.99999999997,"(-1.0, 0.0, 0.0, 0.0, 0.0, 0.0, 0.0, 0.0, 0.0)"
2025/07/05/17:49:37.651526,10341,1751712577,660992008,base_link,-70000.0,341000.0,213999.99999999997,"(-1.0, 0.0, 0.0, 0.0, 0.0, 0.0, 0.0, 0.0, 0.0)"
2025/07/05/17:49:37.731374,10342,1751712577,741343008,base_link,-65000.0,340000.0,190999.99999999997,"(-1.0, 0.0, 0.0, 0.0, 0.0, 0.0, 0.0, 0.0, 0.0)"
2025/07/05/17:49:37.831167,10343,1751712577,841301008,base_link,-69000.0,340000.0,189999.99999999997,"(-1.0, 0.0, 0.0, 0.0, 0.0, 0.0, 0.0, 0.0, 0.0)"
2025/07/05/17:49:37.970938,10344,1751712577,981048008,base_link,-86000.0,348000.0,184999.99999999997,"(-1.0, 0.0, 0.0, 0.0, 0.0, 0.0, 0.0, 0.0, 0.0)"
2025/07/05/17:49:38.034175,10345,1751712578,44204008,base_link,-86000.0,345000.0,184999.99999999997,"(-1.0, 0.0, 0.0, 0.0, 0.0, 0.0, 0.0, 0.0, 0.0)"
2025/07/05/17:49:38.131273,10346,1751712578,141375008,base_link,-91000.0,341000.0,186999.99999999997,"(-1.0, 0.0, 0.0, 0.0, 0.0, 0.0, 0.0, 0.0, 0.0)"
2025/07/05/17:49:38.231188,10347,1751712578,241343008,base_link,-110000.0,331000.0,193999.99999999997,"(-1.0, 0.0, 0.0, 0.0, 0.0, 0.0, 0.0, 0.0, 0.0)"
2025/07/05/17:49:38.351162,10348,1751712578,360686008,base_link,-89000.0,324000.0,186999.99999999997,"(-1.0, 0.0, 0.0, 0.0, 0.0, 0.0, 0.0, 0.0, 0.0)"
2025/07/05/17:49:38.512171,10349,1751712578,522013008,base_link,-152000.0,301000.0,201999.99999999997,"(-1.0, 0.0, 0.0, 0.0, 0.0, 0.0, 0.0, 0.0, 0.0)"
2025/07/05/17:49:38.615454,10350,1751712578,624727008,base_link,-144000.0,295000.0,196999.99999999997,"(-1.0, 0.0, 0.0, 0.0, 0.0, 0.0, 0.0, 0.0, 0.0)"
2025/07/05/17:49:38.692288,10351,1751712578,702536008,base_link,-162000.0,292000.0,190999.99999999997,"(-1.0, 0.0, 0.0, 0.0, 0.0, 0.0, 0.0, 0.0, 0.0)"
2025/07/05/17:49:38.793474,10352,1751712578,802926008,base_link,-146000.0,289000.0,181999.99999999997,"(-1.0, 0.0, 0.0, 0.0, 0.0, 0.0, 0.0, 0.0, 0.0)"
2025/07/05/17:49:38.891567,10353,1751712578,901678008,base_link,-134000.0,305000.0,199999.99999999997,"(-1.0, 0.0, 0.0, 0.0, 0.0, 0.0, 0.0, 0.0, 0.0)"
2025/07/05/17:49:38.993334,10354,1751712579,2628008,base_link,-193000.0,283000.0,216999.99999999997,"(-1.0, 0.0, 0.0, 0.0, 0.0, 0.0, 0.0, 0.0, 0.0)"
2025/07/05/17:49:39.091823,10355,1751712579,101922008,base_link,-182000.0,277000.0,204999.99999999997,"(-1.0, 0.0, 0.0, 0.0, 0.0, 0.0, 0.0, 0.0, 0.0)"
2025/07/05/17:49:39.192233,10356,1751712579,202147008,base_link,-177000.0,268000.0,233999.99999999997,"(-1.0, 0.0, 0.0, 0.0, 0.0, 0.0, 0.0, 0.0, 0.0)"
2025/07/05/17:49:39.291572,10357,1751712579,301957008,base_link,-145000.0,277000.0,206999.99999999997,"(-1.0, 0.0, 0.0, 0.0, 0.0, 0.0, 0.0, 0.0, 0.0)"
2025/07/05/17:49:39.433854,10358,1751712579,443669008,base_link,-157000.0,290000.0,208999.99999999997,"(-1.0, 0.0, 0.0, 0.0, 0.0, 0.0, 0.0, 0.0, 0.0)"
2025/07/05/17:49:39.551181,10359,1751712579,560695008,base_link,-153000.0,301000.0,203999.99999999997,"(-1.0, 0.0, 0.0, 0.0, 0.0, 0.0, 0.0, 0.0, 0.0)"
2025/07/05/17:49:39.651660,10360,1751712579,660673008,base_link,-128000.0,311000.0,198999.99999999997,"(-1.0, 0.0, 0.0, 0.0, 0.0, 0.0, 0.0, 0.0, 0.0)"
2025/07/05/17:49:39.731296,10361,1751712579,741120008,base_link,-109000.0,317000.0,185999.99999999997,"(-1.0, 0.0, 0.0, 0.0, 0.0, 0.0, 0.0, 0.0, 0.0)"
2025/07/05/17:49:39.834140,10362,1751712579,844110008,base_link,-94000.0,336000.0,202999.99999999997,"(-1.0, 0.0, 0.0, 0.0, 0.0, 0.0, 0.0, 0.0, 0.0)"
2025/07/05/17:49:39.951207,10363,1751712579,960649008,base_link,-77000.0,332000.0,209999.99999999997,"(-1.0, 0.0, 0.0, 0.0, 0.0, 0.0, 0.0, 0.0, 0.0)"
2025/07/05/17:49:40.034359,10364,1751712580,44225008,base_link,-58000.0,348000.0,201999.99999999997,"(-1.0, 0.0, 0.0, 0.0, 0.0, 0.0, 0.0, 0.0, 0.0)"
2025/07/05/17:49:40.151571,10365,1751712580,160555008,base_link,-77000.0,343000.0,193999.99999999997,"(-1.0, 0.0, 0.0, 0.0, 0.0, 0.0, 0.0, 0.0, 0.0)"
2025/07/05/17:49:40.252837,10366,1751712580,260641008,base_link,-60000.0,352000.0,170999.99999999997,"(-1.0, 0.0, 0.0, 0.0, 0.0, 0.0, 0.0, 0.0, 0.0)"
2025/07/05/17:49:40.351622,10367,1751712580,360713008,base_link,-102000.0,348000.0,191999.99999999997,"(-1.0, 0.0, 0.0, 0.0, 0.0, 0.0, 0.0, 0.0, 0.0)"
2025/07/05/17:49:40.512012,10368,1751712580,522000008,base_link,-89000.0,317000.0,213999.99999999997,"(-1.0, 0.0, 0.0, 0.0, 0.0, 0.0, 0.0, 0.0, 0.0)"
2025/07/05/17:49:40.593347,10369,1751712580,602462008,base_link,-111000.0,307000.00000000006,246999.99999999997,"(-1.0, 0.0, 0.0, 0.0, 0.0, 0.0, 0.0, 0.0, 0.0)"
2025/07/05/17:49:40.693074,10370,1751712580,701633008,base_link,-93000.0,309000.0,235999.99999999997,"(-1.0, 0.0, 0.0, 0.0, 0.0, 0.0, 0.0, 0.0, 0.0)"
2025/07/05/17:49:40.792369,10371,1751712580,802411008,base_link,-60000.0,325000.0,208999.99999999997,"(-1.0, 0.0, 0.0, 0.0, 0.0, 0.0, 0.0, 0.0, 0.0)"
2025/07/05/17:49:40.911871,10372,1751712580,921982008,base_link,-96000.0,336000.0,224999.99999999997,"(-1.0, 0.0, 0.0, 0.0, 0.0, 0.0, 0.0, 0.0, 0.0)"
2025/07/05/17:49:41.012957,10373,1751712581,22485008,base_link,-50000.0,344000.0,205999.99999999997,"(-1.0, 0.0, 0.0, 0.0, 0.0, 0.0, 0.0, 0.0, 0.0)"
2025/07/05/17:49:41.092604,10374,1751712581,102220008,base_link,-42000.0,341000.0,204999.99999999997,"(-1.0, 0.0, 0.0, 0.0, 0.0, 0.0, 0.0, 0.0, 0.0)"
2025/07/05/17:49:41.192149,10375,1751712581,202064008,base_link,-58000.0,342000.0,228999.99999999997,"(-1.0, 0.0, 0.0, 0.0, 0.0, 0.0, 0.0, 0.0, 0.0)"
2025/07/05/17:49:41.251697,10376,1751712581,261287008,base_link,-58000.0,342000.0,228999.99999999997,"(-1.0, 0.0, 0.0, 0.0, 0.0, 0.0, 0.0, 0.0, 0.0)"
2025/07/05/17:49:41.331114,10377,1751712581,341327008,base_link,-9000.0,346000.0,193999.99999999997,"(-1.0, 0.0, 0.0, 0.0, 0.0, 0.0, 0.0, 0.0, 0.0)"
2025/07/05/17:49:41.511809,10378,1751712581,521378008,base_link,9000.0,349000.0,211999.99999999997,"(-1.0, 0.0, 0.0, 0.0, 0.0, 0.0, 0.0, 0.0, 0.0)"
2025/07/05/17:49:41.592368,10379,1751712581,602464008,base_link,20000.0,358000.0,225999.99999999994,"(-1.0, 0.0, 0.0, 0.0, 0.0, 0.0, 0.0, 0.0, 0.0)"
2025/07/05/17:49:41.691390,10380,1751712581,701704008,base_link,46000.0,370000.0,209999.99999999994,"(-1.0, 0.0, 0.0, 0.0, 0.0, 0.0, 0.0, 0.0, 0.0)"
2025/07/05/17:49:41.791703,10381,1751712581,801697008,base_link,52000.0,368000.0,214999.99999999994,"(-1.0, 0.0, 0.0, 0.0, 0.0, 0.0, 0.0, 0.0, 0.0)"
2025/07/05/17:49:41.891700,10382,1751712581,901652008,base_link,74000.0,376000.0,190999.99999999994,"(-1.0, 0.0, 0.0, 0.0, 0.0, 0.0, 0.0, 0.0, 0.0)"
2025/07/05/17:49:42.013004,10383,1751712582,22066008,base_link,44000.0,372000.0,190999.99999999994,"(-1.0, 0.0, 0.0, 0.0, 0.0, 0.0, 0.0, 0.0, 0.0)"
2025/07/05/17:49:42.092290,10384,1751712582,102600008,base_link,43000.0,373000.0,194999.99999999994,"(-1.0, 0.0, 0.0, 0.0, 0.0, 0.0, 0.0, 0.0, 0.0)"
2025/07/05/17:49:42.191586,10385,1751712582,201707008,base_link,29000.0,361000.0,199999.99999999994,"(-1.0, 0.0, 0.0, 0.0, 0.0, 0.0, 0.0, 0.0, 0.0)"
2025/07/05/17:49:42.252016,10386,1751712582,261316008,base_link,29000.0,361000.0,199999.99999999994,"(-1.0, 0.0, 0.0, 0.0, 0.0, 0.0, 0.0, 0.0, 0.0)"
2025/07/05/17:49:42.370956,10387,1751712582,380800008,base_link,18000.0,373000.0,223999.99999999994,"(-1.0, 0.0, 0.0, 0.0, 0.0, 0.0, 0.0, 0.0, 0.0)"
2025/07/05/17:49:42.551828,10388,1751712582,560942008,base_link,6000.0,352000.0,216999.99999999997,"(-1.0, 0.0, 0.0, 0.0, 0.0, 0.0, 0.0, 0.0, 0.0)"
2025/07/05/17:49:42.670915,10389,1751712582,680899008,base_link,-6000.0,336000.00000000006,246999.99999999997,"(-1.0, 0.0, 0.0, 0.0, 0.0, 0.0, 0.0, 0.0, 0.0)"
2025/07/05/17:49:42.771318,10390,1751712582,781118008,base_link,-5000.0,333000.00000000006,238999.99999999997,"(-1.0, 0.0, 0.0, 0.0, 0.0, 0.0, 0.0, 0.0, 0.0)"
2025/07/05/17:49:42.850969,10391,1751712582,861214008,base_link,10000.0,348000.00000000006,237999.99999999997,"(-1.0, 0.0, 0.0, 0.0, 0.0, 0.0, 0.0, 0.0, 0.0)"
2025/07/05/17:49:42.992014,10392,1751712583,2411008,base_link,55000.0,370000.0,213999.99999999994,"(-1.0, 0.0, 0.0, 0.0, 0.0, 0.0, 0.0, 0.0, 0.0)"
2025/07/05/17:49:43.091870,10393,1751712583,101920008,base_link,36000.0,374000.0,207999.99999999994,"(-1.0, 0.0, 0.0, 0.0, 0.0, 0.0, 0.0, 0.0, 0.0)"
2025/07/05/17:49:43.191666,10394,1751712583,202032008,base_link,47000.0,371000.0,178999.99999999994,"(-1.0, 0.0, 0.0, 0.0, 0.0, 0.0, 0.0, 0.0, 0.0)"
2025/07/05/17:49:43.291748,10395,1751712583,301755008,base_link,7000.0,365000.0,182999.99999999994,"(-1.0, 0.0, 0.0, 0.0, 0.0, 0.0, 0.0, 0.0, 0.0)"
2025/07/05/17:49:43.391399,10396,1751712583,401959008,base_link,24000.0,365000.0,201999.99999999994,"(-1.0, 0.0, 0.0, 0.0, 0.0, 0.0, 0.0, 0.0, 0.0)"
2025/07/05/17:49:43.551123,10397,1751712583,561143008,base_link,4000.0,359000.0,219999.99999999994,"(-1.0, 0.0, 0.0, 0.0, 0.0, 0.0, 0.0, 0.0, 0.0)"
2025/07/05/17:49:43.671933,10398,1751712583,681357008,base_link,12000.0,355000.0,214999.99999999997,"(-1.0, 0.0, 0.0, 0.0, 0.0, 0.0, 0.0, 0.0, 0.0)"
2025/07/05/17:49:43.771029,10399,1751712583,781129008,base_link,-17000.0,352000.0,236999.99999999997,"(-1.0, 0.0, 0.0, 0.0, 0.0, 0.0, 0.0, 0.0, 0.0)"
2025/07/05/17:49:43.871508,10400,1751712583,881013008,base_link,-23000.0,336000.00000000006,242999.99999999997,"(-1.0, 0.0, 0.0, 0.0, 0.0, 0.0, 0.0, 0.0, 0.0)"
2025/07/05/17:49:43.971673,10401,1751712583,981747008,base_link,5000.0,336000.0,231999.99999999997,"(-1.0, 0.0, 0.0, 0.0, 0.0, 0.0, 0.0, 0.0, 0.0)"
2025/07/05/17:49:44.071984,10402,1751712584,81398008,base_link,-10000.0,340000.0,234999.99999999997,"(-1.0, 0.0, 0.0, 0.0, 0.0, 0.0, 0.0, 0.0, 0.0)"
2025/07/05/17:49:44.171833,10403,1751712584,180803008,base_link,22000.0,355000.0,213999.99999999997,"(-1.0, 0.0, 0.0, 0.0, 0.0, 0.0, 0.0, 0.0, 0.0)"
2025/07/05/17:49:44.251151,10404,1751712584,261273008,base_link,52000.0,367000.0,211999.99999999994,"(-1.0, 0.0, 0.0, 0.0, 0.0, 0.0, 0.0, 0.0, 0.0)"
2025/07/05/17:49:44.331185,10405,1751712584,341145008,base_link,51000.0,372000.0,209999.99999999994,"(-1.0, 0.0, 0.0, 0.0, 0.0, 0.0, 0.0, 0.0, 0.0)"
2025/07/05/17:49:44.511607,10406,1751712584,521740008,base_link,14000.0,369000.0,194999.99999999994,"(-1.0, 0.0, 0.0, 0.0, 0.0, 0.0, 0.0, 0.0, 0.0)"
2025/07/05/17:49:44.611889,10407,1751712584,621951008,base_link,13000.0,363000.0,201999.99999999994,"(-1.0, 0.0, 0.0, 0.0, 0.0, 0.0, 0.0, 0.0, 0.0)"
2025/07/05/17:49:44.691344,10408,1751712584,701705008,base_link,30000.0,367000.0,198999.99999999994,"(-1.0, 0.0, 0.0, 0.0, 0.0, 0.0, 0.0, 0.0, 0.0)"
2025/07/05/17:49:44.791518,10409,1751712584,801660008,base_link,-6000.0,362000.0,216999.99999999994,"(-1.0, 0.0, 0.0, 0.0, 0.0, 0.0, 0.0, 0.0, 0.0)"
2025/07/05/17:49:44.852327,10410,1751712584,861360008,base_link,-6000.0,362000.0,216999.99999999994,"(-1.0, 0.0, 0.0, 0.0, 0.0, 0.0, 0.0, 0.0, 0.0)"
2025/07/05/17:49:44.991632,10411,1751712585,1945008,base_link,1000.0,340000.00000000006,238999.99999999997,"(-1.0, 0.0, 0.0, 0.0, 0.0, 0.0, 0.0, 0.0, 0.0)"
2025/07/05/17:49:45.053110,10412,1751712585,61113008,base_link,1000.0,340000.00000000006,238999.99999999997,"(-1.0, 0.0, 0.0, 0.0, 0.0, 0.0, 0.0, 0.0, 0.0)"
2025/07/05/17:49:45.171191,10413,1751712585,181236008,base_link,-9000.0,330000.0,235999.99999999997,"(-1.0, 0.0, 0.0, 0.0, 0.0, 0.0, 0.0, 0.0, 0.0)"
2025/07/05/17:49:45.251101,10414,1751712585,261320008,base_link,11000.0,334000.0,234999.99999999997,"(-1.0, 0.0, 0.0, 0.0, 0.0, 0.0, 0.0, 0.0, 0.0)"
2025/07/05/17:49:45.371402,10415,1751712585,380917008,base_link,25000.0,351000.0,224999.99999999997,"(-1.0, 0.0, 0.0, 0.0, 0.0, 0.0, 0.0, 0.0, 0.0)"
2025/07/05/17:49:45.551861,10416,1751712585,560631008,base_link,46000.0,369000.0,209999.99999999994,"(-1.0, 0.0, 0.0, 0.0, 0.0, 0.0, 0.0, 0.0, 0.0)"
2025/07/05/17:49:45.650781,10417,1751712585,660679008,base_link,55000.0,373000.0,200999.99999999994,"(-1.0, 0.0, 0.0, 0.0, 0.0, 0.0, 0.0, 0.0, 0.0)"
2025/07/05/17:49:45.751163,10418,1751712585,760660008,base_link,39000.0,372000.0,185999.99999999994,"(-1.0, 0.0, 0.0, 0.0, 0.0, 0.0, 0.0, 0.0, 0.0)"
2025/07/05/17:49:45.834033,10419,1751712585,844252008,base_link,42000.0,365000.0,180999.99999999994,"(-1.0, 0.0, 0.0, 0.0, 0.0, 0.0, 0.0, 0.0, 0.0)"
2025/07/05/17:49:45.950734,10420,1751712585,960633008,base_link,-12000.0,361000.0,218999.99999999994,"(-1.0, 0.0, 0.0, 0.0, 0.0, 0.0, 0.0, 0.0, 0.0)"
2025/07/05/17:49:46.033649,10421,1751712586,44038008,base_link,19000.0,360000.0,203999.99999999994,"(-1.0, 0.0, 0.0, 0.0, 0.0, 0.0, 0.0, 0.0, 0.0)"
2025/07/05/17:49:46.150740,10422,1751712586,160534008,base_link,20000.0,358000.0,206999.99999999994,"(-1.0, 0.0, 0.0, 0.0, 0.0, 0.0, 0.0, 0.0, 0.0)"
2025/07/05/17:49:46.252420,10423,1751712586,260535008,base_link,-19000.0,357000.0,236999.99999999994,"(-1.0, 0.0, 0.0, 0.0, 0.0, 0.0, 0.0, 0.0, 0.0)"
2025/07/05/17:49:46.351562,10424,1751712586,360914008,base_link,-23000.0,345000.00000000006,239999.99999999997,"(-1.0, 0.0, 0.0, 0.0, 0.0, 0.0, 0.0, 0.0, 0.0)"
2025/07/05/17:49:46.513305,10425,1751712586,522210008,base_link,-8000.0,336000.00000000006,239999.99999999997,"(-1.0, 0.0, 0.0, 0.0, 0.0, 0.0, 0.0, 0.0, 0.0)"
2025/07/05/17:49:46.630178,10426,1751712586,640535008,base_link,14000.0,339000.0,218999.99999999997,"(-1.0, 0.0, 0.0, 0.0, 0.0, 0.0, 0.0, 0.0, 0.0)"
2025/07/05/17:49:46.731231,10427,1751712586,740530008,base_link,17000.0,355000.0,228999.99999999997,"(-1.0, 0.0, 0.0, 0.0, 0.0, 0.0, 0.0, 0.0, 0.0)"
2025/07/05/17:49:46.812483,10428,1751712586,821799008,base_link,28000.0,366000.0,218999.99999999994,"(-1.0, 0.0, 0.0, 0.0, 0.0, 0.0, 0.0, 0.0, 0.0)"
2025/07/05/17:49:46.912275,10429,1751712586,921717008,base_link,64000.0,364000.0,205999.99999999994,"(-1.0, 0.0, 0.0, 0.0, 0.0, 0.0, 0.0, 0.0, 0.0)"
2025/07/05/17:49:46.992162,10430,1751712587,2263008,base_link,64000.0,374000.0,198999.99999999994,"(-1.0, 0.0, 0.0, 0.0, 0.0, 0.0, 0.0, 0.0, 0.0)"
2025/07/05/17:49:47.091429,10431,1751712587,101930008,base_link,40000.0,368000.0,206999.99999999994,"(-1.0, 0.0, 0.0, 0.0, 0.0, 0.0, 0.0, 0.0, 0.0)"
2025/07/05/17:49:47.191688,10432,1751712587,201723008,base_link,34000.0,366000.0,198999.99999999994,"(-1.0, 0.0, 0.0, 0.0, 0.0, 0.0, 0.0, 0.0, 0.0)"
2025/07/05/17:49:47.272164,10433,1751712587,280949008,base_link,34000.0,366000.0,198999.99999999994,"(-1.0, 0.0, 0.0, 0.0, 0.0, 0.0, 0.0, 0.0, 0.0)"
2025/07/05/17:49:47.412292,10434,1751712587,422299008,base_link,-36000.0,355000.00000000006,246999.99999999997,"(-1.0, 0.0, 0.0, 0.0, 0.0, 0.0, 0.0, 0.0, 0.0)"
2025/07/05/17:49:47.591724,10435,1751712587,601761008,base_link,10000.0,342000.0,189999.99999999997,"(-1.0, 0.0, 0.0, 0.0, 0.0, 0.0, 0.0, 0.0, 0.0)"
2025/07/05/17:49:47.670494,10436,1751712587,681019008,base_link,10000.0,342000.0,189999.99999999997,"(-1.0, 0.0, 0.0, 0.0, 0.0, 0.0, 0.0, 0.0, 0.0)"
2025/07/05/17:49:47.770330,10437,1751712587,780757008,base_link,1000.0,346000.0,185999.99999999997,"(-1.0, 0.0, 0.0, 0.0, 0.0, 0.0, 0.0, 0.0, 0.0)"
2025/07/05/17:49:47.851880,10438,1751712587,861284008,base_link,2000.0,342000.0,162999.99999999997,"(-1.0, 0.0, 0.0, 0.0, 0.0, 0.0, 0.0, 0.0, 0.0)"
2025/07/05/17:49:47.991515,10439,1751712588,2062008,base_link,9000.0,334000.0,147999.99999999997,"(-1.0, 0.0, 0.0, 0.0, 0.0, 0.0, 0.0, 0.0, 0.0)"
2025/07/05/17:49:48.091866,10440,1751712588,101621008,base_link,37000.0,325000.0,161999.99999999997,"(-1.0, 0.0, 0.0, 0.0, 0.0, 0.0, 0.0, 0.0, 0.0)"
2025/07/05/17:49:48.191917,10441,1751712588,201906008,base_link,0.0,325000.0,193999.99999999997,"(-1.0, 0.0, 0.0, 0.0, 0.0, 0.0, 0.0, 0.0, 0.0)"
2025/07/05/17:49:48.251942,10442,1751712588,261364008,base_link,0.0,325000.0,193999.99999999997,"(-1.0, 0.0, 0.0, 0.0, 0.0, 0.0, 0.0, 0.0, 0.0)"
2025/07/05/17:49:48.371386,10443,1751712588,380936008,base_link,-33000.0,327000.0,174999.99999999997,"(-1.0, 0.0, 0.0, 0.0, 0.0, 0.0, 0.0, 0.0, 0.0)"
2025/07/05/17:49:48.553195,10444,1751712588,560639008,base_link,-23000.0,326000.0,158999.99999999997,"(-1.0, 0.0, 0.0, 0.0, 0.0, 0.0, 0.0, 0.0, 0.0)"
2025/07/05/17:49:48.651903,10445,1751712588,660681008,base_link,14000.0,326000.0,114999.99999999996,"(-1.0, 0.0, 0.0, 0.0, 0.0, 0.0, 0.0, 0.0, 0.0)"
2025/07/05/17:49:48.730818,10446,1751712588,741314008,base_link,-47000.0,311000.0,208999.99999999997,"(-1.0, 0.0, 0.0, 0.0, 0.0, 0.0, 0.0, 0.0, 0.0)"
2025/07/05/17:49:48.833784,10447,1751712588,844226008,base_link,-49000.0,309000.0,213999.99999999997,"(-1.0, 0.0, 0.0, 0.0, 0.0, 0.0, 0.0, 0.0, 0.0)"
2025/07/05/17:49:48.950735,10448,1751712588,960659008,base_link,3000.0,311000.0,200999.99999999997,"(-1.0, 0.0, 0.0, 0.0, 0.0, 0.0, 0.0, 0.0, 0.0)"
2025/07/05/17:49:49.033902,10449,1751712589,44192008,base_link,23000.0,325000.0,155999.99999999997,"(-1.0, 0.0, 0.0, 0.0, 0.0, 0.0, 0.0, 0.0, 0.0)"
2025/07/05/17:49:49.150558,10450,1751712589,160557008,base_link,17000.0,335000.0,148999.99999999997,"(-1.0, 0.0, 0.0, 0.0, 0.0, 0.0, 0.0, 0.0, 0.0)"
2025/07/05/17:49:49.230608,10451,1751712589,241373008,base_link,52000.0,341000.0,177999.99999999997,"(-1.0, 0.0, 0.0, 0.0, 0.0, 0.0, 0.0, 0.0, 0.0)"
2025/07/05/17:49:49.331270,10452,1751712589,341353008,base_link,35000.0,360000.0,182999.99999999994,"(-1.0, 0.0, 0.0, 0.0, 0.0, 0.0, 0.0, 0.0, 0.0)"
2025/07/05/17:49:49.530615,10453,1751712589,540564008,base_link,94000.0,364000.0,188999.99999999994,"(-1.0, 0.0, 0.0, 0.0, 0.0, 0.0, 0.0, 0.0, 0.0)"
2025/07/05/17:49:49.633519,10454,1751712589,643559008,base_link,120000.0,372000.0,111999.99999999996,"(-1.0, 0.0, 0.0, 0.0, 0.0, 0.0, 0.0, 0.0, 0.0)"
2025/07/05/17:49:49.692404,10455,1751712589,702447008,base_link,53000.0,371000.0,125999.99999999996,"(-1.0, 0.0, 0.0, 0.0, 0.0, 0.0, 0.0, 0.0, 0.0)"
2025/07/05/17:49:49.812761,10456,1751712589,821938008,base_link,47000.0,370000.0,104999.99999999996,"(-1.0, 0.0, 0.0, 0.0, 0.0, 0.0, 0.0, 0.0, 0.0)"
2025/07/05/17:49:49.911717,10457,1751712589,921932008,base_link,8000.0,365000.0,90999.99999999996,"(-1.0, 0.0, 0.0, 0.0, 0.0, 0.0, 0.0, 0.0, 0.0)"
2025/07/05/17:49:49.991688,10458,1751712590,2243008,base_link,22000.0,342000.0,125999.99999999996,"(-1.0, 0.0, 0.0, 0.0, 0.0, 0.0, 0.0, 0.0, 0.0)"
2025/07/05/17:49:50.091181,10459,1751712590,101919008,base_link,8000.0,327000.0,160999.99999999997,"(-1.0, 0.0, 0.0, 0.0, 0.0, 0.0, 0.0, 0.0, 0.0)"
2025/07/05/17:49:50.191596,10460,1751712590,201747008,base_link,-28000.0,335000.0,168999.99999999997,"(-1.0, 0.0, 0.0, 0.0, 0.0, 0.0, 0.0, 0.0, 0.0)"
2025/07/05/17:49:50.251517,10461,1751712590,261336008,base_link,-28000.0,335000.0,168999.99999999997,"(-1.0, 0.0, 0.0, 0.0, 0.0, 0.0, 0.0, 0.0, 0.0)"
2025/07/05/17:49:50.330299,10462,1751712590,341054008,base_link,-17000.0,339000.0,162999.99999999997,"(-1.0, 0.0, 0.0, 0.0, 0.0, 0.0, 0.0, 0.0, 0.0)"
2025/07/05/17:49:50.511375,10463,1751712590,521717008,base_link,-46000.0,315000.0,168999.99999999997,"(-1.0, 0.0, 0.0, 0.0, 0.0, 0.0, 0.0, 0.0, 0.0)"
2025/07/05/17:49:50.612000,10464,1751712590,622165008,base_link,-55000.0,305000.0,203999.99999999997,"(-1.0, 0.0, 0.0, 0.0, 0.0, 0.0, 0.0, 0.0, 0.0)"
2025/07/05/17:49:50.691291,10465,1751712590,701730008,base_link,-59000.0,307000.0,192999.99999999997,"(-1.0, 0.0, 0.0, 0.0, 0.0, 0.0, 0.0, 0.0, 0.0)"
2025/07/05/17:49:50.791602,10466,1751712590,801978008,base_link,-39000.0,319000.0,194999.99999999997,"(-1.0, 0.0, 0.0, 0.0, 0.0, 0.0, 0.0, 0.0, 0.0)"
2025/07/05/17:49:50.891457,10467,1751712590,901755008,base_link,-10000.0,330000.0,148999.99999999997,"(-1.0, 0.0, 0.0, 0.0, 0.0, 0.0, 0.0, 0.0, 0.0)"
2025/07/05/17:49:50.992239,10468,1751712591,2580008,base_link,42000.0,340000.0,134999.99999999997,"(-1.0, 0.0, 0.0, 0.0, 0.0, 0.0, 0.0, 0.0, 0.0)"
2025/07/05/17:49:51.091364,10469,1751712591,101898008,base_link,13000.0,351000.0,143999.99999999997,"(-1.0, 0.0, 0.0, 0.0, 0.0, 0.0, 0.0, 0.0, 0.0)"
2025/07/05/17:49:51.191521,10470,1751712591,201638008,base_link,45000.0,348000.0,168999.99999999997,"(-1.0, 0.0, 0.0, 0.0, 0.0, 0.0, 0.0, 0.0, 0.0)"
2025/07/05/17:49:51.250800,10471,1751712591,261298008,base_link,45000.0,348000.0,168999.99999999997,"(-1.0, 0.0, 0.0, 0.0, 0.0, 0.0, 0.0, 0.0, 0.0)"
2025/07/05/17:49:51.351343,10472,1751712591,360655008,base_link,34000.0,348000.0,178999.99999999997,"(-1.0, 0.0, 0.0, 0.0, 0.0, 0.0, 0.0, 0.0, 0.0)"
2025/07/05/17:49:51.530647,10473,1751712591,540681008,base_link,78000.0,348000.0,188999.99999999997,"(-1.0, 0.0, 0.0, 0.0, 0.0, 0.0, 0.0, 0.0, 0.0)"
2025/07/05/17:49:51.633965,10474,1751712591,644168008,base_link,103000.0,347000.0,212999.99999999997,"(-1.0, 0.0, 0.0, 0.0, 0.0, 0.0, 0.0, 0.0, 0.0)"
2025/07/05/17:49:51.710923,10475,1751712591,722119008,base_link,90000.0,356000.0,231999.99999999997,"(-1.0, 0.0, 0.0, 0.0, 0.0, 0.0, 0.0, 0.0, 0.0)"
2025/07/05/17:49:51.814013,10476,1751712591,824906008,base_link,140000.0,351000.0,202999.99999999997,"(-1.0, 0.0, 0.0, 0.0, 0.0, 0.0, 0.0, 0.0, 0.0)"
2025/07/05/17:49:51.912737,10477,1751712591,921364008,base_link,152000.0,351000.0,141999.99999999997,"(-1.0, 0.0, 0.0, 0.0, 0.0, 0.0, 0.0, 0.0, 0.0)"
2025/07/05/17:49:51.991659,10478,1751712592,2519008,base_link,154000.0,347000.0,203999.99999999997,"(-1.0, 0.0, 0.0, 0.0, 0.0, 0.0, 0.0, 0.0, 0.0)"
2025/07/05/17:49:52.091845,10479,1751712592,101686008,base_link,178000.0,340000.0,192999.99999999997,"(-1.0, 0.0, 0.0, 0.0, 0.0, 0.0, 0.0, 0.0, 0.0)"
2025/07/05/17:49:52.191175,10480,1751712592,201928008,base_link,211000.0,333000.0,172999.99999999997,"(-1.0, 0.0, 0.0, 0.0, 0.0, 0.0, 0.0, 0.0, 0.0)"
2025/07/05/17:49:52.270782,10481,1751712592,280952008,base_link,211000.0,333000.0,172999.99999999997,"(-1.0, 0.0, 0.0, 0.0, 0.0, 0.0, 0.0, 0.0, 0.0)"
2025/07/05/17:49:52.391391,10482,1751712592,401988008,base_link,233000.0,324000.0,169999.99999999997,"(-1.0, 0.0, 0.0, 0.0, 0.0, 0.0, 0.0, 0.0, 0.0)"
2025/07/05/17:49:52.569977,10483,1751712592,580705008,base_link,237000.0,320000.0,190999.99999999997,"(-1.0, 0.0, 0.0, 0.0, 0.0, 0.0, 0.0, 0.0, 0.0)"
2025/07/05/17:49:52.671600,10484,1751712592,681081008,base_link,233000.0,318000.0,234999.99999999997,"(-1.0, 0.0, 0.0, 0.0, 0.0, 0.0, 0.0, 0.0, 0.0)"
2025/07/05/17:49:52.771260,10485,1751712592,781185008,base_link,258000.0,311000.0,180999.99999999997,"(-1.0, 0.0, 0.0, 0.0, 0.0, 0.0, 0.0, 0.0, 0.0)"
2025/07/05/17:49:52.870285,10486,1751712592,880919008,base_link,254000.0,307000.0,175999.99999999997,"(-1.0, 0.0, 0.0, 0.0, 0.0, 0.0, 0.0, 0.0, 0.0)"
2025/07/05/17:49:52.991286,10487,1751712593,1936008,base_link,350000.0,281000.0,148999.99999999997,"(-1.0, 0.0, 0.0, 0.0, 0.0, 0.0, 0.0, 0.0, 0.0)"
2025/07/05/17:49:53.091484,10488,1751712593,102020008,base_link,326000.0,277000.0,189999.99999999997,"(-1.0, 0.0, 0.0, 0.0, 0.0, 0.0, 0.0, 0.0, 0.0)"
2025/07/05/17:49:53.191847,10489,1751712593,202020008,base_link,315000.0,272000.0,188999.99999999997,"(-1.0, 0.0, 0.0, 0.0, 0.0, 0.0, 0.0, 0.0, 0.0)"
2025/07/05/17:49:53.272645,10490,1751712593,280897008,base_link,315000.0,272000.0,188999.99999999997,"(-1.0, 0.0, 0.0, 0.0, 0.0, 0.0, 0.0, 0.0, 0.0)"
2025/07/05/17:49:53.416270,10491,1751712593,424172008,base_link,361000.0,250000.00000000003,130999.99999999997,"(-1.0, 0.0, 0.0, 0.0, 0.0, 0.0, 0.0, 0.0, 0.0)"
2025/07/05/17:49:53.570379,10492,1751712593,581016008,base_link,422000.0,237000.00000000003,143999.99999999997,"(-1.0, 0.0, 0.0, 0.0, 0.0, 0.0, 0.0, 0.0, 0.0)"
2025/07/05/17:49:53.671420,10493,1751712593,681235008,base_link,427000.0,226000.00000000003,168999.99999999997,"(-1.0, 0.0, 0.0, 0.0, 0.0, 0.0, 0.0, 0.0, 0.0)"
2025/07/05/17:49:53.771067,10494,1751712593,780922008,base_link,403000.0,221000.00000000003,200999.99999999997,"(-1.0, 0.0, 0.0, 0.0, 0.0, 0.0, 0.0, 0.0, 0.0)"
2025/07/05/17:49:53.871715,10495,1751712593,880943008,base_link,339000.0,220000.00000000003,267000.0,"(-1.0, 0.0, 0.0, 0.0, 0.0, 0.0, 0.0, 0.0, 0.0)"
2025/07/05/17:49:53.991631,10496,1751712594,2431008,base_link,442000.0,187000.00000000003,155999.99999999997,"(-1.0, 0.0, 0.0, 0.0, 0.0, 0.0, 0.0, 0.0, 0.0)"
2025/07/05/17:49:54.052207,10497,1751712594,61347008,base_link,442000.0,187000.00000000003,155999.99999999997,"(-1.0, 0.0, 0.0, 0.0, 0.0, 0.0, 0.0, 0.0, 0.0)"
2025/07/05/17:49:54.170962,10498,1751712594,181113008,base_link,449000.0,173000.00000000003,249999.99999999997,"(-1.0, 0.0, 0.0, 0.0, 0.0, 0.0, 0.0, 0.0, 0.0)"
2025/07/05/17:49:54.250561,10499,1751712594,261276008,base_link,341000.0,183000.00000000003,205999.99999999997,"(-1.0, 0.0, 0.0, 0.0, 0.0, 0.0, 0.0, 0.0, 0.0)"
2025/07/05/17:49:54.330079,10500,1751712594,341134008,base_link,495000.0,150000.00000000003,186999.99999999997,"(-1.0, 0.0, 0.0, 0.0, 0.0, 0.0, 0.0, 0.0, 0.0)"
2025/07/05/17:49:54.510640,10501,1751712594,521527008,base_link,405000.0,139000.00000000003,128999.99999999999,"(-1.0, 0.0, 0.0, 0.0, 0.0, 0.0, 0.0, 0.0, 0.0)"
2025/07/05/17:49:54.592243,10502,1751712594,602550008,base_link,448000.0,123000.00000000001,112999.99999999999,"(-1.0, 0.0, 0.0, 0.0, 0.0, 0.0, 0.0, 0.0, 0.0)"
2025/07/05/17:49:54.691322,10503,1751712594,701728008,base_link,475000.0,102000.00000000003,243000.0,"(-1.0, 0.0, 0.0, 0.0, 0.0, 0.0, 0.0, 0.0, 0.0)"
2025/07/05/17:49:54.791469,10504,1751712594,801918008,base_link,396000.0,110000.00000000001,172000.0,"(-1.0, 0.0, 0.0, 0.0, 0.0, 0.0, 0.0, 0.0, 0.0)"
2025/07/05/17:49:54.911416,10505,1751712594,921167008,base_link,410000.0,93000.00000000001,175000.0,"(-1.0, 0.0, 0.0, 0.0, 0.0, 0.0, 0.0, 0.0, 0.0)"
2025/07/05/17:49:55.012340,10506,1751712595,22561008,base_link,373000.0,88000.00000000003,263000.0,"(-1.0, 0.0, 0.0, 0.0, 0.0, 0.0, 0.0, 0.0, 0.0)"
2025/07/05/17:49:55.092017,10507,1751712595,102183008,base_link,477000.0,57000.00000000002,195000.0,"(-1.0, 0.0, 0.0, 0.0, 0.0, 0.0, 0.0, 0.0, 0.0)"
2025/07/05/17:49:55.191110,10508,1751712595,201739008,base_link,507000.0,38000.00000000004,280000.0,"(-1.0, 0.0, 0.0, 0.0, 0.0, 0.0, 0.0, 0.0, 0.0)"
2025/07/05/17:49:55.291540,10509,1751712595,302192008,base_link,559000.0,18000.00000000003,238000.0,"(-1.0, 0.0, 0.0, 0.0, 0.0, 0.0, 0.0, 0.0, 0.0)"
2025/07/05/17:49:55.450758,10510,1751712595,460695008,base_link,478000.0,15000.000000000035,288000.0,"(-1.0, 0.0, 0.0, 0.0, 0.0, 0.0, 0.0, 0.0, 0.0)"
2025/07/05/17:49:55.591500,10511,1751712595,602231008,base_link,382000.0,8000.000000000033,267000.0,"(-1.0, 0.0, 0.0, 0.0, 0.0, 0.0, 0.0, 0.0, 0.0)"
2025/07/05/17:49:55.669966,10512,1751712595,681007008,base_link,382000.0,8000.000000000033,267000.0,"(-1.0, 0.0, 0.0, 0.0, 0.0, 0.0, 0.0, 0.0, 0.0)"
2025/07/05/17:49:55.771415,10513,1751712595,781325008,base_link,426000.0,-11999.99999999998,165000.0,"(-1.0, 0.0, 0.0, 0.0, 0.0, 0.0, 0.0, 0.0, 0.0)"
2025/07/05/17:49:55.870251,10514,1751712595,880687008,base_link,538000.0,-35999.999999999985,142000.0,"(-1.0, 0.0, 0.0, 0.0, 0.0, 0.0, 0.0, 0.0, 0.0)"
2025/07/05/17:49:55.971055,10515,1751712595,981083008,base_link,520000.0,-45999.999999999985,146000.0,"(-1.0, 0.0, 0.0, 0.0, 0.0, 0.0, 0.0, 0.0, 0.0)"
2025/07/05/17:49:56.070994,10516,1751712596,81409008,base_link,513000.0,-66999.99999999997,286000.0,"(-1.0, 0.0, 0.0, 0.0, 0.0, 0.0, 0.0, 0.0, 0.0)"
2025/07/05/17:49:56.150547,10517,1751712596,161239008,base_link,467000.0,-74999.99999999996,302000.0,"(-1.0, 0.0, 0.0, 0.0, 0.0, 0.0, 0.0, 0.0, 0.0)"
2025/07/05/17:49:56.270807,10518,1751712596,281015008,base_link,515000.0,-90999.99999999999,161000.0,"(-1.0, 0.0, 0.0, 0.0, 0.0, 0.0, 0.0, 0.0, 0.0)"
2025/07/05/17:49:56.412127,10519,1751712596,421909008,base_link,486000.0,-118999.99999999997,286000.0,"(-1.0, 0.0, 0.0, 0.0, 0.0, 0.0, 0.0, 0.0, 0.0)"
2025/07/05/17:49:56.530164,10520,1751712596,540573008,base_link,510000.0,-132999.99999999997,247000.00000000003,"(-1.0, 0.0, 0.0, 0.0, 0.0, 0.0, 0.0, 0.0, 0.0)"
2025/07/05/17:49:56.614026,10521,1751712596,624924008,base_link,398000.0,-127999.99999999997,273000.0,"(-1.0, 0.0, 0.0, 0.0, 0.0, 0.0, 0.0, 0.0, 0.0)"
2025/07/05/17:49:56.692013,10522,1751712596,702603008,base_link,415000.0,-145999.99999999997,172000.00000000003,"(-1.0, 0.0, 0.0, 0.0, 0.0, 0.0, 0.0, 0.0, 0.0)"
2025/07/05/17:49:56.792221,10523,1751712596,802690008,base_link,524000.0,-174999.99999999997,252000.00000000003,"(-1.0, 0.0, 0.0, 0.0, 0.0, 0.0, 0.0, 0.0, 0.0)"
2025/07/05/17:49:56.891329,10524,1751712596,901964008,base_link,519000.0,-186999.99999999997,209000.00000000003,"(-1.0, 0.0, 0.0, 0.0, 0.0, 0.0, 0.0, 0.0, 0.0)"
2025/07/05/17:49:56.992383,10525,1751712597,2666008,base_link,508000.0,-199999.99999999997,178000.00000000003,"(-1.0, 0.0, 0.0, 0.0, 0.0, 0.0, 0.0, 0.0, 0.0)"
2025/07/05/17:49:57.091090,10526,1751712597,101922008,base_link,397000.0,-195999.99999999997,152000.00000000003,"(-1.0, 0.0, 0.0, 0.0, 0.0, 0.0, 0.0, 0.0, 0.0)"
2025/07/05/17:49:57.191135,10527,1751712597,201911008,base_link,470000.0,-220999.99999999997,152000.00000000003,"(-1.0, 0.0, 0.0, 0.0, 0.0, 0.0, 0.0, 0.0, 0.0)"
2025/07/05/17:49:57.291200,10528,1751712597,301986008,base_link,494000.0,-239999.99999999997,201000.00000000003,"(-1.0, 0.0, 0.0, 0.0, 0.0, 0.0, 0.0, 0.0, 0.0)"
2025/07/05/17:49:57.372640,10529,1751712597,381521008,base_link,494000.0,-239999.99999999997,201000.00000000003,"(-1.0, 0.0, 0.0, 0.0, 0.0, 0.0, 0.0, 0.0, 0.0)"
2025/07/05/17:49:57.572213,10530,1751712597,581052008,base_link,442000.0,-253999.99999999997,142000.00000000003,"(-1.0, 0.0, 0.0, 0.0, 0.0, 0.0, 0.0, 0.0, 0.0)"
2025/07/05/17:49:57.671186,10531,1751712597,681020008,base_link,363000.0,-254999.99999999997,155000.00000000003,"(-1.0, 0.0, 0.0, 0.0, 0.0, 0.0, 0.0, 0.0, 0.0)"
2025/07/05/17:49:57.770226,10532,1751712597,781160008,base_link,458000.0,-283000.0,208000.00000000003,"(-1.0, 0.0, 0.0, 0.0, 0.0, 0.0, 0.0, 0.0, 0.0)"
2025/07/05/17:49:57.850250,10533,1751712597,861295008,base_link,465000.0,-279999.99999999994,254000.00000000003,"(-1.0, 0.0, 0.0, 0.0, 0.0, 0.0, 0.0, 0.0, 0.0)"
2025/07/05/17:49:57.970093,10534,1751712597,980721008,base_link,420000.0,-282000.0,231000.00000000003,"(-1.0, 0.0, 0.0, 0.0, 0.0, 0.0, 0.0, 0.0, 0.0)"
2025/07/05/17:49:58.050284,10535,1751712598,61311008,base_link,381000.0,-271999.99999999994,255000.00000000003,"(-1.0, 0.0, 0.0, 0.0, 0.0, 0.0, 0.0, 0.0, 0.0)"
2025/07/05/17:49:58.130221,10536,1751712598,141134008,base_link,344000.0,-252999.99999999997,280000.00000000006,"(-1.0, 0.0, 0.0, 0.0, 0.0, 0.0, 0.0, 0.0, 0.0)"
2025/07/05/17:49:58.233339,10537,1751712598,244256008,base_link,346000.0,-242999.99999999997,263000.00000000006,"(-1.0, 0.0, 0.0, 0.0, 0.0, 0.0, 0.0, 0.0, 0.0)"
2025/07/05/17:49:58.330134,10538,1751712598,340601008,base_link,379000.0,-235999.99999999997,270000.0,"(-1.0, 0.0, 0.0, 0.0, 0.0, 0.0, 0.0, 0.0, 0.0)"
2025/07/05/17:49:58.491865,10539,1751712598,502509008,base_link,394000.0,-229999.99999999997,251000.00000000003,"(-1.0, 0.0, 0.0, 0.0, 0.0, 0.0, 0.0, 0.0, 0.0)"
2025/07/05/17:49:58.591366,10540,1751712598,601916008,base_link,421000.0,-267999.99999999994,272000.00000000006,"(-1.0, 0.0, 0.0, 0.0, 0.0, 0.0, 0.0, 0.0, 0.0)"
2025/07/05/17:49:58.670375,10541,1751712598,681047008,base_link,421000.0,-267999.99999999994,272000.00000000006,"(-1.0, 0.0, 0.0, 0.0, 0.0, 0.0, 0.0, 0.0, 0.0)"
2025/07/05/17:49:58.771546,10542,1751712598,781299008,base_link,412000.0,-280000.0,187000.00000000003,"(-1.0, 0.0, 0.0, 0.0, 0.0, 0.0, 0.0, 0.0, 0.0)"
2025/07/05/17:49:58.850050,10543,1751712598,861030008,base_link,383000.0,-283000.0,224000.00000000003,"(-1.0, 0.0, 0.0, 0.0, 0.0, 0.0, 0.0, 0.0, 0.0)"
2025/07/05/17:49:58.991168,10544,1751712599,1761008,base_link,350000.0,-284999.99999999994,244000.00000000003,"(-1.0, 0.0, 0.0, 0.0, 0.0, 0.0, 0.0, 0.0, 0.0)"
2025/07/05/17:49:59.090995,10545,1751712599,101751008,base_link,345000.0,-292000.0,230000.00000000003,"(-1.0, 0.0, 0.0, 0.0, 0.0, 0.0, 0.0, 0.0, 0.0)"
2025/07/05/17:49:59.191252,10546,1751712599,201717008,base_link,335000.0,-302000.0,173000.00000000003,"(-1.0, 0.0, 0.0, 0.0, 0.0, 0.0, 0.0, 0.0, 0.0)"
2025/07/05/17:49:59.272678,10547,1751712599,280941008,base_link,335000.0,-302000.0,173000.00000000003,"(-1.0, 0.0, 0.0, 0.0, 0.0, 0.0, 0.0, 0.0, 0.0)"
2025/07/05/17:49:59.411891,10548,1751712599,421974008,base_link,306000.0,-330999.99999999994,255000.00000000003,"(-1.0, 0.0, 0.0, 0.0, 0.0, 0.0, 0.0, 0.0, 0.0)"
2025/07/05/17:49:59.511548,10549,1751712599,522384008,base_link,329000.0,-322999.99999999994,252000.00000000003,"(-1.0, 0.0, 0.0, 0.0, 0.0, 0.0, 0.0, 0.0, 0.0)"
2025/07/05/17:49:59.633048,10550,1751712599,643623008,base_link,356000.0,-336999.99999999994,258000.00000000003,"(-1.0, 0.0, 0.0, 0.0, 0.0, 0.0, 0.0, 0.0, 0.0)"
2025/07/05/17:49:59.729875,10551,1751712599,740561008,base_link,311000.0,-320999.99999999994,274000.00000000006,"(-1.0, 0.0, 0.0, 0.0, 0.0, 0.0, 0.0, 0.0, 0.0)"
2025/07/05/17:49:59.811888,10552,1751712599,822757008,base_link,286000.0,-311999.99999999994,299000.00000000006,"(-1.0, 0.0, 0.0, 0.0, 0.0, 0.0, 0.0, 0.0, 0.0)"
2025/07/05/17:49:59.930518,10553,1751712599,940609008,base_link,294000.0,-293999.99999999994,238000.00000000003,"(-1.0, 0.0, 0.0, 0.0, 0.0, 0.0, 0.0, 0.0, 0.0)"
2025/07/05/17:50:00.049457,10554,1751712600,60647008,base_link,353000.0,-291999.99999999994,279000.00000000006,"(-1.0, 0.0, 0.0, 0.0, 0.0, 0.0, 0.0, 0.0, 0.0)"
2025/07/05/17:50:00.150775,10555,1751712600,160680008,base_link,338000.0,-297999.99999999994,240000.00000000003,"(-1.0, 0.0, 0.0, 0.0, 0.0, 0.0, 0.0, 0.0, 0.0)"
2025/07/05/17:50:00.233396,10556,1751712600,243997008,base_link,327000.0,-304000.0,175000.00000000003,"(-1.0, 0.0, 0.0, 0.0, 0.0, 0.0, 0.0, 0.0, 0.0)"
2025/07/05/17:50:00.350789,10557,1751712600,360730008,base_link,347000.0,-308000.0,188000.00000000003,"(-1.0, 0.0, 0.0, 0.0, 0.0, 0.0, 0.0, 0.0, 0.0)"
2025/07/05/17:50:00.530128,10558,1751712600,540559008,base_link,348000.0,-338000.0,185000.00000000003,"(-1.0, 0.0, 0.0, 0.0, 0.0, 0.0, 0.0, 0.0, 0.0)"
2025/07/05/17:50:00.591672,10559,1751712600,602499008,base_link,260000.0,-333999.99999999994,276000.00000000006,"(-1.0, 0.0, 0.0, 0.0, 0.0, 0.0, 0.0, 0.0, 0.0)"
2025/07/05/17:50:00.690989,10560,1751712600,701975008,base_link,317000.0,-333000.0,226000.00000000003,"(-1.0, 0.0, 0.0, 0.0, 0.0, 0.0, 0.0, 0.0, 0.0)"
2025/07/05/17:50:00.791626,10561,1751712600,801949008,base_link,280000.0,-327000.0,217000.00000000003,"(-1.0, 0.0, 0.0, 0.0, 0.0, 0.0, 0.0, 0.0, 0.0)"
2025/07/05/17:50:00.851714,10562,1751712600,861161008,base_link,280000.0,-327000.0,217000.00000000003,"(-1.0, 0.0, 0.0, 0.0, 0.0, 0.0, 0.0, 0.0, 0.0)"
2025/07/05/17:50:00.970500,10563,1751712600,980915008,base_link,265000.0,-317999.99999999994,293000.00000000006,"(-1.0, 0.0, 0.0, 0.0, 0.0, 0.0, 0.0, 0.0, 0.0)"
2025/07/05/17:50:01.049955,10564,1751712601,61354008,base_link,287000.0,-323999.99999999994,295000.00000000006,"(-1.0, 0.0, 0.0, 0.0, 0.0, 0.0, 0.0, 0.0, 0.0)"
2025/07/05/17:50:01.171314,10565,1751712601,181138008,base_link,322000.0,-321999.99999999994,296000.00000000006,"(-1.0, 0.0, 0.0, 0.0, 0.0, 0.0, 0.0, 0.0, 0.0)"
2025/07/05/17:50:01.250394,10566,1751712601,261120008,base_link,280000.0,-303000.0,218000.00000000003,"(-1.0, 0.0, 0.0, 0.0, 0.0, 0.0, 0.0, 0.0, 0.0)"
2025/07/05/17:50:01.390952,10567,1751712601,401914008,base_link,364000.0,-308999.99999999994,262000.00000000003,"(-1.0, 0.0, 0.0, 0.0, 0.0, 0.0, 0.0, 0.0, 0.0)"
2025/07/05/17:50:01.550244,10568,1751712601,561233008,base_link,380000.0,-316999.99999999994,246000.00000000003,"(-1.0, 0.0, 0.0, 0.0, 0.0, 0.0, 0.0, 0.0, 0.0)"
2025/07/05/17:50:01.650087,10569,1751712601,661393008,base_link,352000.0,-330000.0,203000.00000000003,"(-1.0, 0.0, 0.0, 0.0, 0.0, 0.0, 0.0, 0.0, 0.0)"
2025/07/05/17:50:01.751354,10570,1751712601,760567008,base_link,305000.0,-340000.0,213000.00000000003,"(-1.0, 0.0, 0.0, 0.0, 0.0, 0.0, 0.0, 0.0, 0.0)"
2025/07/05/17:50:01.850505,10571,1751712601,860713008,base_link,309000.0,-348000.0,196000.00000000003,"(-1.0, 0.0, 0.0, 0.0, 0.0, 0.0, 0.0, 0.0, 0.0)"
2025/07/05/17:50:01.971316,10572,1751712601,981407008,base_link,267000.0,-335999.99999999994,239000.00000000003,"(-1.0, 0.0, 0.0, 0.0, 0.0, 0.0, 0.0, 0.0, 0.0)"
2025/07/05/17:50:02.049928,10573,1751712602,61042008,base_link,319000.0,-346000.0,215000.00000000003,"(-1.0, 0.0, 0.0, 0.0, 0.0, 0.0, 0.0, 0.0, 0.0)"
2025/07/05/17:50:02.169564,10574,1751712602,180648008,base_link,304000.0,-333999.99999999994,258000.00000000003,"(-1.0, 0.0, 0.0, 0.0, 0.0, 0.0, 0.0, 0.0, 0.0)"
2025/07/05/17:50:02.251899,10575,1751712602,260716008,base_link,303000.0,-330999.99999999994,265000.00000000006,"(-1.0, 0.0, 0.0, 0.0, 0.0, 0.0, 0.0, 0.0, 0.0)"
2025/07/05/17:50:02.351570,10576,1751712602,360588008,base_link,319000.0,-330000.0,231000.00000000003,"(-1.0, 0.0, 0.0, 0.0, 0.0, 0.0, 0.0, 0.0, 0.0)"
2025/07/05/17:50:02.511605,10577,1751712602,521998008,base_link,271000.0,-297999.99999999994,274000.00000000006,"(-1.0, 0.0, 0.0, 0.0, 0.0, 0.0, 0.0, 0.0, 0.0)"
2025/07/05/17:50:02.611901,10578,1751712602,622677008,base_link,314000.0,-307999.99999999994,243000.00000000003,"(-1.0, 0.0, 0.0, 0.0, 0.0, 0.0, 0.0, 0.0, 0.0)"
2025/07/05/17:50:02.712112,10579,1751712602,721580008,base_link,286000.0,-327999.99999999994,242000.00000000003,"(-1.0, 0.0, 0.0, 0.0, 0.0, 0.0, 0.0, 0.0, 0.0)"
2025/07/05/17:50:02.792028,10580,1751712602,802695008,base_link,291000.0,-354000.0,214000.00000000003,"(-1.0, 0.0, 0.0, 0.0, 0.0, 0.0, 0.0, 0.0, 0.0)"
2025/07/05/17:50:02.873565,10581,1751712602,881529008,base_link,291000.0,-354000.0,214000.00000000003,"(-1.0, 0.0, 0.0, 0.0, 0.0, 0.0, 0.0, 0.0, 0.0)"
2025/07/05/17:50:02.991495,10582,1751712603,2486008,base_link,299000.0,-354999.99999999994,253000.00000000003,"(-1.0, 0.0, 0.0, 0.0, 0.0, 0.0, 0.0, 0.0, 0.0)"
2025/07/05/17:50:03.072610,10583,1751712603,80762008,base_link,299000.0,-354999.99999999994,253000.00000000003,"(-1.0, 0.0, 0.0, 0.0, 0.0, 0.0, 0.0, 0.0, 0.0)"
2025/07/05/17:50:03.170285,10584,1751712603,181186008,base_link,291000.0,-349000.0,199000.00000000003,"(-1.0, 0.0, 0.0, 0.0, 0.0, 0.0, 0.0, 0.0, 0.0)"
2025/07/05/17:50:03.250072,10585,1751712603,261371008,base_link,288000.0,-331999.99999999994,292000.00000000006,"(-1.0, 0.0, 0.0, 0.0, 0.0, 0.0, 0.0, 0.0, 0.0)"
2025/07/05/17:50:03.350016,10586,1751712603,361330008,base_link,278000.0,-322999.99999999994,269000.00000000006,"(-1.0, 0.0, 0.0, 0.0, 0.0, 0.0, 0.0, 0.0, 0.0)"
2025/07/05/17:50:03.491226,10587,1751712603,502440008,base_link,281000.0,-321999.99999999994,276000.00000000006,"(-1.0, 0.0, 0.0, 0.0, 0.0, 0.0, 0.0, 0.0, 0.0)"
2025/07/05/17:50:03.650835,10588,1751712603,660678008,base_link,307000.0,-349999.99999999994,294000.00000000006,"(-1.0, 0.0, 0.0, 0.0, 0.0, 0.0, 0.0, 0.0, 0.0)"
2025/07/05/17:50:03.750896,10589,1751712603,760646008,base_link,298000.0,-361000.0,198000.00000000006,"(-1.0, 0.0, 0.0, 0.0, 0.0, 0.0, 0.0, 0.0, 0.0)"
2025/07/05/17:50:03.833193,10590,1751712603,844005008,base_link,264000.0,-376000.0,208000.00000000006,"(-1.0, 0.0, 0.0, 0.0, 0.0, 0.0, 0.0, 0.0, 0.0)"
2025/07/05/17:50:03.949956,10591,1751712603,960636008,base_link,294000.0,-380000.0,223000.00000000006,"(-1.0, 0.0, 0.0, 0.0, 0.0, 0.0, 0.0, 0.0, 0.0)"
2025/07/05/17:50:04.033283,10592,1751712604,43959008,base_link,293000.0,-380999.99999999994,253000.00000000006,"(-1.0, 0.0, 0.0, 0.0, 0.0, 0.0, 0.0, 0.0, 0.0)"
2025/07/05/17:50:04.151212,10593,1751712604,160546008,base_link,281000.0,-365000.0,191000.00000000006,"(-1.0, 0.0, 0.0, 0.0, 0.0, 0.0, 0.0, 0.0, 0.0)"
2025/07/05/17:50:04.233207,10594,1751712604,244203008,base_link,207000.0,-353999.99999999994,288000.00000000006,"(-1.0, 0.0, 0.0, 0.0, 0.0, 0.0, 0.0, 0.0, 0.0)"
2025/07/05/17:50:04.351005,10595,1751712604,360914008,base_link,229000.0,-355999.99999999994,298000.00000000006,"(-1.0, 0.0, 0.0, 0.0, 0.0, 0.0, 0.0, 0.0, 0.0)"
2025/07/05/17:50:04.510989,10596,1751712604,521766008,base_link,213000.0,-342999.99999999994,277000.00000000006,"(-1.0, 0.0, 0.0, 0.0, 0.0, 0.0, 0.0, 0.0, 0.0)"
2025/07/05/17:50:04.632342,10597,1751712604,643414008,base_link,226000.0,-346999.99999999994,274000.00000000006,"(-1.0, 0.0, 0.0, 0.0, 0.0, 0.0, 0.0, 0.0, 0.0)"
2025/07/05/17:50:04.729660,10598,1751712604,740565008,base_link,240000.0,-348999.99999999994,246000.00000000003,"(-1.0, 0.0, 0.0, 0.0, 0.0, 0.0, 0.0, 0.0, 0.0)"
2025/07/05/17:50:04.792797,10599,1751712604,802519008,base_link,249000.0,-347999.99999999994,258000.00000000003,"(-1.0, 0.0, 0.0, 0.0, 0.0, 0.0, 0.0, 0.0, 0.0)"
2025/07/05/17:50:04.911276,10600,1751712604,921588008,base_link,285000.0,-340999.99999999994,267000.00000000006,"(-1.0, 0.0, 0.0, 0.0, 0.0, 0.0, 0.0, 0.0, 0.0)"
2025/07/05/17:50:04.991281,10601,1751712605,2122008,base_link,253000.0,-322999.99999999994,274000.00000000006,"(-1.0, 0.0, 0.0, 0.0, 0.0, 0.0, 0.0, 0.0, 0.0)"
2025/07/05/17:50:05.090763,10602,1751712605,102147008,base_link,308000.0,-321999.99999999994,256000.00000000003,"(-1.0, 0.0, 0.0, 0.0, 0.0, 0.0, 0.0, 0.0, 0.0)"
2025/07/05/17:50:05.191523,10603,1751712605,201948008,base_link,337000.0,-310000.0,216000.00000000003,"(-1.0, 0.0, 0.0, 0.0, 0.0, 0.0, 0.0, 0.0, 0.0)"
2025/07/05/17:50:05.291151,10604,1751712605,301556008,base_link,355000.0,-300000.0,172000.00000000003,"(-1.0, 0.0, 0.0, 0.0, 0.0, 0.0, 0.0, 0.0, 0.0)"
2025/07/05/17:50:05.351571,10605,1751712605,361140008,base_link,355000.0,-300000.0,172000.00000000003,"(-1.0, 0.0, 0.0, 0.0, 0.0, 0.0, 0.0, 0.0, 0.0)"
2025/07/05/17:50:05.569799,10606,1751712605,580971008,base_link,333000.0,-278999.99999999994,252000.00000000003,"(-1.0, 0.0, 0.0, 0.0, 0.0, 0.0, 0.0, 0.0, 0.0)"
2025/07/05/17:50:05.690488,10607,1751712605,701613008,base_link,360000.0,-268000.0,235000.00000000003,"(-1.0, 0.0, 0.0, 0.0, 0.0, 0.0, 0.0, 0.0, 0.0)"
2025/07/05/17:50:05.791375,10608,1751712605,802433008,base_link,360000.0,-256999.99999999997,242000.00000000003,"(-1.0, 0.0, 0.0, 0.0, 0.0, 0.0, 0.0, 0.0, 0.0)"
2025/07/05/17:50:05.872190,10609,1751712605,881398008,base_link,360000.0,-256999.99999999997,242000.00000000003,"(-1.0, 0.0, 0.0, 0.0, 0.0, 0.0, 0.0, 0.0, 0.0)"
2025/07/05/17:50:05.991373,10610,1751712606,2337008,base_link,405000.0,-239999.99999999997,229000.00000000003,"(-1.0, 0.0, 0.0, 0.0, 0.0, 0.0, 0.0, 0.0, 0.0)"
2025/07/05/17:50:06.052455,10611,1751712606,61125008,base_link,405000.0,-239999.99999999997,229000.00000000003,"(-1.0, 0.0, 0.0, 0.0, 0.0, 0.0, 0.0, 0.0, 0.0)"
2025/07/05/17:50:06.130174,10612,1751712606,141336008,base_link,381000.0,-221999.99999999997,234000.00000000003,"(-1.0, 0.0, 0.0, 0.0, 0.0, 0.0, 0.0, 0.0, 0.0)"
2025/07/05/17:50:06.230183,10613,1751712606,241312008,base_link,401000.0,-216999.99999999997,235000.00000000003,"(-1.0, 0.0, 0.0, 0.0, 0.0, 0.0, 0.0, 0.0, 0.0)"
2025/07/05/17:50:06.349777,10614,1751712606,360545008,base_link,422000.0,-209999.99999999997,220000.00000000003,"(-1.0, 0.0, 0.0, 0.0, 0.0, 0.0, 0.0, 0.0, 0.0)"
2025/07/05/17:50:06.510966,10615,1751712606,521963008,base_link,436000.0,-190999.99999999997,283000.0,"(-1.0, 0.0, 0.0, 0.0, 0.0, 0.0, 0.0, 0.0, 0.0)"
2025/07/05/17:50:06.591606,10616,1751712606,602545008,base_link,410000.0,-175999.99999999997,224000.00000000003,"(-1.0, 0.0, 0.0, 0.0, 0.0, 0.0, 0.0, 0.0, 0.0)"
2025/07/05/17:50:06.710971,10617,1751712606,721407008,base_link,396000.0,-161999.99999999997,229000.00000000003,"(-1.0, 0.0, 0.0, 0.0, 0.0, 0.0, 0.0, 0.0, 0.0)"
2025/07/05/17:50:06.791164,10618,1751712606,802251008,base_link,454000.0,-157999.99999999997,260000.00000000003,"(-1.0, 0.0, 0.0, 0.0, 0.0, 0.0, 0.0, 0.0, 0.0)"
2025/07/05/17:50:06.911500,10619,1751712606,921536008,base_link,438000.0,-148999.99999999997,288000.0,"(-1.0, 0.0, 0.0, 0.0, 0.0, 0.0, 0.0, 0.0, 0.0)"
2025/07/05/17:50:06.991184,10620,1751712607,2247008,base_link,443000.0,-134999.99999999997,232000.00000000003,"(-1.0, 0.0, 0.0, 0.0, 0.0, 0.0, 0.0, 0.0, 0.0)"
2025/07/05/17:50:07.090964,10621,1751712607,101959008,base_link,453000.0,-126999.99999999997,240000.00000000003,"(-1.0, 0.0, 0.0, 0.0, 0.0, 0.0, 0.0, 0.0, 0.0)"
2025/07/05/17:50:07.190576,10622,1751712607,201976008,base_link,457000.0,-121999.99999999997,271000.0,"(-1.0, 0.0, 0.0, 0.0, 0.0, 0.0, 0.0, 0.0, 0.0)"
2025/07/05/17:50:07.290818,10623,1751712607,301729008,base_link,444000.0,-102999.99999999997,214000.0,"(-1.0, 0.0, 0.0, 0.0, 0.0, 0.0, 0.0, 0.0, 0.0)"
2025/07/05/17:50:07.391836,10624,1751712607,402675008,base_link,449000.0,-90999.99999999997,263000.0,"(-1.0, 0.0, 0.0, 0.0, 0.0, 0.0, 0.0, 0.0, 0.0)"
2025/07/05/17:50:07.569533,10625,1751712607,580741008,base_link,460000.0,-80999.99999999997,225000.0,"(-1.0, 0.0, 0.0, 0.0, 0.0, 0.0, 0.0, 0.0, 0.0)"
2025/07/05/17:50:07.669796,10626,1751712607,680737008,base_link,498000.0,-81999.99999999997,262000.0,"(-1.0, 0.0, 0.0, 0.0, 0.0, 0.0, 0.0, 0.0, 0.0)"
2025/07/05/17:50:07.751284,10627,1751712607,760492008,base_link,446000.0,-59999.99999999997,262000.0,"(-1.0, 0.0, 0.0, 0.0, 0.0, 0.0, 0.0, 0.0, 0.0)"
2025/07/05/17:50:07.833248,10628,1751712607,844248008,base_link,483000.0,-56999.99999999997,264000.0,"(-1.0, 0.0, 0.0, 0.0, 0.0, 0.0, 0.0, 0.0, 0.0)"
2025/07/05/17:50:07.969979,10629,1751712607,981346008,base_link,512000.0,-49999.99999999997,217000.0,"(-1.0, 0.0, 0.0, 0.0, 0.0, 0.0, 0.0, 0.0, 0.0)"
2025/07/05/17:50:08.071279,10630,1751712608,81098008,base_link,448000.0,-27999.999999999978,190000.0,"(-1.0, 0.0, 0.0, 0.0, 0.0, 0.0, 0.0, 0.0, 0.0)"
2025/07/05/17:50:08.171068,10631,1751712608,181079008,base_link,447000.0,-17999.999999999975,210000.0,"(-1.0, 0.0, 0.0, 0.0, 0.0, 0.0, 0.0, 0.0, 0.0)"
2025/07/05/17:50:08.271429,10632,1751712608,281013008,base_link,466000.0,-9999.999999999975,203000.0,"(-1.0, 0.0, 0.0, 0.0, 0.0, 0.0, 0.0, 0.0, 0.0)"
2025/07/05/17:50:08.411922,10633,1751712608,422400008,base_link,483000.0,8000.00000000003,244000.0,"(-1.0, 0.0, 0.0, 0.0, 0.0, 0.0, 0.0, 0.0, 0.0)"
2025/07/05/17:50:08.569680,10634,1751712608,580911008,base_link,454000.0,26000.00000000003,229000.0,"(-1.0, 0.0, 0.0, 0.0, 0.0, 0.0, 0.0, 0.0, 0.0)"
2025/07/05/17:50:08.670072,10635,1751712608,681124008,base_link,433000.0,34000.00000000004,294000.0,"(-1.0, 0.0, 0.0, 0.0, 0.0, 0.0, 0.0, 0.0, 0.0)"
2025/07/05/17:50:08.769564,10636,1751712608,780737008,base_link,449000.0,41000.00000000003,265000.0,"(-1.0, 0.0, 0.0, 0.0, 0.0, 0.0, 0.0, 0.0, 0.0)"
2025/07/05/17:50:08.871421,10637,1751712608,880909008,base_link,478000.0,52000.00000000003,249000.0,"(-1.0, 0.0, 0.0, 0.0, 0.0, 0.0, 0.0, 0.0, 0.0)"
2025/07/05/17:50:08.990658,10638,1751712609,2195008,base_link,465000.0,87000.00000000003,285000.0,"(-1.0, 0.0, 0.0, 0.0, 0.0, 0.0, 0.0, 0.0, 0.0)"
2025/07/05/17:50:09.090872,10639,1751712609,101737008,base_link,436000.0,80000.00000000003,261000.0,"(-1.0, 0.0, 0.0, 0.0, 0.0, 0.0, 0.0, 0.0, 0.0)"
2025/07/05/17:50:09.191381,10640,1751712609,202179008,base_link,459000.0,62000.00000000003,243000.0,"(-1.0, 0.0, 0.0, 0.0, 0.0, 0.0, 0.0, 0.0, 0.0)"
2025/07/05/17:50:09.250848,10641,1751712609,261312008,base_link,459000.0,62000.00000000003,243000.0,"(-1.0, 0.0, 0.0, 0.0, 0.0, 0.0, 0.0, 0.0, 0.0)"
2025/07/05/17:50:09.369662,10642,1751712609,380760008,base_link,460000.0,32000.000000000033,259000.0,"(-1.0, 0.0, 0.0, 0.0, 0.0, 0.0, 0.0, 0.0, 0.0)"
2025/07/05/17:50:09.529490,10643,1751712609,541108008,base_link,484000.0,32000.00000000003,226000.0,"(-1.0, 0.0, 0.0, 0.0, 0.0, 0.0, 0.0, 0.0, 0.0)"
2025/07/05/17:50:09.651243,10644,1751712609,660908008,base_link,491000.0,36000.00000000003,265000.0,"(-1.0, 0.0, 0.0, 0.0, 0.0, 0.0, 0.0, 0.0, 0.0)"
2025/07/05/17:50:09.749953,10645,1751712609,760702008,base_link,452000.0,54000.00000000004,278000.0,"(-1.0, 0.0, 0.0, 0.0, 0.0, 0.0, 0.0, 0.0, 0.0)"
2025/07/05/17:50:09.833427,10646,1751712609,843984008,base_link,441000.0,64000.00000000003,252000.0,"(-1.0, 0.0, 0.0, 0.0, 0.0, 0.0, 0.0, 0.0, 0.0)"
2025/07/05/17:50:09.950518,10647,1751712609,960710008,base_link,406000.0,78000.00000000003,263000.0,"(-1.0, 0.0, 0.0, 0.0, 0.0, 0.0, 0.0, 0.0, 0.0)"
2025/07/05/17:50:10.050781,10648,1751712610,60901008,base_link,476000.0,74000.00000000003,214000.0,"(-1.0, 0.0, 0.0, 0.0, 0.0, 0.0, 0.0, 0.0, 0.0)"
2025/07/05/17:50:10.150074,10649,1751712610,160686008,base_link,472000.0,81000.00000000001,159000.0,"(-1.0, 0.0, 0.0, 0.0, 0.0, 0.0, 0.0, 0.0, 0.0)"
2025/07/05/17:50:10.251595,10650,1751712610,260551008,base_link,443000.0,79000.00000000003,246000.0,"(-1.0, 0.0, 0.0, 0.0, 0.0, 0.0, 0.0, 0.0, 0.0)"
2025/07/05/17:50:10.330177,10651,1751712610,341123008,base_link,453000.0,84000.00000000003,204000.0,"(-1.0, 0.0, 0.0, 0.0, 0.0, 0.0, 0.0, 0.0, 0.0)"
2025/07/05/17:50:10.491624,10652,1751712610,502614008,base_link,466000.0,53000.00000000004,272000.0,"(-1.0, 0.0, 0.0, 0.0, 0.0, 0.0, 0.0, 0.0, 0.0)"
2025/07/05/17:50:10.590715,10653,1751712610,601912008,base_link,445000.0,46000.00000000003,261000.0,"(-1.0, 0.0, 0.0, 0.0, 0.0, 0.0, 0.0, 0.0, 0.0)"
2025/07/05/17:50:10.670903,10654,1751712610,681669008,base_link,445000.0,46000.00000000003,261000.0,"(-1.0, 0.0, 0.0, 0.0, 0.0, 0.0, 0.0, 0.0, 0.0)"
2025/07/05/17:50:10.769594,10655,1751712610,781133008,base_link,466000.0,28000.000000000033,255000.0,"(-1.0, 0.0, 0.0, 0.0, 0.0, 0.0, 0.0, 0.0, 0.0)"
2025/07/05/17:50:10.849887,10656,1751712610,861331008,base_link,478000.0,28000.00000000003,231000.0,"(-1.0, 0.0, 0.0, 0.0, 0.0, 0.0, 0.0, 0.0, 0.0)"
2025/07/05/17:50:10.990925,10657,1751712611,2009008,base_link,466000.0,42000.00000000003,258000.0,"(-1.0, 0.0, 0.0, 0.0, 0.0, 0.0, 0.0, 0.0, 0.0)"
2025/07/05/17:50:11.051663,10658,1751712611,61108008,base_link,466000.0,42000.00000000003,258000.0,"(-1.0, 0.0, 0.0, 0.0, 0.0, 0.0, 0.0, 0.0, 0.0)"
2025/07/05/17:50:11.150027,10659,1751712611,160562008,base_link,460000.0,35000.00000000004,272000.0,"(-1.0, 0.0, 0.0, 0.0, 0.0, 0.0, 0.0, 0.0, 0.0)"
2025/07/05/17:50:11.233194,10660,1751712611,244033008,base_link,434000.0,53000.00000000003,246000.0,"(-1.0, 0.0, 0.0, 0.0, 0.0, 0.0, 0.0, 0.0, 0.0)"
2025/07/05/17:50:11.330202,10661,1751712611,341368008,base_link,443000.0,59000.00000000003,211000.0,"(-1.0, 0.0, 0.0, 0.0, 0.0, 0.0, 0.0, 0.0, 0.0)"
2025/07/05/17:50:11.511259,10662,1751712611,522175008,base_link,463000.0,73000.00000000003,218000.0,"(-1.0, 0.0, 0.0, 0.0, 0.0, 0.0, 0.0, 0.0, 0.0)"
2025/07/05/17:50:11.610935,10663,1751712611,622715008,base_link,428000.0,89000.00000000003,194000.0,"(-1.0, 0.0, 0.0, 0.0, 0.0, 0.0, 0.0, 0.0, 0.0)"
2025/07/05/17:50:11.691942,10664,1751712611,702966008,base_link,450000.0,97000.00000000003,229000.0,"(-1.0, 0.0, 0.0, 0.0, 0.0, 0.0, 0.0, 0.0, 0.0)"
2025/07/05/17:50:11.790879,10665,1751712611,801982008,base_link,457000.0,111000.00000000001,170000.0,"(-1.0, 0.0, 0.0, 0.0, 0.0, 0.0, 0.0, 0.0, 0.0)"
2025/07/05/17:50:11.849880,10666,1751712611,861122008,base_link,457000.0,111000.00000000001,170000.0,"(-1.0, 0.0, 0.0, 0.0, 0.0, 0.0, 0.0, 0.0, 0.0)"
