time,.header.seq,.header.stamp.secs,.header.stamp.nsecs,.header.frame_id,.voltage,.temperature,.current,.charge,.capacity,.design_capacity,.percentage,.power_supply_status,.power_supply_health,.power_supply_technology,.present,.cell_voltage,.cell_temperature,.location,.serial_number
2025/07/05/17:49:31.131665,20559,1751712571,131105236,,0.0,0.0,0.009999999776482582,nan,nan,nan,-0.009999999776482582,2,0,0,True,(),(),,
2025/07/05/17:49:31.192843,20560,1751712571,192353287,,11.831000328063965,0.0,-0.25,nan,nan,nan,0.7099999785423279,2,0,0,True,"(11.831000328063965,)",(),id1,
2025/07/05/17:49:31.234059,20561,1751712571,233439916,,0.0,0.0,0.009999999776482582,nan,nan,nan,-0.009999999776482582,2,0,0,True,(),(),,
2025/07/05/17:49:31.291614,20562,1751712571,291027403,,11.832000732421875,0.0,-0.25999999046325684,nan,nan,nan,0.7099999785423279,2,0,0,True,"(11.832000732421875,)",(),id1,
2025/07/05/17:49:31.332035,20563,1751712571,331463750,,0.0,0.0,0.009999999776482582,nan,nan,nan,-0.009999999776482582,2,0,0,True,(),(),,
2025/07/05/17:49:31.451505,20564,1751712571,451035475,,11.832000732421875,0.0,-0.25999999046325684,nan,nan,nan,0.7099999785423279,2,0,0,True,"(11.832000732421875,)",(),id1,
2025/07/05/17:49:31.492873,20565,1751712571,492276712,,0.0,0.0,0.009999999776482582,nan,nan,nan,-0.009999999776482582,2,0,0,True,(),(),,
2025/07/05/17:49:31.552061,20566,1751712571,551169897,,11.830000877380371,0.0,-0.25,nan,nan,nan,0.7099999785423279,2,0,0,True,"(11.830000877380371,)",(),id1,
2025/07/05/17:49:31.591901,20567,1751712571,591271923,,0.0,0.0,0.009999999776482582,nan,nan,nan,-0.009999999776482582,2,0,0,True,(),(),,
2025/07/05/17:49:31.634996,20568,1751712571,634315505,,11.833000183105469,0.0,-0.25,nan,nan,nan,0.7099999785423279,2,0,0,True,"(11.833000183105469,)",(),id1,
2025/07/05/17:49:31.672215,20569,1751712571,671595824,,0.0,0.0,0.009999999776482582,nan,nan,nan,-0.009999999776482582,2,0,0,True,(),(),,
2025/07/05/17:49:31.711157,20570,1751712571,710941643,,11.833000183105469,0.0,-0.25999999046325684,nan,nan,nan,0.7099999785423279,2,0,0,True,"(11.833000183105469,)",(),id1,
2025/07/05/17:49:31.752035,20571,1751712571,751277207,,0.0,0.0,0.009999999776482582,nan,nan,nan,-0.009999999776482582,2,0,0,True,(),(),,
2025/07/05/17:49:31.814557,20572,1751712571,814209321,,11.833000183105469,0.0,-0.25999999046325684,nan,nan,nan,0.7099999785423279,2,0,0,True,"(11.833000183105469,)",(),id1,
2025/07/05/17:49:31.851315,20573,1751712571,850812055,,0.0,0.0,0.009999999776482582,nan,nan,nan,-0.009999999776482582,2,0,0,True,(),(),,
2025/07/05/17:49:31.933092,20574,1751712571,931546035,,11.833000183105469,0.0,-0.25999999046325684,nan,nan,nan,0.7099999785423279,2,0,0,True,"(11.833000183105469,)",(),id1,
2025/07/05/17:49:31.972287,20575,1751712571,972036310,,0.0,0.0,0.009999999776482582,nan,nan,nan,-0.009999999776482582,2,0,0,True,(),(),,
2025/07/05/17:49:32.012565,20576,1751712572,12235639,,11.833000183105469,0.0,-0.25999999046325684,nan,nan,nan,0.7099999785423279,2,0,0,True,"(11.833000183105469,)",(),id1,
2025/07/05/17:49:32.051268,20577,1751712572,50792438,,0.0,0.0,0.009999999776482582,nan,nan,nan,-0.009999999776482582,2,0,0,True,(),(),,
2025/07/05/17:49:32.092809,20578,1751712572,92339448,,11.833000183105469,0.0,-0.25999999046325684,nan,nan,nan,0.7099999785423279,2,0,0,True,"(11.833000183105469,)",(),id1,
2025/07/05/17:49:32.150984,20579,1751712572,150569170,,0.0,0.0,0.009999999776482582,nan,nan,nan,-0.009999999776482582,2,0,0,True,(),(),,
2025/07/05/17:49:32.215664,20580,1751712572,214461185,,11.833000183105469,0.0,-0.25,nan,nan,nan,0.7099999785423279,2,0,0,True,"(11.833000183105469,)",(),id1,
2025/07/05/17:49:32.251725,20581,1751712572,251143903,,0.0,0.0,0.009999999776482582,nan,nan,nan,-0.009999999776482582,2,0,0,True,(),(),,
2025/07/05/17:49:32.311595,20582,1751712572,311111721,,11.833000183105469,0.0,-0.25999999046325684,nan,nan,nan,0.7099999785423279,2,0,0,True,"(11.833000183105469,)",(),id1,
2025/07/05/17:49:32.350581,20583,1751712572,350293922,,0.0,0.0,0.009999999776482582,nan,nan,nan,-0.009999999776482582,2,0,0,True,(),(),,
2025/07/05/17:49:32.471872,20584,1751712572,471280343,,11.832000732421875,0.0,-0.26999998092651367,nan,nan,nan,0.7099999785423279,2,0,0,True,"(11.832000732421875,)",(),id1,
2025/07/05/17:49:32.513076,20585,1751712572,512259247,,0.0,0.0,0.009999999776482582,nan,nan,nan,-0.009999999776482582,2,0,0,True,(),(),,
2025/07/05/17:49:32.572986,20586,1751712572,571527457,,11.833000183105469,0.0,-0.25999999046325684,nan,nan,nan,0.7099999785423279,2,0,0,True,"(11.833000183105469,)",(),id1,
2025/07/05/17:49:32.633401,20587,1751712572,633262691,,0.0,0.0,0.009999999776482582,nan,nan,nan,-0.009999999776482582,2,0,0,True,(),(),,
2025/07/05/17:49:32.691775,20588,1751712572,691183822,,11.834000587463379,0.0,-0.26999998092651367,nan,nan,nan,0.7099999785423279,2,0,0,True,"(11.834000587463379,)",(),id1,
2025/07/05/17:49:32.731211,20589,1751712572,730573913,,0.0,0.0,0.009999999776482582,nan,nan,nan,-0.009999999776482582,2,0,0,True,(),(),,
2025/07/05/17:49:32.792463,20590,1751712572,792041781,,11.833000183105469,0.0,-0.25999999046325684,nan,nan,nan,0.7099999785423279,2,0,0,True,"(11.833000183105469,)",(),id1,
2025/07/05/17:49:32.834495,20591,1751712572,833462162,,0.0,0.0,0.009999999776482582,nan,nan,nan,-0.009999999776482582,2,0,0,True,(),(),,
2025/07/05/17:49:32.892793,20592,1751712572,892257055,,11.834000587463379,0.0,-0.25999999046325684,nan,nan,nan,0.7099999785423279,2,0,0,True,"(11.834000587463379,)",(),id1,
2025/07/05/17:49:32.931738,20593,1751712572,931496979,,0.0,0.0,0.009999999776482582,nan,nan,nan,-0.009999999776482582,2,0,0,True,(),(),,
2025/07/05/17:49:32.992575,20594,1751712572,992198463,,11.833000183105469,0.0,-0.25999999046325684,nan,nan,nan,0.7099999785423279,2,0,0,True,"(11.833000183105469,)",(),id1,
2025/07/05/17:49:33.033622,20595,1751712573,33153357,,0.0,0.0,0.009999999776482582,nan,nan,nan,-0.009999999776482582,2,0,0,True,(),(),,
2025/07/05/17:49:33.091693,20596,1751712573,91072524,,11.833000183105469,0.0,-0.25999999046325684,nan,nan,nan,0.7099999785423279,2,0,0,True,"(11.833000183105469,)",(),id1,
2025/07/05/17:49:33.131477,20597,1751712573,130506414,,0.0,0.0,0.009999999776482582,nan,nan,nan,-0.009999999776482582,2,0,0,True,(),(),,
2025/07/05/17:49:33.192921,20598,1751712573,192278051,,11.833000183105469,0.0,-0.25999999046325684,nan,nan,nan,0.7099999785423279,2,0,0,True,"(11.833000183105469,)",(),id1,
2025/07/05/17:49:33.234016,20599,1751712573,233408325,,0.0,0.0,0.009999999776482582,nan,nan,nan,-0.009999999776482582,2,0,0,True,(),(),,
2025/07/05/17:49:33.292808,20600,1751712573,292328349,,11.833000183105469,0.0,-0.25999999046325684,nan,nan,nan,0.7099999785423279,2,0,0,True,"(11.833000183105469,)",(),id1,
2025/07/05/17:49:33.331318,20601,1751712573,330517974,,0.0,0.0,0.009999999776482582,nan,nan,nan,-0.009999999776482582,2,0,0,True,(),(),,
2025/07/05/17:49:33.434594,20602,1751712573,434182853,,11.750000953674316,0.0,-4.319999694824219,nan,nan,nan,0.7099999785423279,2,0,0,True,"(11.750000953674316,)",(),id1,
2025/07/05/17:49:33.492833,20603,1751712573,492537518,,0.0,0.0,0.009999999776482582,nan,nan,nan,-0.009999999776482582,2,0,0,True,(),(),,
2025/07/05/17:49:33.551579,20604,1751712573,551354678,,11.695000648498535,0.0,-8.079999923706055,nan,nan,nan,0.7099999785423279,2,0,0,True,"(11.695000648498535,)",(),id1,
2025/07/05/17:49:33.592914,20605,1751712573,592349788,,0.0,0.0,0.009999999776482582,nan,nan,nan,-0.009999999776482582,2,0,0,True,(),(),,
2025/07/05/17:49:33.630785,20606,1751712573,630227210,,11.702000617980957,0.0,-7.440000057220459,nan,nan,nan,0.7099999785423279,2,0,0,True,"(11.702000617980957,)",(),id1,
2025/07/05/17:49:33.671834,20607,1751712573,671068119,,0.0,0.0,0.009999999776482582,nan,nan,nan,-0.009999999776482582,2,0,0,True,(),(),,
2025/07/05/17:49:33.712759,20608,1751712573,712350726,,11.71500015258789,0.0,-6.849999904632568,nan,nan,nan,0.7099999785423279,2,0,0,True,"(11.71500015258789,)",(),id1,
2025/07/05/17:49:33.772017,20609,1751712573,771258490,,0.0,0.0,0.009999999776482582,nan,nan,nan,-0.009999999776482582,2,0,0,True,(),(),,
2025/07/05/17:49:33.812631,20610,1751712573,811912615,,11.714000701904297,0.0,-6.569999694824219,nan,nan,nan,0.7099999785423279,2,0,0,True,"(11.714000701904297,)",(),id1,
2025/07/05/17:49:33.851381,20611,1751712573,850507937,,0.0,0.0,0.009999999776482582,nan,nan,nan,-0.009999999776482582,2,0,0,True,(),(),,
2025/07/05/17:49:33.912860,20612,1751712573,912342303,,11.717000961303711,0.0,-6.659999847412109,nan,nan,nan,0.7099999785423279,2,0,0,True,"(11.717000961303711,)",(),id1,
2025/07/05/17:49:33.951386,20613,1751712573,950779138,,0.0,0.0,0.009999999776482582,nan,nan,nan,-0.009999999776482582,2,0,0,True,(),(),,
2025/07/05/17:49:34.011542,20614,1751712574,11013778,,11.7160005569458,0.0,-6.639999866485596,nan,nan,nan,0.7099999785423279,2,0,0,True,"(11.7160005569458,)",(),id1,
2025/07/05/17:49:34.050922,20615,1751712574,50496794,,0.0,0.0,0.009999999776482582,nan,nan,nan,-0.009999999776482582,2,0,0,True,(),(),,
2025/07/05/17:49:34.111616,20616,1751712574,111112532,,11.717000961303711,0.0,-6.599999904632568,nan,nan,nan,0.7099999785423279,2,0,0,True,"(11.717000961303711,)",(),id1,
2025/07/05/17:49:34.151621,20617,1751712574,150498853,,0.0,0.0,0.009999999776482582,nan,nan,nan,-0.009999999776482582,2,0,0,True,(),(),,
2025/07/05/17:49:34.212875,20618,1751712574,212196031,,11.7160005569458,0.0,-6.460000038146973,nan,nan,nan,0.7099999785423279,2,0,0,True,"(11.7160005569458,)",(),id1,
2025/07/05/17:49:34.251211,20619,1751712574,250675762,,0.0,0.0,0.009999999776482582,nan,nan,nan,-0.009999999776482582,2,0,0,True,(),(),,
2025/07/05/17:49:34.292872,20620,1751712574,292219731,,11.7160005569458,0.0,-6.460000038146973,nan,nan,nan,0.7099999785423279,2,0,0,True,"(11.7160005569458,)",(),id1,
2025/07/05/17:49:34.352189,20621,1751712574,351181725,,0.0,0.0,0.009999999776482582,nan,nan,nan,-0.009999999776482582,2,0,0,True,(),(),,
2025/07/05/17:49:34.513092,20622,1751712574,512413651,,11.722000122070312,0.0,-6.079999923706055,nan,nan,nan,0.7099999785423279,2,0,0,True,"(11.722000122070312,)",(),id1,
2025/07/05/17:49:34.551982,20623,1751712574,551260491,,0.0,0.0,0.009999999776482582,nan,nan,nan,-0.009999999776482582,2,0,0,True,(),(),,
2025/07/05/17:49:34.612735,20624,1751712574,612172742,,11.720000267028809,0.0,-6.099999904632568,nan,nan,nan,0.7099999785423279,2,0,0,True,"(11.720000267028809,)",(),id1,
2025/07/05/17:49:34.651139,20625,1751712574,650411455,,0.0,0.0,0.009999999776482582,nan,nan,nan,-0.009999999776482582,2,0,0,True,(),(),,
2025/07/05/17:49:34.711627,20626,1751712574,711007695,,11.723000526428223,0.0,-6.079999923706055,nan,nan,nan,0.7099999785423279,2,0,0,True,"(11.723000526428223,)",(),id1,
2025/07/05/17:49:34.751204,20627,1751712574,750426404,,0.0,0.0,0.009999999776482582,nan,nan,nan,-0.009999999776482582,2,0,0,True,(),(),,
2025/07/05/17:49:34.793117,20628,1751712574,792294893,,11.723000526428223,0.0,-6.079999923706055,nan,nan,nan,0.7099999785423279,2,0,0,True,"(11.723000526428223,)",(),id1,
2025/07/05/17:49:34.851551,20629,1751712574,850500475,,0.0,0.0,0.009999999776482582,nan,nan,nan,-0.009999999776482582,2,0,0,True,(),(),,
2025/07/05/17:49:34.931469,20630,1751712574,931034951,,11.717000961303711,0.0,-6.150000095367432,nan,nan,nan,0.7099999785423279,2,0,0,True,"(11.717000961303711,)",(),id1,
2025/07/05/17:49:34.971959,20631,1751712574,971180972,,0.0,0.0,0.009999999776482582,nan,nan,nan,-0.009999999776482582,2,0,0,True,(),(),,
2025/07/05/17:49:35.012784,20632,1751712575,12687829,,11.604000091552734,0.0,-5.859999656677246,nan,nan,nan,0.7099999785423279,2,0,0,True,"(11.604000091552734,)",(),id1,
2025/07/05/17:49:35.051217,20633,1751712575,50606574,,0.0,0.0,0.009999999776482582,nan,nan,nan,-0.009999999776482582,2,0,0,True,(),(),,
2025/07/05/17:49:35.111505,20634,1751712575,111123254,,11.550000190734863,0.0,-5.829999923706055,nan,nan,nan,0.7099999785423279,2,0,0,True,"(11.550000190734863,)",(),id1,
2025/07/05/17:49:35.151200,20635,1751712575,150350960,,0.0,0.0,0.009999999776482582,nan,nan,nan,-0.009999999776482582,2,0,0,True,(),(),,
2025/07/05/17:49:35.212805,20636,1751712575,212427848,,11.690000534057617,0.0,-6.190000057220459,nan,nan,nan,0.7099999785423279,2,0,0,True,"(11.690000534057617,)",(),id1,
2025/07/05/17:49:35.251312,20637,1751712575,250568667,,0.0,0.0,0.009999999776482582,nan,nan,nan,-0.009999999776482582,2,0,0,True,(),(),,
2025/07/05/17:49:35.292545,20638,1751712575,292300867,,11.690000534057617,0.0,-6.190000057220459,nan,nan,nan,0.7099999785423279,2,0,0,True,"(11.690000534057617,)",(),id1,
2025/07/05/17:49:35.331220,20639,1751712575,330137535,,0.0,0.0,0.009999999776482582,nan,nan,nan,-0.009999999776482582,2,0,0,True,(),(),,
2025/07/05/17:49:35.412899,20640,1751712575,412330443,,11.584000587463379,0.0,-6.0,nan,nan,nan,0.7099999785423279,2,0,0,True,"(11.584000587463379,)",(),id1,
2025/07/05/17:49:35.471827,20641,1751712575,471436731,,0.0,0.0,0.009999999776482582,nan,nan,nan,-0.009999999776482582,2,0,0,True,(),(),,
2025/07/05/17:49:35.551893,20642,1751712575,551202543,,11.604000091552734,0.0,-5.989999771118164,nan,nan,nan,0.7099999785423279,2,0,0,True,"(11.604000091552734,)",(),id1,
2025/07/05/17:49:35.592174,20643,1751712575,591504260,,0.0,0.0,0.009999999776482582,nan,nan,nan,-0.009999999776482582,2,0,0,True,(),(),,
2025/07/05/17:49:35.634494,20644,1751712575,634153495,,11.640000343322754,0.0,-6.019999980926514,nan,nan,nan,0.7099999785423279,2,0,0,True,"(11.640000343322754,)",(),id1,
2025/07/05/17:49:35.671992,20645,1751712575,671101689,,0.0,0.0,0.009999999776482582,nan,nan,nan,-0.009999999776482582,2,0,0,True,(),(),,
2025/07/05/17:49:35.711906,20646,1751712575,711232147,,11.682000160217285,0.0,-6.019999980926514,nan,nan,nan,0.7099999785423279,2,0,0,True,"(11.682000160217285,)",(),id1,
2025/07/05/17:49:35.751242,20647,1751712575,750415981,,0.0,0.0,0.009999999776482582,nan,nan,nan,-0.009999999776482582,2,0,0,True,(),(),,
2025/07/05/17:49:35.812648,20648,1751712575,812245816,,11.682000160217285,0.0,-6.009999752044678,nan,nan,nan,0.7099999785423279,2,0,0,True,"(11.682000160217285,)",(),id1,
2025/07/05/17:49:35.850995,20649,1751712575,850396582,,0.0,0.0,0.009999999776482582,nan,nan,nan,-0.009999999776482582,2,0,0,True,(),(),,
2025/07/05/17:49:35.931485,20650,1751712575,931037714,,11.527000427246094,0.0,-5.589999675750732,nan,nan,nan,0.7099999785423279,2,0,0,True,"(11.527000427246094,)",(),id1,
2025/07/05/17:49:35.972050,20651,1751712575,971338728,,0.0,0.0,0.009999999776482582,nan,nan,nan,-0.009999999776482582,2,0,0,True,(),(),,
2025/07/05/17:49:36.012920,20652,1751712576,12266835,,11.595000267028809,0.0,-5.609999656677246,nan,nan,nan,0.7099999785423279,2,0,0,True,"(11.595000267028809,)",(),id1,
2025/07/05/17:49:36.051092,20653,1751712576,50489305,,0.0,0.0,0.009999999776482582,nan,nan,nan,-0.009999999776482582,2,0,0,True,(),(),,
2025/07/05/17:49:36.092779,20654,1751712576,92433632,,11.595000267028809,0.0,-5.609999656677246,nan,nan,nan,0.7099999785423279,2,0,0,True,"(11.595000267028809,)",(),id1,
2025/07/05/17:49:36.131090,20655,1751712576,130516112,,0.0,0.0,0.009999999776482582,nan,nan,nan,-0.009999999776482582,2,0,0,True,(),(),,
2025/07/05/17:49:36.192825,20656,1751712576,192219384,,11.634000778198242,0.0,-4.900000095367432,nan,nan,nan,0.7099999785423279,2,0,0,True,"(11.634000778198242,)",(),id1,
2025/07/05/17:49:36.231553,20657,1751712576,230521526,,0.0,0.0,0.009999999776482582,nan,nan,nan,-0.009999999776482582,2,0,0,True,(),(),,
2025/07/05/17:49:36.292788,20658,1751712576,292275480,,11.68600082397461,0.0,-5.019999980926514,nan,nan,nan,0.7099999785423279,2,0,0,True,"(11.68600082397461,)",(),id1,
2025/07/05/17:49:36.331199,20659,1751712576,330484033,,0.0,0.0,0.009999999776482582,nan,nan,nan,-0.009999999776482582,2,0,0,True,(),(),,
2025/07/05/17:49:36.434620,20660,1751712576,434204020,,11.691000938415527,0.0,-6.029999732971191,nan,nan,nan,0.7099999785423279,2,0,0,True,"(11.691000938415527,)",(),id1,
2025/07/05/17:49:36.493121,20661,1751712576,492328826,,0.0,0.0,0.009999999776482582,nan,nan,nan,-0.009999999776482582,2,0,0,True,(),(),,
2025/07/05/17:49:36.571858,20662,1751712576,571122195,,11.695000648498535,0.0,-6.170000076293945,nan,nan,nan,0.7099999785423279,2,0,0,True,"(11.695000648498535,)",(),id1,
2025/07/05/17:49:36.633922,20663,1751712576,633521496,,0.0,0.0,0.009999999776482582,nan,nan,nan,-0.009999999776482582,2,0,0,True,(),(),,
2025/07/05/17:49:36.672124,20664,1751712576,671406039,,11.695000648498535,0.0,-6.170000076293945,nan,nan,nan,0.7099999785423279,2,0,0,True,"(11.695000648498535,)",(),id1,
2025/07/05/17:49:36.711779,20665,1751712576,711371593,,0.0,0.0,0.009999999776482582,nan,nan,nan,-0.009999999776482582,2,0,0,True,(),(),,
2025/07/05/17:49:36.751760,20666,1751712576,751312405,,11.699000358581543,0.0,-6.109999656677246,nan,nan,nan,0.7099999785423279,2,0,0,True,"(11.699000358581543,)",(),id1,
2025/07/05/17:49:36.812360,20667,1751712576,811897348,,0.0,0.0,0.009999999776482582,nan,nan,nan,-0.009999999776482582,2,0,0,True,(),(),,
2025/07/05/17:49:36.850691,20668,1751712576,850243765,,11.705000877380371,0.0,-5.960000038146973,nan,nan,nan,0.7099999785423279,2,0,0,True,"(11.705000877380371,)",(),id1,
2025/07/05/17:49:36.892865,20669,1751712576,892377719,,0.0,0.0,0.009999999776482582,nan,nan,nan,-0.009999999776482582,2,0,0,True,(),(),,
2025/07/05/17:49:36.971761,20670,1751712576,971181047,,11.697000503540039,0.0,-5.920000076293945,nan,nan,nan,0.7099999785423279,2,0,0,True,"(11.697000503540039,)",(),id1,
2025/07/05/17:49:37.012196,20671,1751712577,11547975,,0.0,0.0,0.009999999776482582,nan,nan,nan,-0.009999999776482582,2,0,0,True,(),(),,
2025/07/05/17:49:37.071023,20672,1751712577,70666636,,11.695000648498535,0.0,-6.159999847412109,nan,nan,nan,0.7099999785423279,2,0,0,True,"(11.695000648498535,)",(),id1,
2025/07/05/17:49:37.111957,20673,1751712577,111133652,,0.0,0.0,0.009999999776482582,nan,nan,nan,-0.009999999776482582,2,0,0,True,(),(),,
2025/07/05/17:49:37.171854,20674,1751712577,171278062,,11.702000617980957,0.0,-5.960000038146973,nan,nan,nan,0.7099999785423279,2,0,0,True,"(11.702000617980957,)",(),id1,
2025/07/05/17:49:37.212203,20675,1751712577,211352565,,0.0,0.0,0.009999999776482582,nan,nan,nan,-0.009999999776482582,2,0,0,True,(),(),,
2025/07/05/17:49:37.251682,20676,1751712577,251222360,,11.702000617980957,0.0,-6.059999942779541,nan,nan,nan,0.7099999785423279,2,0,0,True,"(11.702000617980957,)",(),id1,
2025/07/05/17:49:37.292377,20677,1751712577,291324352,,0.0,0.0,0.009999999776482582,nan,nan,nan,-0.009999999776482582,2,0,0,True,(),(),,
2025/07/05/17:49:37.331692,20678,1751712577,331189507,,11.702000617980957,0.0,-6.049999713897705,nan,nan,nan,0.7099999785423279,2,0,0,True,"(11.702000617980957,)",(),id1,
2025/07/05/17:49:37.392862,20679,1751712577,392283422,,0.0,0.0,0.009999999776482582,nan,nan,nan,-0.009999999776482582,2,0,0,True,(),(),,
2025/07/05/17:49:37.511872,20680,1751712577,511359998,,11.688000679016113,0.0,-5.87999963760376,nan,nan,nan,0.7099999785423279,2,0,0,True,"(11.688000679016113,)",(),id1,
2025/07/05/17:49:37.551023,20681,1751712577,550491128,,0.0,0.0,0.009999999776482582,nan,nan,nan,-0.009999999776482582,2,0,0,True,(),(),,
2025/07/05/17:49:37.592961,20682,1751712577,592318640,,11.688000679016113,0.0,-5.87999963760376,nan,nan,nan,0.7099999785423279,2,0,0,True,"(11.688000679016113,)",(),id1,
2025/07/05/17:49:37.631527,20683,1751712577,630365844,,0.0,0.0,0.009999999776482582,nan,nan,nan,-0.009999999776482582,2,0,0,True,(),(),,
2025/07/05/17:49:37.692782,20684,1751712577,692276143,,11.510000228881836,0.0,-5.659999847412109,nan,nan,nan,0.7099999785423279,2,0,0,True,"(11.510000228881836,)",(),id1,
2025/07/05/17:49:37.731010,20685,1751712577,730359243,,0.0,0.0,0.009999999776482582,nan,nan,nan,-0.009999999776482582,2,0,0,True,(),(),,
2025/07/05/17:49:37.792234,20686,1751712577,792143262,,11.607000350952148,0.0,-5.789999961853027,nan,nan,nan,0.7099999785423279,2,0,0,True,"(11.607000350952148,)",(),id1,
2025/07/05/17:49:37.831012,20687,1751712577,830445758,,0.0,0.0,0.009999999776482582,nan,nan,nan,-0.009999999776482582,2,0,0,True,(),(),,
2025/07/05/17:49:37.871741,20688,1751712577,871313672,,11.610000610351562,0.0,-5.579999923706055,nan,nan,nan,0.7099999785423279,2,0,0,True,"(11.610000610351562,)",(),id1,
2025/07/05/17:49:37.951963,20689,1751712577,951407632,,0.0,0.0,0.009999999776482582,nan,nan,nan,-0.009999999776482582,2,0,0,True,(),(),,
2025/07/05/17:49:37.992240,20690,1751712577,991860020,,11.636000633239746,0.0,-5.519999980926514,nan,nan,nan,0.7099999785423279,2,0,0,True,"(11.636000633239746,)",(),id1,
2025/07/05/17:49:38.034146,20691,1751712578,33531778,,0.0,0.0,0.009999999776482582,nan,nan,nan,-0.009999999776482582,2,0,0,True,(),(),,
2025/07/05/17:49:38.071791,20692,1751712578,71447603,,11.61500072479248,0.0,-5.440000057220459,nan,nan,nan,0.7099999785423279,2,0,0,True,"(11.61500072479248,)",(),id1,
2025/07/05/17:49:38.131085,20693,1751712578,130335808,,0.0,0.0,0.009999999776482582,nan,nan,nan,-0.009999999776482582,2,0,0,True,(),(),,
2025/07/05/17:49:38.171090,20694,1751712578,170785300,,11.624000549316406,0.0,-5.559999942779541,nan,nan,nan,0.7099999785423279,2,0,0,True,"(11.624000549316406,)",(),id1,
2025/07/05/17:49:38.230996,20695,1751712578,230419239,,0.0,0.0,0.009999999776482582,nan,nan,nan,-0.009999999776482582,2,0,0,True,(),(),,
2025/07/05/17:49:38.291785,20696,1751712578,291069935,,11.648000717163086,0.0,-5.599999904632568,nan,nan,nan,0.7099999785423279,2,0,0,True,"(11.648000717163086,)",(),id1,
2025/07/05/17:49:38.330922,20697,1751712578,330300387,,0.0,0.0,0.009999999776482582,nan,nan,nan,-0.009999999776482582,2,0,0,True,(),(),,
2025/07/05/17:49:38.412955,20698,1751712578,412278683,,11.695000648498535,0.0,-5.71999979019165,nan,nan,nan,0.7099999785423279,2,0,0,True,"(11.695000648498535,)",(),id1,
2025/07/05/17:49:38.511978,20699,1751712578,511149692,,0.0,0.0,0.009999999776482582,nan,nan,nan,-0.009999999776482582,2,0,0,True,(),(),,
2025/07/05/17:49:38.570950,20700,1751712578,570420773,,11.707000732421875,0.0,-5.71999979019165,nan,nan,nan,0.7099999785423279,2,0,0,True,"(11.707000732421875,)",(),id1,
2025/07/05/17:49:38.614756,20701,1751712578,614199264,,0.0,0.0,0.009999999776482582,nan,nan,nan,-0.009999999776482582,2,0,0,True,(),(),,
2025/07/05/17:49:38.651690,20702,1751712578,651269225,,11.708000183105469,0.0,-5.779999732971191,nan,nan,nan,0.7099999785423279,2,0,0,True,"(11.708000183105469,)",(),id1,
2025/07/05/17:49:38.692195,20703,1751712578,691490384,,0.0,0.0,0.009999999776482582,nan,nan,nan,-0.009999999776482582,2,0,0,True,(),(),,
2025/07/05/17:49:38.730940,20704,1751712578,730281975,,11.711000442504883,0.0,-5.679999828338623,nan,nan,nan,0.7099999785423279,2,0,0,True,"(11.711000442504883,)",(),id1,
2025/07/05/17:49:38.793135,20705,1751712578,792102205,,0.0,0.0,0.009999999776482582,nan,nan,nan,-0.009999999776482582,2,0,0,True,(),(),,
2025/07/05/17:49:38.830610,20706,1751712578,830198982,,11.687000274658203,0.0,-5.690000057220459,nan,nan,nan,0.7099999785423279,2,0,0,True,"(11.687000274658203,)",(),id1,
2025/07/05/17:49:38.872230,20707,1751712578,871521603,,0.0,0.0,0.009999999776482582,nan,nan,nan,-0.009999999776482582,2,0,0,True,(),(),,
2025/07/05/17:49:38.950571,20708,1751712578,950146726,,11.499000549316406,0.0,-5.259999752044678,nan,nan,nan,0.7099999785423279,2,0,0,True,"(11.499000549316406,)",(),id1,
2025/07/05/17:49:38.993253,20709,1751712578,991882591,,0.0,0.0,0.009999999776482582,nan,nan,nan,-0.009999999776482582,2,0,0,True,(),(),,
2025/07/05/17:49:39.033668,20710,1751712579,33174884,,11.640000343322754,0.0,-4.849999904632568,nan,nan,nan,0.7099999785423279,2,0,0,True,"(11.640000343322754,)",(),id1,
2025/07/05/17:49:39.071947,20711,1751712579,71224765,,0.0,0.0,0.009999999776482582,nan,nan,nan,-0.009999999776482582,2,0,0,True,(),(),,
2025/07/05/17:49:39.131112,20712,1751712579,130338415,,11.645000457763672,0.0,-5.130000114440918,nan,nan,nan,0.7099999785423279,2,0,0,True,"(11.645000457763672,)",(),id1,
2025/07/05/17:49:39.171959,20713,1751712579,171183448,,0.0,0.0,0.009999999776482582,nan,nan,nan,-0.009999999776482582,2,0,0,True,(),(),,
2025/07/05/17:49:39.215854,20714,1751712579,215363547,,11.680000305175781,0.0,-5.690000057220459,nan,nan,nan,0.7099999785423279,2,0,0,True,"(11.680000305175781,)",(),id1,
2025/07/05/17:49:39.272286,20715,1751712579,271300177,,0.0,0.0,0.009999999776482582,nan,nan,nan,-0.009999999776482582,2,0,0,True,(),(),,
2025/07/05/17:49:39.330081,20716,1751712579,329920718,,11.682000160217285,0.0,-5.659999847412109,nan,nan,nan,0.7099999785423279,2,0,0,True,"(11.682000160217285,)",(),id1,
2025/07/05/17:49:39.371690,20717,1751712579,370785219,,0.0,0.0,0.009999999776482582,nan,nan,nan,-0.009999999776482582,2,0,0,True,(),(),,
2025/07/05/17:49:39.492840,20718,1751712579,492246529,,11.68600082397461,0.0,-5.929999828338623,nan,nan,nan,0.7099999785423279,2,0,0,True,"(11.68600082397461,)",(),id1,
2025/07/05/17:49:39.531986,20719,1751712579,530456851,,0.0,0.0,0.009999999776482582,nan,nan,nan,-0.009999999776482582,2,0,0,True,(),(),,
2025/07/05/17:49:39.592645,20720,1751712579,592317136,,11.690000534057617,0.0,-5.929999828338623,nan,nan,nan,0.7099999785423279,2,0,0,True,"(11.690000534057617,)",(),id1,
2025/07/05/17:49:39.633778,20721,1751712579,633153171,,0.0,0.0,0.009999999776482582,nan,nan,nan,-0.009999999776482582,2,0,0,True,(),(),,
2025/07/05/17:49:39.691545,20722,1751712579,691160957,,11.684000968933105,0.0,-6.190000057220459,nan,nan,nan,0.7099999785423279,2,0,0,True,"(11.684000968933105,)",(),id1,
2025/07/05/17:49:39.731086,20723,1751712579,730360255,,0.0,0.0,0.009999999776482582,nan,nan,nan,-0.009999999776482582,2,0,0,True,(),(),,
2025/07/05/17:49:39.791680,20724,1751712579,791102361,,11.688000679016113,0.0,-6.139999866485596,nan,nan,nan,0.7099999785423279,2,0,0,True,"(11.688000679016113,)",(),id1,
2025/07/05/17:49:39.833845,20725,1751712579,833105019,,0.0,0.0,0.009999999776482582,nan,nan,nan,-0.009999999776482582,2,0,0,True,(),(),,
2025/07/05/17:49:39.893003,20726,1751712579,892480946,,11.567000389099121,0.0,-5.739999771118164,nan,nan,nan,0.7099999785423279,2,0,0,True,"(11.567000389099121,)",(),id1,
2025/07/05/17:49:39.930969,20727,1751712579,930451716,,0.0,0.0,0.009999999776482582,nan,nan,nan,-0.009999999776482582,2,0,0,True,(),(),,
2025/07/05/17:49:39.991488,20728,1751712579,990984504,,11.596000671386719,0.0,-5.389999866485596,nan,nan,nan,0.7099999785423279,2,0,0,True,"(11.596000671386719,)",(),id1,
2025/07/05/17:49:40.034015,20729,1751712580,33291339,,0.0,0.0,0.009999999776482582,nan,nan,nan,-0.009999999776482582,2,0,0,True,(),(),,
2025/07/05/17:49:40.091712,20730,1751712580,91141044,,11.521000862121582,0.0,-5.460000038146973,nan,nan,nan,0.7099999785423279,2,0,0,True,"(11.521000862121582,)",(),id1,
2025/07/05/17:49:40.130694,20731,1751712580,130238293,,0.0,0.0,0.009999999776482582,nan,nan,nan,-0.009999999776482582,2,0,0,True,(),(),,
2025/07/05/17:49:40.191794,20732,1751712580,191365935,,11.604000091552734,0.0,-5.589999675750732,nan,nan,nan,0.7099999785423279,2,0,0,True,"(11.604000091552734,)",(),id1,
2025/07/05/17:49:40.233742,20733,1751712580,233307363,,0.0,0.0,0.009999999776482582,nan,nan,nan,-0.009999999776482582,2,0,0,True,(),(),,
2025/07/05/17:49:40.291382,20734,1751712580,291012084,,11.587000846862793,0.0,-5.489999771118164,nan,nan,nan,0.7099999785423279,2,0,0,True,"(11.587000846862793,)",(),id1,
2025/07/05/17:49:40.331103,20735,1751712580,330450776,,0.0,0.0,0.009999999776482582,nan,nan,nan,-0.009999999776482582,2,0,0,True,(),(),,
2025/07/05/17:49:40.450355,20736,1751712580,450095119,,11.617000579833984,0.0,-5.650000095367432,nan,nan,nan,0.7099999785423279,2,0,0,True,"(11.617000579833984,)",(),id1,
2025/07/05/17:49:40.511838,20737,1751712580,511210148,,0.0,0.0,0.009999999776482582,nan,nan,nan,-0.009999999776482582,2,0,0,True,(),(),,
2025/07/05/17:49:40.551620,20738,1751712580,551348163,,11.655000686645508,0.0,-5.699999809265137,nan,nan,nan,0.7099999785423279,2,0,0,True,"(11.655000686645508,)",(),id1,
2025/07/05/17:49:40.593199,20739,1751712580,591516740,,0.0,0.0,0.009999999776482582,nan,nan,nan,-0.009999999776482582,2,0,0,True,(),(),,
2025/07/05/17:49:40.634123,20740,1751712580,633773444,,11.669000625610352,0.0,-6.019999980926514,nan,nan,nan,0.7099999785423279,2,0,0,True,"(11.669000625610352,)",(),id1,
2025/07/05/17:49:40.672564,20741,1751712580,671129738,,0.0,0.0,0.009999999776482582,nan,nan,nan,-0.009999999776482582,2,0,0,True,(),(),,
2025/07/05/17:49:40.730390,20742,1751712580,730023120,,11.670001029968262,0.0,-6.0,nan,nan,nan,0.7099999785423279,2,0,0,True,"(11.670001029968262,)",(),id1,
2025/07/05/17:49:40.773183,20743,1751712580,772949107,,0.0,0.0,0.009999999776482582,nan,nan,nan,-0.009999999776482582,2,0,0,True,(),(),,
2025/07/05/17:49:40.813057,20744,1751712580,812252891,,11.690000534057617,0.0,-5.960000038146973,nan,nan,nan,0.7099999785423279,2,0,0,True,"(11.690000534057617,)",(),id1,
2025/07/05/17:49:40.873493,20745,1751712580,871183496,,0.0,0.0,0.009999999776482582,nan,nan,nan,-0.009999999776482582,2,0,0,True,(),(),,
2025/07/05/17:49:40.971503,20746,1751712580,971018829,,11.687000274658203,0.0,-5.779999732971191,nan,nan,nan,0.7099999785423279,2,0,0,True,"(11.687000274658203,)",(),id1,
2025/07/05/17:49:41.012577,20747,1751712581,11286817,,0.0,0.0,0.009999999776482582,nan,nan,nan,-0.009999999776482582,2,0,0,True,(),(),,
2025/07/05/17:49:41.051209,20748,1751712581,50237439,,11.679000854492188,0.0,-6.199999809265137,nan,nan,nan,0.7099999785423279,2,0,0,True,"(11.679000854492188,)",(),id1,
2025/07/05/17:49:41.092351,20749,1751712581,91386565,,0.0,0.0,0.009999999776482582,nan,nan,nan,-0.009999999776482582,2,0,0,True,(),(),,
2025/07/05/17:49:41.130502,20750,1751712581,130111213,,11.706000328063965,0.0,-5.389999866485596,nan,nan,nan,0.7099999785423279,2,0,0,True,"(11.706000328063965,)",(),id1,
2025/07/05/17:49:41.173172,20751,1751712581,172347679,,0.0,0.0,0.009999999776482582,nan,nan,nan,-0.009999999776482582,2,0,0,True,(),(),,
2025/07/05/17:49:41.211699,20752,1751712581,211251388,,11.706000328063965,0.0,-5.279999732971191,nan,nan,nan,0.7099999785423279,2,0,0,True,"(11.706000328063965,)",(),id1,
2025/07/05/17:49:41.251811,20753,1751712581,250908538,,0.0,0.0,0.009999999776482582,nan,nan,nan,-0.009999999776482582,2,0,0,True,(),(),,
2025/07/05/17:49:41.291921,20754,1751712581,291188537,,11.706000328063965,0.0,-5.279999732971191,nan,nan,nan,0.7099999785423279,2,0,0,True,"(11.706000328063965,)",(),id1,
2025/07/05/17:49:41.330858,20755,1751712581,330186918,,0.0,0.0,0.009999999776482582,nan,nan,nan,-0.009999999776482582,2,0,0,True,(),(),,
2025/07/05/17:49:41.414659,20756,1751712581,414165145,,11.702000617980957,0.0,-5.679999828338623,nan,nan,nan,0.7099999785423279,2,0,0,True,"(11.702000617980957,)",(),id1,
2025/07/05/17:49:41.471350,20757,1751712581,470434697,,0.0,0.0,0.009999999776482582,nan,nan,nan,-0.009999999776482582,2,0,0,True,(),(),,
2025/07/05/17:49:41.531018,20758,1751712581,530849447,,11.694000244140625,0.0,-5.859999656677246,nan,nan,nan,0.7099999785423279,2,0,0,True,"(11.694000244140625,)",(),id1,
2025/07/05/17:49:41.592007,20759,1751712581,591233645,,0.0,0.0,0.009999999776482582,nan,nan,nan,-0.009999999776482582,2,0,0,True,(),(),,
2025/07/05/17:49:41.633467,20760,1751712581,633015639,,11.5600004196167,0.0,-5.309999942779541,nan,nan,nan,0.7099999785423279,2,0,0,True,"(11.5600004196167,)",(),id1,
2025/07/05/17:49:41.671607,20761,1751712581,671181208,,0.0,0.0,0.009999999776482582,nan,nan,nan,-0.009999999776482582,2,0,0,True,(),(),,
2025/07/05/17:49:41.730602,20762,1751712581,730104316,,11.568000793457031,0.0,-4.989999771118164,nan,nan,nan,0.7099999785423279,2,0,0,True,"(11.568000793457031,)",(),id1,
2025/07/05/17:49:41.774216,20763,1751712581,770301066,,0.0,0.0,0.009999999776482582,nan,nan,nan,-0.009999999776482582,2,0,0,True,(),(),,
2025/07/05/17:49:41.833457,20764,1751712581,833132058,,11.578001022338867,0.0,-5.259999752044678,nan,nan,nan,0.7099999785423279,2,0,0,True,"(11.578001022338867,)",(),id1,
2025/07/05/17:49:41.871464,20765,1751712581,871181041,,0.0,0.0,0.009999999776482582,nan,nan,nan,-0.009999999776482582,2,0,0,True,(),(),,
2025/07/05/17:49:41.930901,20766,1751712581,930639982,,11.608000755310059,0.0,-5.139999866485596,nan,nan,nan,0.7099999785423279,2,0,0,True,"(11.608000755310059,)",(),id1,
2025/07/05/17:49:41.992922,20767,1751712581,992240344,,0.0,0.0,0.009999999776482582,nan,nan,nan,-0.009999999776482582,2,0,0,True,(),(),,
2025/07/05/17:49:42.033690,20768,1751712582,33357088,,11.611001014709473,0.0,-5.139999866485596,nan,nan,nan,0.7099999785423279,2,0,0,True,"(11.611001014709473,)",(),id1,
2025/07/05/17:49:42.092074,20769,1751712582,91813376,,0.0,0.0,0.009999999776482582,nan,nan,nan,-0.009999999776482582,2,0,0,True,(),(),,
2025/07/05/17:49:42.130849,20770,1751712582,130185536,,11.597000122070312,0.0,-5.460000038146973,nan,nan,nan,0.7099999785423279,2,0,0,True,"(11.597000122070312,)",(),id1,
2025/07/05/17:49:42.173686,20771,1751712582,171051741,,0.0,0.0,0.009999999776482582,nan,nan,nan,-0.009999999776482582,2,0,0,True,(),(),,
2025/07/05/17:49:42.211845,20772,1751712582,211253597,,11.683000564575195,0.0,-5.730000019073486,nan,nan,nan,0.7099999785423279,2,0,0,True,"(11.683000564575195,)",(),id1,
2025/07/05/17:49:42.252101,20773,1751712582,250736077,,0.0,0.0,0.009999999776482582,nan,nan,nan,-0.009999999776482582,2,0,0,True,(),(),,
2025/07/05/17:49:42.311601,20774,1751712582,311078342,,11.532000541687012,0.0,-5.099999904632568,nan,nan,nan,0.7099999785423279,2,0,0,True,"(11.532000541687012,)",(),id1,
2025/07/05/17:49:42.350983,20775,1751712582,350306025,,0.0,0.0,0.009999999776482582,nan,nan,nan,-0.009999999776482582,2,0,0,True,(),(),,
2025/07/05/17:49:42.492525,20776,1751712582,492124138,,11.567000389099121,0.0,-5.5,nan,nan,nan,0.7099999785423279,2,0,0,True,"(11.567000389099121,)",(),id1,
2025/07/05/17:49:42.531148,20777,1751712582,530367167,,0.0,0.0,0.009999999776482582,nan,nan,nan,-0.009999999776482582,2,0,0,True,(),(),,
2025/07/05/17:49:42.592513,20778,1751712582,591728201,,11.62700080871582,0.0,-5.589999675750732,nan,nan,nan,0.7099999785423279,2,0,0,True,"(11.62700080871582,)",(),id1,
2025/07/05/17:49:42.650472,20779,1751712582,650163411,,0.0,0.0,0.009999999776482582,nan,nan,nan,-0.009999999776482582,2,0,0,True,(),(),,
2025/07/05/17:49:42.711298,20780,1751712582,710988490,,11.667000770568848,0.0,-5.75,nan,nan,nan,0.7099999785423279,2,0,0,True,"(11.667000770568848,)",(),id1,
2025/07/05/17:49:42.750371,20781,1751712582,750267383,,0.0,0.0,0.009999999776482582,nan,nan,nan,-0.009999999776482582,2,0,0,True,(),(),,
2025/07/05/17:49:42.811791,20782,1751712582,811092369,,11.616000175476074,0.0,-5.869999885559082,nan,nan,nan,0.7099999785423279,2,0,0,True,"(11.616000175476074,)",(),id1,
2025/07/05/17:49:42.850796,20783,1751712582,850196787,,0.0,0.0,0.009999999776482582,nan,nan,nan,-0.009999999776482582,2,0,0,True,(),(),,
2025/07/05/17:49:42.911969,20784,1751712582,911401253,,11.52400016784668,0.0,-5.589999675750732,nan,nan,nan,0.7099999785423279,2,0,0,True,"(11.52400016784668,)",(),id1,
2025/07/05/17:49:42.971085,20785,1751712582,970477035,,0.0,0.0,0.009999999776482582,nan,nan,nan,-0.009999999776482582,2,0,0,True,(),(),,
2025/07/05/17:49:43.033649,20786,1751712583,33247297,,11.554000854492188,0.0,-5.589999675750732,nan,nan,nan,0.7099999785423279,2,0,0,True,"(11.554000854492188,)",(),id1,
2025/07/05/17:49:43.070715,20787,1751712583,70197891,,0.0,0.0,0.009999999776482582,nan,nan,nan,-0.009999999776482582,2,0,0,True,(),(),,
2025/07/05/17:49:43.130518,20788,1751712583,130138327,,11.547000885009766,0.0,-5.480000019073486,nan,nan,nan,0.7099999785423279,2,0,0,True,"(11.547000885009766,)",(),id1,
2025/07/05/17:49:43.172273,20789,1751712583,171569892,,0.0,0.0,0.009999999776482582,nan,nan,nan,-0.009999999776482582,2,0,0,True,(),(),,
2025/07/05/17:49:43.212466,20790,1751712583,211957875,,11.632000923156738,0.0,-5.659999847412109,nan,nan,nan,0.7099999785423279,2,0,0,True,"(11.632000923156738,)",(),id1,
2025/07/05/17:49:43.273350,20791,1751712583,270566173,,0.0,0.0,0.009999999776482582,nan,nan,nan,-0.009999999776482582,2,0,0,True,(),(),,
2025/07/05/17:49:43.312292,20792,1751712583,311936142,,11.680000305175781,0.0,-5.670000076293945,nan,nan,nan,0.7099999785423279,2,0,0,True,"(11.680000305175781,)",(),id1,
2025/07/05/17:49:43.350934,20793,1751712583,350347331,,0.0,0.0,0.009999999776482582,nan,nan,nan,-0.009999999776482582,2,0,0,True,(),(),,
2025/07/05/17:49:43.492555,20794,1751712583,492133688,,11.587000846862793,0.0,-5.420000076293945,nan,nan,nan,0.7099999785423279,2,0,0,True,"(11.587000846862793,)",(),id1,
2025/07/05/17:49:43.550488,20795,1751712583,550025905,,0.0,0.0,0.009999999776482582,nan,nan,nan,-0.009999999776482582,2,0,0,True,(),(),,
2025/07/05/17:49:43.611647,20796,1751712583,611075097,,11.544000625610352,0.0,-5.420000076293945,nan,nan,nan,0.7099999785423279,2,0,0,True,"(11.544000625610352,)",(),id1,
2025/07/05/17:49:43.650341,20797,1751712583,650116663,,0.0,0.0,0.009999999776482582,nan,nan,nan,-0.009999999776482582,2,0,0,True,(),(),,
2025/07/05/17:49:43.711637,20798,1751712583,711088263,,11.530000686645508,0.0,-5.480000019073486,nan,nan,nan,0.7099999785423279,2,0,0,True,"(11.530000686645508,)",(),id1,
2025/07/05/17:49:43.750453,20799,1751712583,750151500,,0.0,0.0,0.009999999776482582,nan,nan,nan,-0.009999999776482582,2,0,0,True,(),(),,
2025/07/05/17:49:43.811668,20800,1751712583,811189622,,11.643000602722168,0.0,-5.960000038146973,nan,nan,nan,0.7099999785423279,2,0,0,True,"(11.643000602722168,)",(),id1,
2025/07/05/17:49:43.850599,20801,1751712583,850170620,,0.0,0.0,0.009999999776482582,nan,nan,nan,-0.009999999776482582,2,0,0,True,(),(),,
2025/07/05/17:49:43.930506,20802,1751712583,930170015,,11.664000511169434,0.0,-5.650000095367432,nan,nan,nan,0.7099999785423279,2,0,0,True,"(11.664000511169434,)",(),id1,
2025/07/05/17:49:43.971379,20803,1751712583,971184932,,0.0,0.0,0.009999999776482582,nan,nan,nan,-0.009999999776482582,2,0,0,True,(),(),,
2025/07/05/17:49:44.015344,20804,1751712584,14255878,,11.683000564575195,0.0,-5.670000076293945,nan,nan,nan,0.7099999785423279,2,0,0,True,"(11.683000564575195,)",(),id1,
2025/07/05/17:49:44.051865,20805,1751712584,50921426,,0.0,0.0,0.009999999776482582,nan,nan,nan,-0.009999999776482582,2,0,0,True,(),(),,
2025/07/05/17:49:44.111687,20806,1751712584,111127505,,11.557000160217285,0.0,-5.400000095367432,nan,nan,nan,0.7099999785423279,2,0,0,True,"(11.557000160217285,)",(),id1,
2025/07/05/17:49:44.150615,20807,1751712584,150124958,,0.0,0.0,0.009999999776482582,nan,nan,nan,-0.009999999776482582,2,0,0,True,(),(),,
2025/07/05/17:49:44.212970,20808,1751712584,212272627,,11.538000106811523,0.0,-5.429999828338623,nan,nan,nan,0.7099999785423279,2,0,0,True,"(11.538000106811523,)",(),id1,
2025/07/05/17:49:44.250859,20809,1751712584,250178026,,0.0,0.0,0.009999999776482582,nan,nan,nan,-0.009999999776482582,2,0,0,True,(),(),,
2025/07/05/17:49:44.291894,20810,1751712584,291202904,,11.538000106811523,0.0,-5.429999828338623,nan,nan,nan,0.7099999785423279,2,0,0,True,"(11.538000106811523,)",(),id1,
2025/07/05/17:49:44.330841,20811,1751712584,330097246,,0.0,0.0,0.009999999776482582,nan,nan,nan,-0.009999999776482582,2,0,0,True,(),(),,
2025/07/05/17:49:44.413320,20812,1751712584,412954819,,11.576000213623047,0.0,-5.599999904632568,nan,nan,nan,0.7099999785423279,2,0,0,True,"(11.576000213623047,)",(),id1,
2025/07/05/17:49:44.470934,20813,1751712584,470548980,,0.0,0.0,0.009999999776482582,nan,nan,nan,-0.009999999776482582,2,0,0,True,(),(),,
2025/07/05/17:49:44.551194,20814,1751712584,550770568,,11.63700008392334,0.0,-5.639999866485596,nan,nan,nan,0.7099999785423279,2,0,0,True,"(11.63700008392334,)",(),id1,
2025/07/05/17:49:44.591809,20815,1751712584,591182387,,0.0,0.0,0.009999999776482582,nan,nan,nan,-0.009999999776482582,2,0,0,True,(),(),,
2025/07/05/17:49:44.633823,20816,1751712584,633239664,,11.644001007080078,0.0,-5.799999713897705,nan,nan,nan,0.7099999785423279,2,0,0,True,"(11.644001007080078,)",(),id1,
2025/07/05/17:49:44.670893,20817,1751712584,670344465,,0.0,0.0,0.009999999776482582,nan,nan,nan,-0.009999999776482582,2,0,0,True,(),(),,
2025/07/05/17:49:44.730629,20818,1751712584,730175921,,11.545000076293945,0.0,-5.5,nan,nan,nan,0.7099999785423279,2,0,0,True,"(11.545000076293945,)",(),id1,
2025/07/05/17:49:44.772201,20819,1751712584,771800293,,0.0,0.0,0.009999999776482582,nan,nan,nan,-0.009999999776482582,2,0,0,True,(),(),,
2025/07/05/17:49:44.812886,20820,1751712584,812285972,,11.550000190734863,0.0,-5.480000019073486,nan,nan,nan,0.7099999785423279,2,0,0,True,"(11.550000190734863,)",(),id1,
2025/07/05/17:49:44.852514,20821,1751712584,850817329,,0.0,0.0,0.009999999776482582,nan,nan,nan,-0.009999999776482582,2,0,0,True,(),(),,
2025/07/05/17:49:44.892061,20822,1751712584,891323749,,11.550000190734863,0.0,-5.480000019073486,nan,nan,nan,0.7099999785423279,2,0,0,True,"(11.550000190734863,)",(),id1,
2025/07/05/17:49:44.971347,20823,1751712584,970435446,,0.0,0.0,0.009999999776482582,nan,nan,nan,-0.009999999776482582,2,0,0,True,(),(),,
2025/07/05/17:49:45.012219,20824,1751712585,11880609,,11.620000839233398,0.0,-5.480000019073486,nan,nan,nan,0.7099999785423279,2,0,0,True,"(11.620000839233398,)",(),id1,
2025/07/05/17:49:45.052080,20825,1751712585,50353296,,0.0,0.0,0.009999999776482582,nan,nan,nan,-0.009999999776482582,2,0,0,True,(),(),,
2025/07/05/17:49:45.092042,20826,1751712585,91329977,,11.620000839233398,0.0,-5.480000019073486,nan,nan,nan,0.7099999785423279,2,0,0,True,"(11.620000839233398,)",(),id1,
2025/07/05/17:49:45.150610,20827,1751712585,150232558,,0.0,0.0,0.009999999776482582,nan,nan,nan,-0.009999999776482582,2,0,0,True,(),(),,
2025/07/05/17:49:45.211724,20828,1751712585,211147267,,11.672000885009766,0.0,-5.789999961853027,nan,nan,nan,0.7099999785423279,2,0,0,True,"(11.672000885009766,)",(),id1,
2025/07/05/17:49:45.250297,20829,1751712585,249992300,,0.0,0.0,0.009999999776482582,nan,nan,nan,-0.009999999776482582,2,0,0,True,(),(),,
2025/07/05/17:49:45.291773,20830,1751712585,291145467,,11.672000885009766,0.0,-5.789999961853027,nan,nan,nan,0.7099999785423279,2,0,0,True,"(11.672000885009766,)",(),id1,
2025/07/05/17:49:45.350695,20831,1751712585,350080542,,0.0,0.0,0.009999999776482582,nan,nan,nan,-0.009999999776482582,2,0,0,True,(),(),,
2025/07/05/17:49:45.492459,20832,1751712585,492084182,,11.517000198364258,0.0,-5.389999866485596,nan,nan,nan,0.7099999785423279,2,0,0,True,"(11.517000198364258,)",(),id1,
2025/07/05/17:49:45.531054,20833,1751712585,530360815,,0.0,0.0,0.009999999776482582,nan,nan,nan,-0.009999999776482582,2,0,0,True,(),(),,
2025/07/05/17:49:45.591808,20834,1751712585,591310642,,11.576000213623047,0.0,-5.650000095367432,nan,nan,nan,0.7099999785423279,2,0,0,True,"(11.576000213623047,)",(),id1,
2025/07/05/17:49:45.633676,20835,1751712585,633483665,,0.0,0.0,0.009999999776482582,nan,nan,nan,-0.009999999776482582,2,0,0,True,(),(),,
2025/07/05/17:49:45.691645,20836,1751712585,691086793,,11.539000511169434,0.0,-5.569999694824219,nan,nan,nan,0.7099999785423279,2,0,0,True,"(11.539000511169434,)",(),id1,
2025/07/05/17:49:45.730933,20837,1751712585,730195548,,0.0,0.0,0.009999999776482582,nan,nan,nan,-0.009999999776482582,2,0,0,True,(),(),,
2025/07/05/17:49:45.791590,20838,1751712585,791024182,,11.597000122070312,0.0,-5.690000057220459,nan,nan,nan,0.7099999785423279,2,0,0,True,"(11.597000122070312,)",(),id1,
2025/07/05/17:49:45.833752,20839,1751712585,833084130,,0.0,0.0,0.009999999776482582,nan,nan,nan,-0.009999999776482582,2,0,0,True,(),(),,
2025/07/05/17:49:45.891670,20840,1751712585,891249472,,11.670001029968262,0.0,-5.87999963760376,nan,nan,nan,0.7099999785423279,2,0,0,True,"(11.670001029968262,)",(),id1,
2025/07/05/17:49:45.930298,20841,1751712585,929953419,,0.0,0.0,0.009999999776482582,nan,nan,nan,-0.009999999776482582,2,0,0,True,(),(),,
2025/07/05/17:49:45.991374,20842,1751712585,990920789,,11.630000114440918,0.0,-5.839999675750732,nan,nan,nan,0.7099999785423279,2,0,0,True,"(11.630000114440918,)",(),id1,
2025/07/05/17:49:46.033526,20843,1751712586,33034263,,0.0,0.0,0.009999999776482582,nan,nan,nan,-0.009999999776482582,2,0,0,True,(),(),,
2025/07/05/17:49:46.091752,20844,1751712586,91137609,,11.56100082397461,0.0,-5.539999961853027,nan,nan,nan,0.7099999785423279,2,0,0,True,"(11.56100082397461,)",(),id1,
2025/07/05/17:49:46.131994,20845,1751712586,131159688,,0.0,0.0,0.009999999776482582,nan,nan,nan,-0.009999999776482582,2,0,0,True,(),(),,
2025/07/05/17:49:46.191509,20846,1751712586,191006223,,11.52500057220459,0.0,-5.619999885559082,nan,nan,nan,0.7099999785423279,2,0,0,True,"(11.52500057220459,)",(),id1,
2025/07/05/17:49:46.233949,20847,1751712586,232998809,,0.0,0.0,0.009999999776482582,nan,nan,nan,-0.009999999776482582,2,0,0,True,(),(),,
2025/07/05/17:49:46.291758,20848,1751712586,291154663,,11.530000686645508,0.0,-5.369999885559082,nan,nan,nan,0.7099999785423279,2,0,0,True,"(11.530000686645508,)",(),id1,
2025/07/05/17:49:46.331164,20849,1751712586,330360586,,0.0,0.0,0.009999999776482582,nan,nan,nan,-0.009999999776482582,2,0,0,True,(),(),,
2025/07/05/17:49:46.450783,20850,1751712586,450291574,,11.648000717163086,0.0,-5.789999961853027,nan,nan,nan,0.7099999785423279,2,0,0,True,"(11.648000717163086,)",(),id1,
2025/07/05/17:49:46.492705,20851,1751712586,492325387,,0.0,0.0,0.009999999776482582,nan,nan,nan,-0.009999999776482582,2,0,0,True,(),(),,
2025/07/05/17:49:46.551237,20852,1751712586,550697391,,11.657000541687012,0.0,-5.900000095367432,nan,nan,nan,0.7099999785423279,2,0,0,True,"(11.657000541687012,)",(),id1,
2025/07/05/17:49:46.614083,20853,1751712586,613661718,,0.0,0.0,0.009999999776482582,nan,nan,nan,-0.009999999776482582,2,0,0,True,(),(),,
2025/07/05/17:49:46.671687,20854,1751712586,670654796,,11.664000511169434,0.0,-5.920000076293945,nan,nan,nan,0.7099999785423279,2,0,0,True,"(11.664000511169434,)",(),id1,
2025/07/05/17:49:46.711438,20855,1751712586,710675051,,0.0,0.0,0.009999999776482582,nan,nan,nan,-0.009999999776482582,2,0,0,True,(),(),,
2025/07/05/17:49:46.752032,20856,1751712586,751056699,,11.601000785827637,0.0,-5.799999713897705,nan,nan,nan,0.7099999785423279,2,0,0,True,"(11.601000785827637,)",(),id1,
2025/07/05/17:49:46.792015,20857,1751712586,791177186,,0.0,0.0,0.009999999776482582,nan,nan,nan,-0.009999999776482582,2,0,0,True,(),(),,
2025/07/05/17:49:46.833462,20858,1751712586,833098668,,11.53700065612793,0.0,-5.679999828338623,nan,nan,nan,0.7099999785423279,2,0,0,True,"(11.53700065612793,)",(),id1,
2025/07/05/17:49:46.892923,20859,1751712586,892463983,,0.0,0.0,0.009999999776482582,nan,nan,nan,-0.009999999776482582,2,0,0,True,(),(),,
2025/07/05/17:49:46.950479,20860,1751712586,950119776,,11.585000991821289,0.0,-5.869999885559082,nan,nan,nan,0.7099999785423279,2,0,0,True,"(11.585000991821289,)",(),id1,
2025/07/05/17:49:46.991718,20861,1751712586,991011098,,0.0,0.0,0.009999999776482582,nan,nan,nan,-0.009999999776482582,2,0,0,True,(),(),,
2025/07/05/17:49:47.033336,20862,1751712587,32913892,,11.54900074005127,0.0,-5.769999980926514,nan,nan,nan,0.7099999785423279,2,0,0,True,"(11.54900074005127,)",(),id1,
2025/07/05/17:49:47.070922,20863,1751712587,70336748,,0.0,0.0,0.009999999776482582,nan,nan,nan,-0.009999999776482582,2,0,0,True,(),(),,
2025/07/05/17:49:47.130678,20864,1751712587,130217311,,11.59000015258789,0.0,-5.900000095367432,nan,nan,nan,0.7099999785423279,2,0,0,True,"(11.59000015258789,)",(),id1,
2025/07/05/17:49:47.173389,20865,1751712587,170207790,,0.0,0.0,0.009999999776482582,nan,nan,nan,-0.009999999776482582,2,0,0,True,(),(),,
2025/07/05/17:49:47.212139,20866,1751712587,211875406,,11.605000495910645,0.0,-5.769999980926514,nan,nan,nan,0.7099999785423279,2,0,0,True,"(11.605000495910645,)",(),id1,
2025/07/05/17:49:47.251497,20867,1751712587,250362121,,0.0,0.0,0.009999999776482582,nan,nan,nan,-0.009999999776482582,2,0,0,True,(),(),,
2025/07/05/17:49:47.311592,20868,1751712587,311076820,,11.658000946044922,0.0,-5.799999713897705,nan,nan,nan,0.7099999785423279,2,0,0,True,"(11.658000946044922,)",(),id1,
2025/07/05/17:49:47.350439,20869,1751712587,350159825,,0.0,0.0,0.009999999776482582,nan,nan,nan,-0.009999999776482582,2,0,0,True,(),(),,
2025/07/05/17:49:47.511771,20870,1751712587,511166520,,11.645000457763672,0.0,-8.059999465942383,nan,nan,nan,0.7099999785423279,2,0,0,True,"(11.645000457763672,)",(),id1,
2025/07/05/17:49:47.571090,20871,1751712587,570078071,,0.0,0.0,0.009999999776482582,nan,nan,nan,-0.009999999776482582,2,0,0,True,(),(),,
2025/07/05/17:49:47.611780,20872,1751712587,611322600,,11.597000122070312,0.0,-10.789999961853027,nan,nan,nan,0.7099999785423279,2,0,0,True,"(11.597000122070312,)",(),id1,
2025/07/05/17:49:47.651113,20873,1751712587,650434535,,0.0,0.0,0.009999999776482582,nan,nan,nan,-0.009999999776482582,2,0,0,True,(),(),,
2025/07/05/17:49:47.692044,20874,1751712587,691755675,,11.597000122070312,0.0,-10.789999961853027,nan,nan,nan,0.7099999785423279,2,0,0,True,"(11.597000122070312,)",(),id1,
2025/07/05/17:49:47.750204,20875,1751712587,749851713,,0.0,0.0,0.009999999776482582,nan,nan,nan,-0.009999999776482582,2,0,0,True,(),(),,
2025/07/05/17:49:47.792346,20876,1751712587,791849153,,11.567000389099121,0.0,-12.579999923706055,nan,nan,nan,0.7099999785423279,2,0,0,True,"(11.567000389099121,)",(),id1,
2025/07/05/17:49:47.851965,20877,1751712587,850236586,,0.0,0.0,0.009999999776482582,nan,nan,nan,-0.009999999776482582,2,0,0,True,(),(),,
2025/07/05/17:49:47.930444,20878,1751712587,929975622,,11.568000793457031,0.0,-12.920000076293945,nan,nan,nan,0.7099999785423279,2,0,0,True,"(11.568000793457031,)",(),id1,
2025/07/05/17:49:47.970883,20879,1751712587,970477191,,0.0,0.0,0.009999999776482582,nan,nan,nan,-0.009999999776482582,2,0,0,True,(),(),,
2025/07/05/17:49:48.033478,20880,1751712588,33080866,,11.510000228881836,0.0,-16.420000076293945,nan,nan,nan,0.7099999785423279,2,0,0,True,"(11.510000228881836,)",(),id1,
2025/07/05/17:49:48.073591,20881,1751712588,70950859,,0.0,0.0,0.009999999776482582,nan,nan,nan,-0.009999999776482582,2,0,0,True,(),(),,
2025/07/05/17:49:48.129530,20882,1751712588,129053947,,11.494000434875488,0.0,-17.56999969482422,nan,nan,nan,0.7099999785423279,2,0,0,True,"(11.494000434875488,)",(),id1,
2025/07/05/17:49:48.173032,20883,1751712588,170314079,,0.0,0.0,0.009999999776482582,nan,nan,nan,-0.009999999776482582,2,0,0,True,(),(),,
2025/07/05/17:49:48.212084,20884,1751712588,211204494,,11.46500015258789,0.0,-17.020000457763672,nan,nan,nan,0.7099999785423279,2,0,0,True,"(11.46500015258789,)",(),id1,
2025/07/05/17:49:48.251537,20885,1751712588,250919262,,0.0,0.0,0.009999999776482582,nan,nan,nan,-0.009999999776482582,2,0,0,True,(),(),,
2025/07/05/17:49:48.310516,20886,1751712588,309945169,,11.500000953674316,0.0,-15.969999313354492,nan,nan,nan,0.7099999785423279,2,0,0,True,"(11.500000953674316,)",(),id1,
2025/07/05/17:49:48.350429,20887,1751712588,349988827,,0.0,0.0,0.009999999776482582,nan,nan,nan,-0.009999999776482582,2,0,0,True,(),(),,
2025/07/05/17:49:48.492462,20888,1751712588,492041676,,11.378000259399414,0.0,-15.399999618530273,nan,nan,nan,0.7099999785423279,2,0,0,True,"(11.378000259399414,)",(),id1,
2025/07/05/17:49:48.530446,20889,1751712588,529928861,,0.0,0.0,0.009999999776482582,nan,nan,nan,-0.009999999776482582,2,0,0,True,(),(),,
2025/07/05/17:49:48.591770,20890,1751712588,591207404,,11.41100025177002,0.0,-15.859999656677246,nan,nan,nan,0.7099999785423279,2,0,0,True,"(11.41100025177002,)",(),id1,
2025/07/05/17:49:48.634364,20891,1751712588,632975221,,0.0,0.0,0.009999999776482582,nan,nan,nan,-0.009999999776482582,2,0,0,True,(),(),,
2025/07/05/17:49:48.691780,20892,1751712588,691110126,,11.317000389099121,0.0,-16.760000228881836,nan,nan,nan,0.7099999785423279,2,0,0,True,"(11.317000389099121,)",(),id1,
2025/07/05/17:49:48.730686,20893,1751712588,729936750,,0.0,0.0,0.009999999776482582,nan,nan,nan,-0.009999999776482582,2,0,0,True,(),(),,
2025/07/05/17:49:48.791790,20894,1751712588,791185256,,11.442000389099121,0.0,-16.219999313354492,nan,nan,nan,0.7099999785423279,2,0,0,True,"(11.442000389099121,)",(),id1,
2025/07/05/17:49:48.833735,20895,1751712588,832944572,,0.0,0.0,0.009999999776482582,nan,nan,nan,-0.009999999776482582,2,0,0,True,(),(),,
2025/07/05/17:49:48.892964,20896,1751712588,892246872,,11.447000503540039,0.0,-17.209999084472656,nan,nan,nan,0.7099999785423279,2,0,0,True,"(11.447000503540039,)",(),id1,
2025/07/05/17:49:48.931068,20897,1751712588,930425723,,0.0,0.0,0.009999999776482582,nan,nan,nan,-0.009999999776482582,2,0,0,True,(),(),,
2025/07/05/17:49:48.993106,20898,1751712588,992693351,,11.440000534057617,0.0,-18.35999870300293,nan,nan,nan,0.7099999785423279,2,0,0,True,"(11.440000534057617,)",(),id1,
2025/07/05/17:49:49.033865,20899,1751712589,32920780,,0.0,0.0,0.009999999776482582,nan,nan,nan,-0.009999999776482582,2,0,0,True,(),(),,
2025/07/05/17:49:49.091614,20900,1751712589,91085913,,11.452000617980957,0.0,-18.489999771118164,nan,nan,nan,0.7099999785423279,2,0,0,True,"(11.452000617980957,)",(),id1,
2025/07/05/17:49:49.132401,20901,1751712589,130798042,,0.0,0.0,0.009999999776482582,nan,nan,nan,-0.009999999776482582,2,0,0,True,(),(),,
2025/07/05/17:49:49.192858,20902,1751712589,192387630,,11.447000503540039,0.0,-18.709999084472656,nan,nan,nan,0.7099999785423279,2,0,0,True,"(11.447000503540039,)",(),id1,
2025/07/05/17:49:49.230432,20903,1751712589,230025971,,0.0,0.0,0.009999999776482582,nan,nan,nan,-0.009999999776482582,2,0,0,True,(),(),,
2025/07/05/17:49:49.291700,20904,1751712589,291105207,,11.446000099182129,0.0,-18.920000076293945,nan,nan,nan,0.7099999785423279,2,0,0,True,"(11.446000099182129,)",(),id1,
2025/07/05/17:49:49.331079,20905,1751712589,330050581,,0.0,0.0,0.009999999776482582,nan,nan,nan,-0.009999999776482582,2,0,0,True,(),(),,
2025/07/05/17:49:49.450742,20906,1751712589,450221781,,11.312000274658203,0.0,-18.459999084472656,nan,nan,nan,0.7099999785423279,2,0,0,True,"(11.312000274658203,)",(),id1,
2025/07/05/17:49:49.512608,20907,1751712589,512126159,,0.0,0.0,0.009999999776482582,nan,nan,nan,-0.009999999776482582,2,0,0,True,(),(),,
2025/07/05/17:49:49.571209,20908,1751712589,570376343,,11.282000541687012,0.0,-18.15999984741211,nan,nan,nan,0.7099999785423279,2,0,0,True,"(11.282000541687012,)",(),id1,
2025/07/05/17:49:49.611611,20909,1751712589,611142506,,0.0,0.0,0.009999999776482582,nan,nan,nan,-0.009999999776482582,2,0,0,True,(),(),,
2025/07/05/17:49:49.651855,20910,1751712589,650739529,,11.31100082397461,0.0,-17.520000457763672,nan,nan,nan,0.7099999785423279,2,0,0,True,"(11.31100082397461,)",(),id1,
2025/07/05/17:49:49.692096,20911,1751712589,691290089,,0.0,0.0,0.009999999776482582,nan,nan,nan,-0.009999999776482582,2,0,0,True,(),(),,
2025/07/05/17:49:49.751207,20912,1751712589,750281555,,11.431000709533691,0.0,-18.279998779296875,nan,nan,nan,0.7099999785423279,2,0,0,True,"(11.431000709533691,)",(),id1,
2025/07/05/17:49:49.791938,20913,1751712589,791210220,,0.0,0.0,0.009999999776482582,nan,nan,nan,-0.009999999776482582,2,0,0,True,(),(),,
2025/07/05/17:49:49.833584,20914,1751712589,833116029,,11.416000366210938,0.0,-18.389999389648438,nan,nan,nan,0.7099999785423279,2,0,0,True,"(11.416000366210938,)",(),id1,
2025/07/05/17:49:49.873331,20915,1751712589,870545740,,0.0,0.0,0.009999999776482582,nan,nan,nan,-0.009999999776482582,2,0,0,True,(),(),,
2025/07/05/17:49:49.950469,20916,1751712589,950015653,,11.437000274658203,0.0,-18.15999984741211,nan,nan,nan,0.7099999785423279,2,0,0,True,"(11.437000274658203,)",(),id1,
2025/07/05/17:49:49.991498,20917,1751712589,990704599,,0.0,0.0,0.009999999776482582,nan,nan,nan,-0.009999999776482582,2,0,0,True,(),(),,
2025/07/05/17:49:50.033748,20918,1751712590,33205066,,11.459000587463379,0.0,-17.020000457763672,nan,nan,nan,0.7099999785423279,2,0,0,True,"(11.459000587463379,)",(),id1,
2025/07/05/17:49:50.070299,20919,1751712590,70128443,,0.0,0.0,0.009999999776482582,nan,nan,nan,-0.009999999776482582,2,0,0,True,(),(),,
2025/07/05/17:49:50.130557,20920,1751712590,130078790,,11.45300006866455,0.0,-17.10999870300293,nan,nan,nan,0.7099999785423279,2,0,0,True,"(11.45300006866455,)",(),id1,
2025/07/05/17:49:50.171537,20921,1751712590,170849446,,0.0,0.0,0.009999999776482582,nan,nan,nan,-0.009999999776482582,2,0,0,True,(),(),,
2025/07/05/17:49:50.212290,20922,1751712590,211965659,,11.38800048828125,0.0,-17.139999389648438,nan,nan,nan,0.7099999785423279,2,0,0,True,"(11.38800048828125,)",(),id1,
2025/07/05/17:49:50.251611,20923,1751712590,250517229,,0.0,0.0,0.009999999776482582,nan,nan,nan,-0.009999999776482582,2,0,0,True,(),(),,
2025/07/05/17:49:50.292197,20924,1751712590,291325570,,11.38800048828125,0.0,-17.139999389648438,nan,nan,nan,0.7099999785423279,2,0,0,True,"(11.38800048828125,)",(),id1,
2025/07/05/17:49:50.330168,20925,1751712590,329755284,,0.0,0.0,0.009999999776482582,nan,nan,nan,-0.009999999776482582,2,0,0,True,(),(),,
2025/07/05/17:49:50.412351,20926,1751712590,412060116,,11.333000183105469,0.0,-17.90999984741211,nan,nan,nan,0.7099999785423279,2,0,0,True,"(11.333000183105469,)",(),id1,
2025/07/05/17:49:50.472024,20927,1751712590,471614184,,0.0,0.0,0.009999999776482582,nan,nan,nan,-0.009999999776482582,2,0,0,True,(),(),,
2025/07/05/17:49:50.551643,20928,1751712590,550740145,,11.375000953674316,0.0,-17.139999389648438,nan,nan,nan,0.7099999785423279,2,0,0,True,"(11.375000953674316,)",(),id1,
2025/07/05/17:49:50.591693,20929,1751712590,591045766,,0.0,0.0,0.009999999776482582,nan,nan,nan,-0.009999999776482582,2,0,0,True,(),(),,
2025/07/05/17:49:50.633683,20930,1751712590,633312907,,11.427000999450684,0.0,-16.59000015258789,nan,nan,nan,0.7099999785423279,2,0,0,True,"(11.427000999450684,)",(),id1,
2025/07/05/17:49:50.672243,20931,1751712590,671261102,,0.0,0.0,0.009999999776482582,nan,nan,nan,-0.009999999776482582,2,0,0,True,(),(),,
2025/07/05/17:49:50.711681,20932,1751712590,710967263,,11.437000274658203,0.0,-16.979999542236328,nan,nan,nan,0.7099999785423279,2,0,0,True,"(11.437000274658203,)",(),id1,
2025/07/05/17:49:50.772154,20933,1751712590,771952582,,0.0,0.0,0.009999999776482582,nan,nan,nan,-0.009999999776482582,2,0,0,True,(),(),,
2025/07/05/17:49:50.834126,20934,1751712590,833936779,,11.45300006866455,0.0,-16.899999618530273,nan,nan,nan,0.7099999785423279,2,0,0,True,"(11.45300006866455,)",(),id1,
2025/07/05/17:49:50.871845,20935,1751712590,871360429,,0.0,0.0,0.009999999776482582,nan,nan,nan,-0.009999999776482582,2,0,0,True,(),(),,
2025/07/05/17:49:50.950385,20936,1751712590,950048814,,11.46500015258789,0.0,-16.399999618530273,nan,nan,nan,0.7099999785423279,2,0,0,True,"(11.46500015258789,)",(),id1,
2025/07/05/17:49:50.992076,20937,1751712590,991286866,,0.0,0.0,0.009999999776482582,nan,nan,nan,-0.009999999776482582,2,0,0,True,(),(),,
2025/07/05/17:49:51.033528,20938,1751712591,33148086,,11.473000526428223,0.0,-15.6899995803833,nan,nan,nan,0.7099999785423279,2,0,0,True,"(11.473000526428223,)",(),id1,
2025/07/05/17:49:51.071539,20939,1751712591,71288965,,0.0,0.0,0.009999999776482582,nan,nan,nan,-0.009999999776482582,2,0,0,True,(),(),,
2025/07/05/17:49:51.129494,20940,1751712591,129066775,,11.476000785827637,0.0,-15.869999885559082,nan,nan,nan,0.7099999785423279,2,0,0,True,"(11.476000785827637,)",(),id1,
2025/07/05/17:49:51.172163,20941,1751712591,170081682,,0.0,0.0,0.009999999776482582,nan,nan,nan,-0.009999999776482582,2,0,0,True,(),(),,
2025/07/05/17:49:51.211958,20942,1751712591,211486336,,11.461000442504883,0.0,-16.690000534057617,nan,nan,nan,0.7099999785423279,2,0,0,True,"(11.461000442504883,)",(),id1,
2025/07/05/17:49:51.250713,20943,1751712591,250002791,,0.0,0.0,0.009999999776482582,nan,nan,nan,-0.009999999776482582,2,0,0,True,(),(),,
2025/07/05/17:49:51.291782,20944,1751712591,291259191,,11.461000442504883,0.0,-16.690000534057617,nan,nan,nan,0.7099999785423279,2,0,0,True,"(11.461000442504883,)",(),id1,
2025/07/05/17:49:51.330680,20945,1751712591,330285274,,0.0,0.0,0.009999999776482582,nan,nan,nan,-0.009999999776482582,2,0,0,True,(),(),,
2025/07/05/17:49:51.433597,20946,1751712591,433215259,,11.456000328063965,0.0,-16.85999870300293,nan,nan,nan,0.7099999785423279,2,0,0,True,"(11.456000328063965,)",(),id1,
