time,.header.seq,.header.stamp.secs,.header.stamp.nsecs,.header.frame_id,.twist.linear.x,.twist.linear.y,.twist.linear.z,.twist.angular.x,.twist.angular.y,.twist.angular.z
2025/07/05/17:49:30.951217,10278,1751712570,787147008,map,0.013801282564563894,-0.2696470370680403,0.0,0.0,0.0,0.0
2025/07/05/17:49:31.051607,10279,1751712570,987147008,map,0.01277896533755916,-0.24967318247040762,0.0,0.0,0.0,0.0
2025/07/05/17:49:31.151063,10280,1751712570,987147008,map,0.01277896533755916,-0.24967318247040762,0.0,0.0,0.0,0.0
2025/07/05/17:49:31.250904,10281,1751712571,187147008,map,0.008689696429540228,-0.16977776407987719,0.0,0.0,0.0,0.0
2025/07/05/17:49:31.350991,10282,1751712571,187147008,map,0.008689696429540228,-0.16977776407987719,0.0,0.0,0.0,0.0
2025/07/05/17:49:31.531553,10283,1751712571,387147008,map,0.010734330883549694,-0.2097254732751424,0.0,0.0,0.0,0.0
2025/07/05/17:49:31.611972,10284,1751712571,587147008,map,0.013290123951061526,-0.25966010976922393,0.0,0.0,0.0,0.0
2025/07/05/17:49:31.692895,10285,1751712571,587147008,map,0.013290123951061526,-0.25966010976922393,0.0,0.0,0.0,0.0
2025/07/05/17:49:31.792839,10286,1751712571,787147008,map,0.01277896533755916,-0.24967318247040762,0.0,0.0,0.0,0.0
2025/07/05/17:49:31.871550,10287,1751712571,787147008,map,0.01277896533755916,-0.24967318247040762,0.0,0.0,0.0,0.0
2025/07/05/17:49:31.992999,10288,1751712571,787147008,map,0.01277896533755916,-0.24967318247040762,0.0,0.0,0.0,0.0
2025/07/05/17:49:32.071626,10289,1751712571,987147008,map,0.013801282564563894,-0.2696470370680403,0.0,0.0,0.0,0.0
2025/07/05/17:49:32.171633,10290,1751712571,987147008,map,0.013801282564563894,-0.2696470370680403,0.0,0.0,0.0,0.0
2025/07/05/17:49:32.291881,10291,1751712572,187147008,map,0.015334758405070991,-0.2996078189644891,0.0,0.0,0.0,0.0
2025/07/05/17:49:32.412996,10292,1751712572,387147008,map,0.015845917018573356,-0.30959474626330546,0.0,0.0,0.0,0.0
2025/07/05/17:49:32.531296,10293,1751712572,387147008,map,0.015845917018573356,-0.30959474626330546,0.0,0.0,0.0,0.0
2025/07/05/17:49:32.652909,10294,1751712572,587147008,map,0.010223172270047327,-0.19973854597632612,0.0,0.0,0.0,0.0
2025/07/05/17:49:32.751346,10295,1751712572,587147008,map,0.010223172270047327,-0.19973854597632612,0.0,0.0,0.0,0.0
2025/07/05/17:49:32.853630,10296,1751712572,787147008,map,0.016868234245578092,-0.3295686008609381,0.0,0.0,0.0,0.0
2025/07/05/17:49:32.952990,10297,1751712572,787147008,map,0.016868234245578092,-0.3295686008609381,0.0,0.0,0.0,0.0
2025/07/05/17:49:33.053356,10298,1751712572,987147008,map,0.012267806724056793,-0.2396862551715913,0.0,0.0,0.0,0.0
2025/07/05/17:49:33.151718,10299,1751712572,987147008,map,0.012267806724056793,-0.2396862551715913,0.0,0.0,0.0,0.0
2025/07/05/17:49:33.251130,10300,1751712573,187147008,map,0.009712013656544961,-0.1897516186775098,0.0,0.0,0.0,0.0
2025/07/05/17:49:33.351161,10301,1751712573,187147008,map,0.009712013656544961,-0.1897516186775098,0.0,0.0,0.0,0.0
2025/07/05/17:49:33.531636,10302,1751712573,387147008,map,0.009712013656544961,-0.1897516186775098,0.0,0.0,0.0,0.0
2025/07/05/17:49:33.615078,10303,1751712573,587147008,map,0.01789055147258282,-0.34954245545857066,0.0,0.0,0.0,0.0
2025/07/05/17:49:33.692282,10304,1751712573,587147008,map,0.01789055147258282,-0.34954245545857066,0.0,0.0,0.0,0.0
2025/07/05/17:49:33.792395,10305,1751712573,587147008,map,0.01789055147258282,-0.34954245545857066,0.0,0.0,0.0,0.0
2025/07/05/17:49:33.891996,10306,1751712573,787147008,map,0.19697630312837755,-0.47042569658329414,0.0,0.0,0.0,0.0
2025/07/05/17:49:33.971320,10307,1751712573,787147008,map,0.19697630312837755,-0.47042569658329414,0.0,0.0,0.0,0.0
2025/07/05/17:49:34.072328,10308,1751712573,987147008,map,0.14676665723290877,-0.35051326412088585,0.0,0.0,0.0,0.0
2025/07/05/17:49:34.192698,10309,1751712573,987147008,map,0.14676665723290877,-0.35051326412088585,0.0,0.0,0.0,0.0
2025/07/05/17:49:34.270992,10310,1751712574,187147008,map,0.2567997740025629,-0.5200518013354368,0.0,0.0,0.0,0.0
2025/07/05/17:49:34.392407,10311,1751712574,187147008,map,0.2567997740025629,-0.5200518013354368,0.0,0.0,0.0,0.0
2025/07/05/17:49:34.572250,10312,1751712574,387147008,map,0.33342022054918896,-0.4745850361409746,0.0,0.0,0.0,0.0
2025/07/05/17:49:34.671863,10313,1751712574,587147008,map,0.346784890173361,-0.4649088512251083,0.0,0.0,0.0,0.0
2025/07/05/17:49:34.772243,10314,1751712574,587147008,map,0.346784890173361,-0.4649088512251083,0.0,0.0,0.0,0.0
2025/07/05/17:49:34.872204,10315,1751712574,787147008,map,0.34197108332230935,-0.5992960688769501,0.0,0.0,0.0,0.0
2025/07/05/17:49:34.992182,10316,1751712574,787147008,map,0.34197108332230935,-0.5992960688769501,0.0,0.0,0.0,0.0
2025/07/05/17:49:35.071721,10317,1751712574,987147008,map,0.3172515207929034,-0.43697994525445905,0.0,0.0,0.0,0.0
2025/07/05/17:49:35.171442,10318,1751712574,987147008,map,0.3172515207929034,-0.43697994525445905,0.0,0.0,0.0,0.0
2025/07/05/17:49:35.271793,10319,1751712575,187147008,map,0.5229533049739042,-0.5921316076826763,0.0,0.0,0.0,0.0
2025/07/05/17:49:35.351087,10320,1751712575,187147008,map,0.5229533049739042,-0.5921316076826763,0.0,0.0,0.0,0.0
2025/07/05/17:49:35.512010,10321,1751712575,387147008,map,0.5552857264329931,-0.518900531913182,0.0,0.0,0.0,0.0
2025/07/05/17:49:35.611992,10322,1751712575,587147008,map,0.6235087322783186,-0.4686543083901866,0.0,0.0,0.0,0.0
2025/07/05/17:49:35.692065,10323,1751712575,587147008,map,0.6235087322783186,-0.4686543083901866,0.0,0.0,0.0,0.0
2025/07/05/17:49:35.770930,10324,1751712575,587147008,map,0.6235087322783186,-0.4686543083901866,0.0,0.0,0.0,0.0
2025/07/05/17:49:35.871824,10325,1751712575,787147008,map,0.6210408903464993,-0.520007896591607,0.0,0.0,0.0,0.0
2025/07/05/17:49:35.992163,10326,1751712575,787147008,map,0.6210408903464993,-0.520007896591607,0.0,0.0,0.0,0.0
2025/07/05/17:49:36.071437,10327,1751712575,987147008,map,0.6425100894969124,-0.4596528961016887,0.0,0.0,0.0,0.0
2025/07/05/17:49:36.171486,10328,1751712575,987147008,map,0.6425100894969124,-0.4596528961016887,0.0,0.0,0.0,0.0
2025/07/05/17:49:36.251832,10329,1751712576,187147008,map,0.7094030507913961,-0.5538477331612544,0.0,0.0,0.0,0.0
2025/07/05/17:49:36.351132,10330,1751712576,187147008,map,0.7094030507913961,-0.5538477331612544,0.0,0.0,0.0,0.0
2025/07/05/17:49:36.551870,10331,1751712576,387147008,map,0.5275018701963264,-0.5046204285791231,0.0,0.0,0.0,0.0
2025/07/05/17:49:36.650754,10332,1751712576,587147008,map,0.660577277126652,-0.6965900235747986,0.0,0.0,0.0,0.0
2025/07/05/17:49:36.730857,10333,1751712576,587147008,map,0.660577277126652,-0.6965900235747986,0.0,0.0,0.0,0.0
2025/07/05/17:49:36.833668,10334,1751712576,787147008,map,0.8059744805016295,-0.6413307545877779,0.0,0.0,0.0,0.0
2025/07/05/17:49:36.912077,10335,1751712576,787147008,map,0.8059744805016295,-0.6413307545877779,0.0,0.0,0.0,0.0
2025/07/05/17:49:37.033844,10336,1751712576,987147008,map,0.7849216124261084,-0.5867691729687222,0.0,0.0,0.0,0.0
2025/07/05/17:49:37.131048,10337,1751712576,987147008,map,0.7849216124261084,-0.5867691729687222,0.0,0.0,0.0,0.0
2025/07/05/17:49:37.233556,10338,1751712577,187147008,map,0.6976801056382803,-0.5525780218182388,0.0,0.0,0.0,0.0
2025/07/05/17:49:37.311823,10339,1751712577,187147008,map,0.6976801056382803,-0.5525780218182388,0.0,0.0,0.0,0.0
2025/07/05/17:49:37.451174,10340,1751712577,387147008,map,0.6843685469348155,-0.5689812755849961,0.0,0.0,0.0,0.0
2025/07/05/17:49:37.571087,10341,1751712577,387147008,map,0.6843685469348155,-0.5689812755849961,0.0,0.0,0.0,0.0
2025/07/05/17:49:37.671626,10342,1751712577,587147008,map,0.7196173095747069,-0.47090437220359344,0.0,0.0,0.0,0.0
2025/07/05/17:49:37.751136,10343,1751712577,587147008,map,0.7196173095747069,-0.47090437220359344,0.0,0.0,0.0,0.0
2025/07/05/17:49:37.851030,10344,1751712577,787147008,map,0.8289957560446832,-0.5226528833364493,0.0,0.0,0.0,0.0
2025/07/05/17:49:37.971175,10345,1751712577,787147008,map,0.8289957560446832,-0.5226528833364493,0.0,0.0,0.0,0.0
2025/07/05/17:49:38.050750,10346,1751712577,987147008,map,0.8178222367621102,-0.42138674523223796,0.0,0.0,0.0,0.0
2025/07/05/17:49:38.151018,10347,1751712577,987147008,map,0.8178222367621102,-0.42138674523223796,0.0,0.0,0.0,0.0
2025/07/05/17:49:38.251520,10348,1751712578,187147008,map,0.7177450389605703,-0.35332995775548026,0.0,0.0,0.0,0.0
2025/07/05/17:49:38.351096,10349,1751712578,187147008,map,0.7177450389605703,-0.35332995775548026,0.0,0.0,0.0,0.0
2025/07/05/17:49:38.530854,10350,1751712578,387147008,map,0.9287465819030708,-0.2798745908498349,0.0,0.0,0.0,0.0
2025/07/05/17:49:38.630724,10351,1751712578,587147008,map,0.9173933024495304,-0.3721418125133808,0.0,0.0,0.0,0.0
2025/07/05/17:49:38.711887,10352,1751712578,587147008,map,0.9173933024495304,-0.3721418125133808,0.0,0.0,0.0,0.0
2025/07/05/17:49:38.814279,10353,1751712578,787147008,map,1.0324328170620811,-0.4834071557737381,0.0,0.0,0.0,0.0
2025/07/05/17:49:38.892181,10354,1751712578,787147008,map,1.0324328170620811,-0.4834071557737381,0.0,0.0,0.0,0.0
2025/07/05/17:49:39.011390,10355,1751712578,987147008,map,0.7575393221802955,-0.36295202899366524,0.0,0.0,0.0,0.0
2025/07/05/17:49:39.092216,10356,1751712578,987147008,map,0.7575393221802955,-0.36295202899366524,0.0,0.0,0.0,0.0
2025/07/05/17:49:39.192673,10357,1751712578,987147008,map,0.7575393221802955,-0.36295202899366524,0.0,0.0,0.0,0.0
2025/07/05/17:49:39.291883,10358,1751712579,187147008,map,0.732914499654149,-0.38953348533432713,0.0,0.0,0.0,0.0
2025/07/05/17:49:39.433802,10359,1751712579,387147008,map,1.0296343356585886,-0.5966180812151914,0.0,0.0,0.0,0.0
2025/07/05/17:49:39.551464,10360,1751712579,387147008,map,1.0296343356585886,-0.5966180812151914,0.0,0.0,0.0,0.0
2025/07/05/17:49:39.651887,10361,1751712579,587147008,map,1.0105846532753655,-0.5895919424180668,0.0,0.0,0.0,0.0
2025/07/05/17:49:39.751295,10362,1751712579,587147008,map,1.0105846532753655,-0.5895919424180668,0.0,0.0,0.0,0.0
2025/07/05/17:49:39.851308,10363,1751712579,787147008,map,0.8505918836332796,-0.5446039363585148,0.0,0.0,0.0,0.0
2025/07/05/17:49:39.951411,10364,1751712579,787147008,map,0.8505918836332796,-0.5446039363585148,0.0,0.0,0.0,0.0
2025/07/05/17:49:40.053735,10365,1751712579,987147008,map,0.92641957042693,-0.5551097004466617,0.0,0.0,0.0,0.0
2025/07/05/17:49:40.152758,10366,1751712579,987147008,map,0.92641957042693,-0.5551097004466617,0.0,0.0,0.0,0.0
2025/07/05/17:49:40.252767,10367,1751712580,187147008,map,0.8543253891109185,-0.5002280775011312,0.0,0.0,0.0,0.0
2025/07/05/17:49:40.392664,10368,1751712580,187147008,map,0.8543253891109185,-0.5002280775011312,0.0,0.0,0.0,0.0
2025/07/05/17:49:40.530708,10369,1751712580,387147008,map,0.9770939470809765,-0.35621260305850766,0.0,0.0,0.0,0.0
2025/07/05/17:49:40.611422,10370,1751712580,587147008,map,1.071407297041501,-0.470091909998699,0.0,0.0,0.0,0.0
2025/07/05/17:49:40.692863,10371,1751712580,587147008,map,1.071407297041501,-0.470091909998699,0.0,0.0,0.0,0.0
2025/07/05/17:49:40.792514,10372,1751712580,587147008,map,1.071407297041501,-0.470091909998699,0.0,0.0,0.0,0.0
2025/07/05/17:49:40.931129,10373,1751712580,787147008,map,0.912117019362081,-0.4565550820985713,0.0,0.0,0.0,0.0
2025/07/05/17:49:41.033551,10374,1751712580,987147008,map,0.8745579783284191,-0.41958115131891766,0.0,0.0,0.0,0.0
2025/07/05/17:49:41.111581,10375,1751712580,987147008,map,0.8745579783284191,-0.41958115131891766,0.0,0.0,0.0,0.0
2025/07/05/17:49:41.192086,10376,1751712580,987147008,map,0.8745579783284191,-0.41958115131891766,0.0,0.0,0.0,0.0
2025/07/05/17:49:41.272657,10377,1751712581,187147008,map,0.9836340964988348,-0.3673744196387671,0.0,0.0,0.0,0.0
2025/07/05/17:49:41.353392,10378,1751712581,187147008,map,0.9836340964988348,-0.3673744196387671,0.0,0.0,0.0,0.0
2025/07/05/17:49:41.512054,10379,1751712581,387147008,map,1.1161168573079352,-0.4407756354802953,0.0,0.0,0.0,0.0
2025/07/05/17:49:41.612367,10380,1751712581,587147008,map,0.9979237547631109,-0.38606758434177657,0.0,0.0,0.0,0.0
2025/07/05/17:49:41.692119,10381,1751712581,587147008,map,0.9979237547631109,-0.38606758434177657,0.0,0.0,0.0,0.0
2025/07/05/17:49:41.792121,10382,1751712581,587147008,map,0.9979237547631109,-0.38606758434177657,0.0,0.0,0.0,0.0
2025/07/05/17:49:41.891578,10383,1751712581,787147008,map,1.0416013495495955,-0.24488084575250404,0.0,0.0,0.0,0.0
2025/07/05/17:49:42.013122,10384,1751712581,987147008,map,1.097778956265432,-0.16426004742717806,0.0,0.0,0.0,0.0
2025/07/05/17:49:42.111779,10385,1751712581,987147008,map,1.097778956265432,-0.16426004742717806,0.0,0.0,0.0,0.0
2025/07/05/17:49:42.191568,10386,1751712581,987147008,map,1.097778956265432,-0.16426004742717806,0.0,0.0,0.0,0.0
2025/07/05/17:49:42.271745,10387,1751712582,187147008,map,0.9169978097822283,-0.0742631594708727,0.0,0.0,0.0,0.0
2025/07/05/17:49:42.371641,10388,1751712582,187147008,map,0.9169978097822283,-0.0742631594708727,0.0,0.0,0.0,0.0
2025/07/05/17:49:42.571231,10389,1751712582,387147008,map,0.9898305821065063,0.018314440387156707,0.0,0.0,0.0,0.0
2025/07/05/17:49:42.671338,10390,1751712582,587147008,map,0.9792578260324074,-0.038132796308208185,0.0,0.0,0.0,0.0
2025/07/05/17:49:42.791232,10391,1751712582,587147008,map,0.9792578260324074,-0.038132796308208185,0.0,0.0,0.0,0.0
2025/07/05/17:49:42.891708,10392,1751712582,787147008,map,0.8078864064381822,-0.05847695522511717,0.0,0.0,0.0,0.0
2025/07/05/17:49:43.011920,10393,1751712582,987147008,map,1.068454370617423,-0.057491372470366224,0.0,0.0,0.0,0.0
2025/07/05/17:49:43.092116,10394,1751712582,987147008,map,1.068454370617423,-0.057491372470366224,0.0,0.0,0.0,0.0
2025/07/05/17:49:43.192059,10395,1751712582,987147008,map,1.068454370617423,-0.057491372470366224,0.0,0.0,0.0,0.0
2025/07/05/17:49:43.292365,10396,1751712583,187147008,map,1.0199996116128145,0.0008901178055398597,0.0,0.0,0.0,0.0
2025/07/05/17:49:43.391926,10397,1751712583,187147008,map,1.0199996116128145,0.0008901178055398597,0.0,0.0,0.0,0.0
2025/07/05/17:49:43.571407,10398,1751712583,387147008,map,1.079052656506767,0.04522570602753597,0.0,0.0,0.0,0.0
2025/07/05/17:49:43.672378,10399,1751712583,587147008,map,0.9890349931219392,0.043701056969889185,0.0,0.0,0.0,0.0
2025/07/05/17:49:43.791326,10400,1751712583,587147008,map,0.9890349931219392,0.043701056969889185,0.0,0.0,0.0,0.0
2025/07/05/17:49:43.911920,10401,1751712583,787147008,map,0.959994721594187,0.003183474721016535,0.0,0.0,0.0,0.0
2025/07/05/17:49:43.992571,10402,1751712583,987147008,map,1.1497832327895015,-0.15361809006794463,0.0,0.0,0.0,0.0
2025/07/05/17:49:44.072100,10403,1751712583,987147008,map,1.1497832327895015,-0.15361809006794463,0.0,0.0,0.0,0.0
2025/07/05/17:49:44.172176,10404,1751712583,987147008,map,1.1497832327895015,-0.15361809006794463,0.0,0.0,0.0,0.0
2025/07/05/17:49:44.272038,10405,1751712584,187147008,map,1.0880589222807984,-0.16164090337890208,0.0,0.0,0.0,0.0
2025/07/05/17:49:44.351559,10406,1751712584,187147008,map,1.0880589222807984,-0.16164090337890208,0.0,0.0,0.0,0.0
2025/07/05/17:49:44.512064,10407,1751712584,387147008,map,1.086016372848088,-0.09310444621973073,0.0,0.0,0.0,0.0
2025/07/05/17:49:44.612127,10408,1751712584,587147008,map,0.9897490882445967,-0.022287716773807184,0.0,0.0,0.0,0.0
2025/07/05/17:49:44.691459,10409,1751712584,587147008,map,0.9897490882445967,-0.022287716773807184,0.0,0.0,0.0,0.0
2025/07/05/17:49:44.792374,10410,1751712584,587147008,map,0.9897490882445967,-0.022287716773807184,0.0,0.0,0.0,0.0
2025/07/05/17:49:44.876920,10411,1751712584,787147008,map,0.969989229814128,0.00457100039319221,0.0,0.0,0.0,0.0
2025/07/05/17:49:44.992432,10412,1751712584,787147008,map,0.969989229814128,0.00457100039319221,0.0,0.0,0.0,0.0
2025/07/05/17:49:45.071290,10413,1751712584,987147008,map,1.23896164209355,-0.16575297711007791,0.0,0.0,0.0,0.0
2025/07/05/17:49:45.191669,10414,1751712584,987147008,map,1.23896164209355,-0.16575297711007791,0.0,0.0,0.0,0.0
2025/07/05/17:49:45.271623,10415,1751712585,187147008,map,1.1357653800889145,-0.09816823005169915,0.0,0.0,0.0,0.0
2025/07/05/17:49:45.371327,10416,1751712585,187147008,map,1.1357653800889145,-0.09816823005169915,0.0,0.0,0.0,0.0
2025/07/05/17:49:45.552056,10417,1751712585,387147008,map,1.0779427851136045,-0.16167668979022748,0.0,0.0,0.0,0.0
2025/07/05/17:49:45.651360,10418,1751712585,587147008,map,0.9951246657324069,-0.09862504575900354,0.0,0.0,0.0,0.0
2025/07/05/17:49:45.751266,10419,1751712585,587147008,map,0.9951246657324069,-0.09862504575900354,0.0,0.0,0.0,0.0
2025/07/05/17:49:45.852989,10420,1751712585,787147008,map,1.0593281921724476,0.03773302623239031,0.0,0.0,0.0,0.0
2025/07/05/17:49:45.950838,10421,1751712585,787147008,map,1.0593281921724476,0.03773302623239031,0.0,0.0,0.0,0.0
2025/07/05/17:49:46.052443,10422,1751712585,987147008,map,1.0298643192216692,0.016717774794749604,0.0,0.0,0.0,0.0
2025/07/05/17:49:46.150865,10423,1751712585,987147008,map,1.0298643192216692,0.016717774794749604,0.0,0.0,0.0,0.0
2025/07/05/17:49:46.252592,10424,1751712586,187147008,map,1.0899441525284,-0.011033783084161152,0.0,0.0,0.0,0.0
2025/07/05/17:49:46.392079,10425,1751712586,187147008,map,1.0899441525284,-0.011033783084161152,0.0,0.0,0.0,0.0
2025/07/05/17:49:46.530964,10426,1751712586,387147008,map,1.2059829852533877,-0.0985141577608389,0.0,0.0,0.0,0.0
2025/07/05/17:49:46.630439,10427,1751712586,587147008,map,1.0670549144661667,-0.1667147549366929,0.0,0.0,0.0,0.0
2025/07/05/17:49:46.731298,10428,1751712586,587147008,map,1.0670549144661667,-0.1667147549366929,0.0,0.0,0.0,0.0
2025/07/05/17:49:46.812565,10429,1751712586,787147008,map,1.0956902635125618,-0.17765935506967584,0.0,0.0,0.0,0.0
2025/07/05/17:49:46.912408,10430,1751712586,787147008,map,1.0956902635125618,-0.17765935506967584,0.0,0.0,0.0,0.0
2025/07/05/17:49:47.012349,10431,1751712586,987147008,map,0.9670078020712508,-0.15904688218675858,0.0,0.0,0.0,0.0
2025/07/05/17:49:47.091949,10432,1751712586,987147008,map,0.9670078020712508,-0.15904688218675858,0.0,0.0,0.0,0.0
2025/07/05/17:49:47.191808,10433,1751712586,987147008,map,0.9670078020712508,-0.15904688218675858,0.0,0.0,0.0,0.0
2025/07/05/17:49:47.272108,10434,1751712587,187147008,map,1.1262485730052296,-0.09200082501632062,0.0,0.0,0.0,0.0
2025/07/05/17:49:47.412633,10435,1751712587,387147008,map,1.3098237041857268,-0.021491020291784298,0.0,0.0,0.0,0.0
2025/07/05/17:49:47.591613,10436,1751712587,387147008,map,1.3098237041857268,-0.021491020291784298,0.0,0.0,0.0,0.0
2025/07/05/17:49:47.670469,10437,1751712587,587147008,map,1.129049662155733,-0.04633422478065772,0.0,0.0,0.0,0.0
2025/07/05/17:49:47.770400,10438,1751712587,587147008,map,1.129049662155733,-0.04633422478065772,0.0,0.0,0.0,0.0
2025/07/05/17:49:47.871334,10439,1751712587,787147008,map,1.1887081394689631,-0.055434277845355186,0.0,0.0,0.0,0.0
2025/07/05/17:49:47.991982,10440,1751712587,787147008,map,1.1887081394689631,-0.055434277845355186,0.0,0.0,0.0,0.0
2025/07/05/17:49:48.091829,10441,1751712587,987147008,map,1.1496059237218907,-0.030103490554053966,0.0,0.0,0.0,0.0
2025/07/05/17:49:48.191821,10442,1751712587,987147008,map,1.1496059237218907,-0.030103490554053966,0.0,0.0,0.0,0.0
2025/07/05/17:49:48.271499,10443,1751712588,187147008,map,1.16049053311413,-0.1488681381373538,0.0,0.0,0.0,0.0
2025/07/05/17:49:48.371200,10444,1751712588,187147008,map,1.16049053311413,-0.1488681381373538,0.0,0.0,0.0,0.0
2025/07/05/17:49:48.552759,10445,1751712588,387147008,map,1.2509533377725095,-0.1507174399856164,0.0,0.0,0.0,0.0
2025/07/05/17:49:48.651965,10446,1751712588,587147008,map,1.2692519364698558,-0.23043333475762906,0.0,0.0,0.0,0.0
2025/07/05/17:49:48.751095,10447,1751712588,587147008,map,1.2692519364698558,-0.23043333475762906,0.0,0.0,0.0,0.0
2025/07/05/17:49:48.852432,10448,1751712588,787147008,map,1.3356174964086889,-0.38500117309819404,0.0,0.0,0.0,0.0
2025/07/05/17:49:48.950932,10449,1751712588,787147008,map,1.3356174964086889,-0.38500117309819404,0.0,0.0,0.0,0.0
2025/07/05/17:49:49.052555,10450,1751712588,987147008,map,1.2516814868960355,-0.31207924532357145,0.0,0.0,0.0,0.0
2025/07/05/17:49:49.150635,10451,1751712588,987147008,map,1.2516814868960355,-0.31207924532357145,0.0,0.0,0.0,0.0
2025/07/05/17:49:49.252554,10452,1751712589,187147008,map,1.2724834965849114,-0.35097827699024026,0.0,0.0,0.0,0.0
2025/07/05/17:49:49.351041,10453,1751712589,187147008,map,1.2724834965849114,-0.35097827699024026,0.0,0.0,0.0,0.0
2025/07/05/17:49:49.530468,10454,1751712589,387147008,map,1.2795547543727908,-0.32425241797400256,0.0,0.0,0.0,0.0
2025/07/05/17:49:49.633476,10455,1751712589,587147008,map,1.3086469951317505,-0.1727513882220353,0.0,0.0,0.0,0.0
2025/07/05/17:49:49.713398,10456,1751712589,587147008,map,1.3086469951317505,-0.1727513882220353,0.0,0.0,0.0,0.0
2025/07/05/17:49:49.812690,10457,1751712589,787147008,map,1.3199346802069343,-0.013131640682653841,0.0,0.0,0.0,0.0
2025/07/05/17:49:49.911801,10458,1751712589,787147008,map,1.3199346802069343,-0.013131640682653841,0.0,0.0,0.0,0.0
2025/07/05/17:49:50.012226,10459,1751712589,987147008,map,1.3197989576064366,0.023037176497214058,0.0,0.0,0.0,0.0
2025/07/05/17:49:50.091241,10460,1751712589,987147008,map,1.3197989576064366,0.023037176497214058,0.0,0.0,0.0,0.0
2025/07/05/17:49:50.192003,10461,1751712589,987147008,map,1.3197989576064366,0.023037176497214058,0.0,0.0,0.0,0.0
2025/07/05/17:49:50.272791,10462,1751712590,187147008,map,1.3493412369279174,-0.0421690209257665,0.0,0.0,0.0,0.0
2025/07/05/17:49:50.352249,10463,1751712590,187147008,map,1.3493412369279174,-0.0421690209257665,0.0,0.0,0.0,0.0
2025/07/05/17:49:50.511505,10464,1751712590,387147008,map,1.4904464888119833,-0.1690244479003869,0.0,0.0,0.0,0.0
2025/07/05/17:49:50.611821,10465,1751712590,587147008,map,1.3483479829178617,-0.24260609423782908,0.0,0.0,0.0,0.0
2025/07/05/17:49:50.691446,10466,1751712590,587147008,map,1.3483479829178617,-0.24260609423782908,0.0,0.0,0.0,0.0
2025/07/05/17:49:50.792125,10467,1751712590,587147008,map,1.3483479829178617,-0.24260609423782908,0.0,0.0,0.0,0.0
2025/07/05/17:49:50.891423,10468,1751712590,787147008,map,1.2521522569056662,-0.4177495966796936,0.0,0.0,0.0,0.0
2025/07/05/17:49:51.012346,10469,1751712590,987147008,map,1.4696551307226877,-0.5800980923434246,0.0,0.0,0.0,0.0
2025/07/05/17:49:51.091456,10470,1751712590,987147008,map,1.4696551307226877,-0.5800980923434246,0.0,0.0,0.0,0.0
2025/07/05/17:49:51.191624,10471,1751712590,987147008,map,1.4696551307226877,-0.5800980923434246,0.0,0.0,0.0,0.0
2025/07/05/17:49:51.270647,10472,1751712591,187147008,map,1.2295430255527107,-0.4221657829747529,0.0,0.0,0.0,0.0
2025/07/05/17:49:51.351545,10473,1751712591,187147008,map,1.2295430255527107,-0.4221657829747529,0.0,0.0,0.0,0.0
2025/07/05/17:49:51.530569,10474,1751712591,387147008,map,1.4259415263678852,-0.31351357766391225,0.0,0.0,0.0,0.0
2025/07/05/17:49:51.652146,10475,1751712591,587147008,map,1.4499993964289883,-0.17059235139820747,0.0,0.0,0.0,0.0
2025/07/05/17:49:51.730247,10476,1751712591,587147008,map,1.4499993964289883,-0.17059235139820747,0.0,0.0,0.0,0.0
2025/07/05/17:49:51.830012,10477,1751712591,787147008,map,1.288933486295833,-0.05244490352045067,0.0,0.0,0.0,0.0
2025/07/05/17:49:51.912792,10478,1751712591,787147008,map,1.288933486295833,-0.05244490352045067,0.0,0.0,0.0,0.0
2025/07/05/17:49:52.011601,10479,1751712591,987147008,map,1.349847928700628,-0.020262511755076824,0.0,0.0,0.0,0.0
2025/07/05/17:49:52.092009,10480,1751712591,987147008,map,1.349847928700628,-0.020262511755076824,0.0,0.0,0.0,0.0
2025/07/05/17:49:52.191414,10481,1751712591,987147008,map,1.349847928700628,-0.020262511755076824,0.0,0.0,0.0,0.0
2025/07/05/17:49:52.272982,10482,1751712592,187147008,map,1.3672362293582254,0.08697754382771657,0.0,0.0,0.0,0.0
2025/07/05/17:49:52.391546,10483,1751712592,187147008,map,1.3672362293582254,0.08697754382771657,0.0,0.0,0.0,0.0
2025/07/05/17:49:52.570366,10484,1751712592,387147008,map,1.2497029974485792,0.16075577180318198,0.0,0.0,0.0,0.0
2025/07/05/17:49:52.672043,10485,1751712592,587147008,map,1.4601689654608652,0.24146758023582915,0.0,0.0,0.0,0.0
2025/07/05/17:49:52.791635,10486,1751712592,587147008,map,1.4601689654608652,0.24146758023582915,0.0,0.0,0.0,0.0
2025/07/05/17:49:52.870217,10487,1751712592,787147008,map,1.2593243107938372,0.27964670611975234,0.0,0.0,0.0,0.0
2025/07/05/17:49:52.991852,10488,1751712592,787147008,map,1.2593243107938372,0.27964670611975234,0.0,0.0,0.0,0.0
2025/07/05/17:49:53.091590,10489,1751712592,987147008,map,1.3229658328303355,0.39263393277139996,0.0,0.0,0.0,0.0
2025/07/05/17:49:53.191992,10490,1751712592,987147008,map,1.3229658328303355,0.39263393277139996,0.0,0.0,0.0,0.0
2025/07/05/17:49:53.272812,10491,1751712593,187147008,map,1.182182043266396,0.4061349733505954,0.0,0.0,0.0,0.0
2025/07/05/17:49:53.415913,10492,1751712593,387147008,map,1.1823927981760294,0.6089723071055525,0.0,0.0,0.0,0.0
2025/07/05/17:49:53.591324,10493,1751712593,387147008,map,1.1823927981760294,0.6089723071055525,0.0,0.0,0.0,0.0
2025/07/05/17:49:53.671378,10494,1751712593,587147008,map,1.1512330265525201,0.6660048938068882,0.0,0.0,0.0,0.0
2025/07/05/17:49:53.771748,10495,1751712593,587147008,map,1.1512330265525201,0.6660048938068882,0.0,0.0,0.0,0.0
2025/07/05/17:49:53.872099,10496,1751712593,787147008,map,0.9652913884721783,0.6432826247781406,0.0,0.0,0.0,0.0
2025/07/05/17:49:53.992200,10497,1751712593,987147008,map,1.0240770418210785,0.8169248511429857,0.0,0.0,0.0,0.0
2025/07/05/17:49:54.071211,10498,1751712593,987147008,map,1.0240770418210785,0.8169248511429857,0.0,0.0,0.0,0.0
2025/07/05/17:49:54.191531,10499,1751712593,987147008,map,1.0240770418210785,0.8169248511429857,0.0,0.0,0.0,0.0
2025/07/05/17:49:54.270812,10500,1751712594,187147008,map,0.9972739181910776,0.8647801640277232,0.0,0.0,0.0,0.0
2025/07/05/17:49:54.351200,10501,1751712594,187147008,map,0.9972739181910776,0.8647801640277232,0.0,0.0,0.0,0.0
2025/07/05/17:49:54.510689,10502,1751712594,387147008,map,0.9207260282686035,1.00093135672169,0.0,0.0,0.0,0.0
2025/07/05/17:49:54.612067,10503,1751712594,587147008,map,0.8249734252838481,0.9523753711512258,0.0,0.0,0.0,0.0
2025/07/05/17:49:54.691459,10504,1751712594,587147008,map,0.8249734252838481,0.9523753711512258,0.0,0.0,0.0,0.0
2025/07/05/17:49:54.791671,10505,1751712594,587147008,map,0.8249734252838481,0.9523753711512258,0.0,0.0,0.0,0.0
2025/07/05/17:49:54.911400,10506,1751712594,787147008,map,0.7500998406644249,0.9621591495356702,0.0,0.0,0.0,0.0
2025/07/05/17:49:55.033269,10507,1751712594,987147008,map,0.6738194959507074,1.0050210380269333,0.0,0.0,0.0,0.0
2025/07/05/17:49:55.111038,10508,1751712594,987147008,map,0.6738194959507074,1.0050210380269333,0.0,0.0,0.0,0.0
2025/07/05/17:49:55.191244,10509,1751712594,987147008,map,0.6738194959507074,1.0050210380269333,0.0,0.0,0.0,0.0
2025/07/05/17:49:55.291680,10510,1751712595,187147008,map,0.5745738084680462,1.121367441395783,0.0,0.0,0.0,0.0
2025/07/05/17:49:55.450903,10511,1751712595,387147008,map,0.47532215959020296,1.0690972100807792,0.0,0.0,0.0,0.0
2025/07/05/17:49:55.592219,10512,1751712595,387147008,map,0.47532215959020296,1.0690972100807792,0.0,0.0,0.0,0.0
2025/07/05/17:49:55.670241,10513,1751712595,587147008,map,0.4223803722846194,1.2294693249970519,0.0,0.0,0.0,0.0
2025/07/05/17:49:55.791794,10514,1751712595,587147008,map,0.4223803722846194,1.2294693249970519,0.0,0.0,0.0,0.0
2025/07/05/17:49:55.870511,10515,1751712595,787147008,map,0.3749002550091779,1.2656420500260148,0.0,0.0,0.0,0.0
2025/07/05/17:49:55.991714,10516,1751712595,987147008,map,0.30376152363727027,1.2022183398857147,0.0,0.0,0.0,0.0
2025/07/05/17:49:56.091298,10517,1751712595,987147008,map,0.30376152363727027,1.2022183398857147,0.0,0.0,0.0,0.0
2025/07/05/17:49:56.171427,10518,1751712595,987147008,map,0.30376152363727027,1.2022183398857147,0.0,0.0,0.0,0.0
2025/07/05/17:49:56.271593,10519,1751712596,187147008,map,0.0947716775720002,1.4268560996576314,0.0,0.0,0.0,0.0
2025/07/05/17:49:56.412228,10520,1751712596,387147008,map,-0.09230711730222341,1.336816889516045,0.0,0.0,0.0,0.0
2025/07/05/17:49:56.530213,10521,1751712596,387147008,map,-0.09230711730222341,1.336816889516045,0.0,0.0,0.0,0.0
2025/07/05/17:49:56.630368,10522,1751712596,587147008,map,-0.1343938812251617,1.282980235502183,0.0,0.0,0.0,0.0
2025/07/05/17:49:56.712181,10523,1751712596,587147008,map,-0.1343938812251617,1.282980235502183,0.0,0.0,0.0,0.0
2025/07/05/17:49:56.814079,10524,1751712596,787147008,map,-0.22727356316804428,1.340875358668695,0.0,0.0,0.0,0.0
2025/07/05/17:49:56.891412,10525,1751712596,787147008,map,-0.22727356316804428,1.340875358668695,0.0,0.0,0.0,0.0
2025/07/05/17:49:57.013961,10526,1751712596,987147008,map,-0.2816502830246363,1.2896019223280268,0.0,0.0,0.0,0.0
2025/07/05/17:49:57.091141,10527,1751712596,987147008,map,-0.2816502830246363,1.2896019223280268,0.0,0.0,0.0,0.0
2025/07/05/17:49:57.191318,10528,1751712596,987147008,map,-0.2816502830246363,1.2896019223280268,0.0,0.0,0.0,0.0
2025/07/05/17:49:57.311071,10529,1751712597,187147008,map,-0.34920707582583554,1.22104644391324,0.0,0.0,0.0,0.0
2025/07/05/17:49:57.433965,10530,1751712597,387147008,map,-0.40812153405319024,1.2553233899844578,0.0,0.0,0.0,0.0
2025/07/05/17:49:57.591212,10531,1751712597,387147008,map,-0.40812153405319024,1.2553233899844578,0.0,0.0,0.0,0.0
2025/07/05/17:49:57.671095,10532,1751712597,587147008,map,-0.5300885308063614,1.2415740612253277,0.0,0.0,0.0,0.0
2025/07/05/17:49:57.791358,10533,1751712597,587147008,map,-0.5300885308063614,1.2415740612253277,0.0,0.0,0.0,0.0
2025/07/05/17:49:57.891108,10534,1751712597,787147008,map,-0.5014020443592576,1.0460382353969462,0.0,0.0,0.0,0.0
2025/07/05/17:49:57.970276,10535,1751712597,787147008,map,-0.5014020443592576,1.0460382353969462,0.0,0.0,0.0,0.0
2025/07/05/17:49:58.070115,10536,1751712597,987147008,map,-0.71958693646496,1.130395789477727,0.0,0.0,0.0,0.0
2025/07/05/17:49:58.150233,10537,1751712597,987147008,map,-0.71958693646496,1.130395789477727,0.0,0.0,0.0,0.0
2025/07/05/17:49:58.252483,10538,1751712598,187147008,map,-0.798041994298311,1.0007641956706759,0.0,0.0,0.0,0.0
2025/07/05/17:49:58.330037,10539,1751712598,187147008,map,-0.798041994298311,1.0007641956706759,0.0,0.0,0.0,0.0
2025/07/05/17:49:58.492135,10540,1751712598,387147008,map,-0.8434313648060551,0.9360681240494174,0.0,0.0,0.0,0.0
2025/07/05/17:49:58.591443,10541,1751712598,387147008,map,-0.8434313648060551,0.9360681240494174,0.0,0.0,0.0,0.0
2025/07/05/17:49:58.670324,10542,1751712598,587147008,map,-0.8218106987593661,0.9551058451316495,0.0,0.0,0.0,0.0
2025/07/05/17:49:58.791496,10543,1751712598,587147008,map,-0.8218106987593661,0.9551058451316495,0.0,0.0,0.0,0.0
2025/07/05/17:49:58.870428,10544,1751712598,787147008,map,-0.8222547962128306,1.0832806885129065,0.0,0.0,0.0,0.0
2025/07/05/17:49:58.991481,10545,1751712598,787147008,map,-0.8222547962128306,1.0832806885129065,0.0,0.0,0.0,0.0
2025/07/05/17:49:59.091223,10546,1751712598,987147008,map,-0.7959523273458698,1.115060488311147,0.0,0.0,0.0,0.0
2025/07/05/17:49:59.191381,10547,1751712598,987147008,map,-0.7959523273458698,1.115060488311147,0.0,0.0,0.0,0.0
2025/07/05/17:49:59.272557,10548,1751712599,187147008,map,-0.7973176512868994,1.0893964213941327,0.0,0.0,0.0,0.0
2025/07/05/17:49:59.412358,10549,1751712599,387147008,map,-0.851442175636749,1.0347203591052803,0.0,0.0,0.0,0.0
2025/07/05/17:49:59.530611,10550,1751712599,387147008,map,-0.851442175636749,1.0347203591052803,0.0,0.0,0.0,0.0
2025/07/05/17:49:59.633320,10551,1751712599,587147008,map,-0.9570000558327808,0.9803320320871163,0.0,0.0,0.0,0.0
2025/07/05/17:49:59.730090,10552,1751712599,587147008,map,-0.9570000558327808,0.9803320320871163,0.0,0.0,0.0,0.0
2025/07/05/17:49:59.832965,10553,1751712599,787147008,map,-0.9592592034599151,0.8625090031863143,0.0,0.0,0.0,0.0
2025/07/05/17:49:59.930455,10554,1751712599,787147008,map,-0.9592592034599151,0.8625090031863143,0.0,0.0,0.0,0.0
2025/07/05/17:50:00.050830,10555,1751712599,987147008,map,-1.0674914739808348,0.809976513843596,0.0,0.0,0.0,0.0
2025/07/05/17:50:00.171249,10556,1751712599,987147008,map,-1.0674914739808348,0.809976513843596,0.0,0.0,0.0,0.0
2025/07/05/17:50:00.252624,10557,1751712600,187147008,map,-1.1494313121799367,0.7636803379558155,0.0,0.0,0.0,0.0
2025/07/05/17:50:00.350944,10558,1751712600,187147008,map,-1.1494313121799367,0.7636803379558155,0.0,0.0,0.0,0.0
2025/07/05/17:50:00.530197,10559,1751712600,387147008,map,-1.1831938821131942,0.8723257633074403,0.0,0.0,0.0,0.0
2025/07/05/17:50:00.612568,10560,1751712600,587147008,map,-1.0609179223925946,0.8668063001306469,0.0,0.0,0.0,0.0
2025/07/05/17:50:00.691282,10561,1751712600,587147008,map,-1.0609179223925946,0.8668063001306469,0.0,0.0,0.0,0.0
2025/07/05/17:50:00.791888,10562,1751712600,587147008,map,-1.0609179223925946,0.8668063001306469,0.0,0.0,0.0,0.0
2025/07/05/17:50:00.892046,10563,1751712600,787147008,map,-1.0341970253294583,0.9136938835297627,0.0,0.0,0.0,0.0
2025/07/05/17:50:00.970652,10564,1751712600,787147008,map,-1.0341970253294583,0.9136938835297627,0.0,0.0,0.0,0.0
2025/07/05/17:50:01.070049,10565,1751712600,987147008,map,-1.050735869655902,0.7823388857895633,0.0,0.0,0.0,0.0
2025/07/05/17:50:01.191206,10566,1751712600,987147008,map,-1.050735869655902,0.7823388857895633,0.0,0.0,0.0,0.0
2025/07/05/17:50:01.270784,10567,1751712601,187147008,map,-1.165884201535152,0.7568447850191876,0.0,0.0,0.0,0.0
2025/07/05/17:50:01.391234,10568,1751712601,187147008,map,-1.165884201535152,0.7568447850191876,0.0,0.0,0.0,0.0
2025/07/05/17:50:01.571245,10569,1751712601,387147008,map,-1.0510626575191364,0.676585020502827,0.0,0.0,0.0,0.0
2025/07/05/17:50:01.670596,10570,1751712601,587147008,map,-1.1475131810545383,0.8020059222387916,0.0,0.0,0.0,0.0
2025/07/05/17:50:01.751385,10571,1751712601,587147008,map,-1.1475131810545383,0.8020059222387916,0.0,0.0,0.0,0.0
2025/07/05/17:50:01.850784,10572,1751712601,787147008,map,-1.0593808309025292,0.8205560645783242,0.0,0.0,0.0,0.0
2025/07/05/17:50:01.990988,10573,1751712601,787147008,map,-1.0593808309025292,0.8205560645783242,0.0,0.0,0.0,0.0
2025/07/05/17:50:02.069821,10574,1751712601,987147008,map,-1.0051329934160218,0.8401236013507463,0.0,0.0,0.0,0.0
2025/07/05/17:50:02.169780,10575,1751712601,987147008,map,-1.0051329934160218,0.8401236013507463,0.0,0.0,0.0,0.0
2025/07/05/17:50:02.251786,10576,1751712602,187147008,map,-1.0688718010139966,0.8246290517542391,0.0,0.0,0.0,0.0
2025/07/05/17:50:02.351479,10577,1751712602,187147008,map,-1.0688718010139966,0.8246290517542391,0.0,0.0,0.0,0.0
2025/07/05/17:50:02.530016,10578,1751712602,387147008,map,-1.122209240369467,0.7138252032741517,0.0,0.0,0.0,0.0
2025/07/05/17:50:02.633616,10579,1751712602,587147008,map,-1.1330042121707071,0.6575723954086237,0.0,0.0,0.0,0.0
2025/07/05/17:50:02.712410,10580,1751712602,587147008,map,-1.1330042121707071,0.6575723954086237,0.0,0.0,0.0,0.0
2025/07/05/17:50:02.811693,10581,1751712602,787147008,map,-1.1227866188421733,0.7850160562364061,0.0,0.0,0.0,0.0
2025/07/05/17:50:02.891842,10582,1751712602,787147008,map,-1.1227866188421733,0.7850160562364061,0.0,0.0,0.0,0.0
2025/07/05/17:50:02.992452,10583,1751712602,987147008,map,-1.0859529296777575,0.8993365524231156,0.0,0.0,0.0,0.0
2025/07/05/17:50:03.072823,10584,1751712602,987147008,map,-1.0859529296777575,0.8993365524231156,0.0,0.0,0.0,0.0
2025/07/05/17:50:03.191731,10585,1751712602,987147008,map,-1.0859529296777575,0.8993365524231156,0.0,0.0,0.0,0.0
2025/07/05/17:50:03.271180,10586,1751712603,187147008,map,-1.120253466290206,0.8058735454553515,0.0,0.0,0.0,0.0
2025/07/05/17:50:03.370030,10587,1751712603,187147008,map,-1.120253466290206,0.8058735454553515,0.0,0.0,0.0,0.0
2025/07/05/17:50:03.551477,10588,1751712603,387147008,map,-1.1532819059907542,0.757852786043789,0.0,0.0,0.0,0.0
2025/07/05/17:50:03.651200,10589,1751712603,587147008,map,-1.1673350896707035,0.7546050545970988,0.0,0.0,0.0,0.0
2025/07/05/17:50:03.751104,10590,1751712603,587147008,map,-1.1673350896707035,0.7546050545970988,0.0,0.0,0.0,0.0
2025/07/05/17:50:03.851670,10591,1751712603,787147008,map,-1.2157429237962472,0.844019634392087,0.0,0.0,0.0,0.0
2025/07/05/17:50:03.950328,10592,1751712603,787147008,map,-1.2157429237962472,0.844019634392087,0.0,0.0,0.0,0.0
2025/07/05/17:50:04.052300,10593,1751712603,987147008,map,-1.1030467938254844,0.795542437982613,0.0,0.0,0.0,0.0
2025/07/05/17:50:04.151152,10594,1751712603,987147008,map,-1.1030467938254844,0.795542437982613,0.0,0.0,0.0,0.0
2025/07/05/17:50:04.252164,10595,1751712604,187147008,map,-1.1789243827091802,0.8093437464104966,0.0,0.0,0.0,0.0
2025/07/05/17:50:04.351219,10596,1751712604,187147008,map,-1.1789243827091802,0.8093437464104966,0.0,0.0,0.0,0.0
2025/07/05/17:50:04.530569,10597,1751712604,387147008,map,-1.2742162869085656,0.6267159278149455,0.0,0.0,0.0,0.0
2025/07/05/17:50:04.632720,10598,1751712604,587147008,map,-1.2948295194331698,0.5323687778264863,0.0,0.0,0.0,0.0
2025/07/05/17:50:04.729639,10599,1751712604,587147008,map,-1.2948295194331698,0.5323687778264863,0.0,0.0,0.0,0.0
2025/07/05/17:50:04.811209,10600,1751712604,787147008,map,-1.2029417952685884,0.46586590044344967,0.0,0.0,0.0,0.0
2025/07/05/17:50:04.911474,10601,1751712604,787147008,map,-1.2029417952685884,0.46586590044344967,0.0,0.0,0.0,0.0
2025/07/05/17:50:04.991334,10602,1751712604,787147008,map,-1.2029417952685884,0.46586590044344967,0.0,0.0,0.0,0.0
2025/07/05/17:50:05.111057,10603,1751712604,987147008,map,-1.142286488423079,0.5076234612053221,0.0,0.0,0.0,0.0
2025/07/05/17:50:05.191626,10604,1751712604,987147008,map,-1.142286488423079,0.5076234612053221,0.0,0.0,0.0,0.0
2025/07/05/17:50:05.290996,10605,1751712605,187147008,map,-1.2432188476308925,0.6652119187862732,0.0,0.0,0.0,0.0
2025/07/05/17:50:05.414046,10606,1751712605,387147008,map,-1.0833015714596765,0.6434731581604592,0.0,0.0,0.0,0.0
2025/07/05/17:50:05.570166,10607,1751712605,387147008,map,-1.0833015714596765,0.6434731581604592,0.0,0.0,0.0,0.0
2025/07/05/17:50:05.690599,10608,1751712605,587147008,map,-1.0491448340096203,0.7156780821507156,0.0,0.0,0.0,0.0
2025/07/05/17:50:05.791690,10609,1751712605,787147008,map,-1.0072064136803611,0.757056959707224,0.0,0.0,0.0,0.0
2025/07/05/17:50:05.891478,10610,1751712605,787147008,map,-1.0072064136803611,0.757056959707224,0.0,0.0,0.0,0.0
2025/07/05/17:50:05.992207,10611,1751712605,787147008,map,-1.0072064136803611,0.757056959707224,0.0,0.0,0.0,0.0
2025/07/05/17:50:06.071081,10612,1751712605,987147008,map,-0.978379527453253,0.8253323574538619,0.0,0.0,0.0,0.0
2025/07/05/17:50:06.152480,10613,1751712605,987147008,map,-0.978379527453253,0.8253323574538619,0.0,0.0,0.0,0.0
2025/07/05/17:50:06.250391,10614,1751712606,187147008,map,-0.9245006976095153,0.899665749108812,0.0,0.0,0.0,0.0
2025/07/05/17:50:06.350023,10615,1751712606,187147008,map,-0.9245006976095153,0.899665749108812,0.0,0.0,0.0,0.0
2025/07/05/17:50:06.511189,10616,1751712606,387147008,map,-0.9066482338044147,1.0002444601892757,0.0,0.0,0.0,0.0
2025/07/05/17:50:06.612231,10617,1751712606,587147008,map,-0.820230658392405,1.0085740761258748,0.0,0.0,0.0,0.0
2025/07/05/17:50:06.710722,10618,1751712606,587147008,map,-0.820230658392405,1.0085740761258748,0.0,0.0,0.0,0.0
2025/07/05/17:50:06.811444,10619,1751712606,787147008,map,-0.8772457072080475,1.1293095099152635,0.0,0.0,0.0,0.0
2025/07/05/17:50:06.911608,10620,1751712606,787147008,map,-0.8772457072080475,1.1293095099152635,0.0,0.0,0.0,0.0
2025/07/05/17:50:07.010989,10621,1751712606,987147008,map,-0.8172177563841567,1.1243910079018085,0.0,0.0,0.0,0.0
2025/07/05/17:50:07.091156,10622,1751712606,987147008,map,-0.8172177563841567,1.1243910079018085,0.0,0.0,0.0,0.0
2025/07/05/17:50:07.191026,10623,1751712606,987147008,map,-0.8172177563841567,1.1243910079018085,0.0,0.0,0.0,0.0
2025/07/05/17:50:07.290984,10624,1751712607,187147008,map,-0.6801014063673446,1.154583074991644,0.0,0.0,0.0,0.0
2025/07/05/17:50:07.451471,10625,1751712607,387147008,map,-0.5500700303018685,1.1668431607391379,0.0,0.0,0.0,0.0
2025/07/05/17:50:07.569685,10626,1751712607,387147008,map,-0.5500700303018685,1.1668431607391379,0.0,0.0,0.0,0.0
2025/07/05/17:50:07.670212,10627,1751712607,587147008,map,-0.5549195091701491,1.2087035775335329,0.0,0.0,0.0,0.0
2025/07/05/17:50:07.751538,10628,1751712607,587147008,map,-0.5549195091701491,1.2087035775335329,0.0,0.0,0.0,0.0
2025/07/05/17:50:07.851294,10629,1751712607,787147008,map,-0.4915807854918535,1.192664383359884,0.0,0.0,0.0,0.0
2025/07/05/17:50:07.991579,10630,1751712607,787147008,map,-0.4915807854918535,1.192664383359884,0.0,0.0,0.0,0.0
2025/07/05/17:50:08.071216,10631,1751712607,987147008,map,-0.3932525309606944,1.1759899858812608,0.0,0.0,0.0,0.0
2025/07/05/17:50:08.171227,10632,1751712607,987147008,map,-0.3932525309606944,1.1759899858812608,0.0,0.0,0.0,0.0
2025/07/05/17:50:08.271548,10633,1751712608,187147008,map,-0.331432996971545,1.3293051449981153,0.0,0.0,0.0,0.0
2025/07/05/17:50:08.411772,10634,1751712608,387147008,map,-0.2558264253014515,1.3051639131225936,0.0,0.0,0.0,0.0
2025/07/05/17:50:08.570210,10635,1751712608,387147008,map,-0.2558264253014515,1.3051639131225936,0.0,0.0,0.0,0.0
2025/07/05/17:50:08.670172,10636,1751712608,587147008,map,-0.19976633407252173,1.2541903411249926,0.0,0.0,0.0,0.0
2025/07/05/17:50:08.769846,10637,1751712608,587147008,map,-0.19976633407252173,1.2541903411249926,0.0,0.0,0.0,0.0
2025/07/05/17:50:08.890551,10638,1751712608,787147008,map,-0.18070034379597966,1.287380047131388,0.0,0.0,0.0,0.0
2025/07/05/17:50:09.010791,10639,1751712608,987147008,map,-0.029777105758717993,1.1296075973419415,0.0,0.0,0.0,0.0
2025/07/05/17:50:09.090800,10640,1751712608,987147008,map,-0.029777105758717993,1.1296075973419415,0.0,0.0,0.0,0.0
2025/07/05/17:50:09.191511,10641,1751712608,987147008,map,-0.029777105758717993,1.1296075973419415,0.0,0.0,0.0,0.0
2025/07/05/17:50:09.269423,10642,1751712609,187147008,map,0.054648775874365854,1.3488934395627528,0.0,0.0,0.0,0.0
2025/07/05/17:50:09.369580,10643,1751712609,187147008,map,0.054648775874365854,1.3488934395627528,0.0,0.0,0.0,0.0
2025/07/05/17:50:09.549322,10644,1751712609,387147008,map,0.1210443450522921,1.3947574221099746,0.0,0.0,0.0,0.0
2025/07/05/17:50:09.651074,10645,1751712609,587147008,map,0.28040999200828776,1.279636759546205,0.0,0.0,0.0,0.0
2025/07/05/17:50:09.750123,10646,1751712609,587147008,map,0.28040999200828776,1.279636759546205,0.0,0.0,0.0,0.0
2025/07/05/17:50:09.851696,10647,1751712609,787147008,map,0.1617387629792214,1.4912546974108585,0.0,0.0,0.0,0.0
2025/07/05/17:50:09.970082,10648,1751712609,787147008,map,0.1617387629792214,1.4912546974108585,0.0,0.0,0.0,0.0
2025/07/05/17:50:10.069599,10649,1751712609,987147008,map,0.017786086837279662,1.2898773798757062,0.0,0.0,0.0,0.0
2025/07/05/17:50:10.149944,10650,1751712609,987147008,map,0.017786086837279662,1.2898773798757062,0.0,0.0,0.0,0.0
2025/07/05/17:50:10.251793,10651,1751712610,187147008,map,0.12140017357364895,1.4248375338459778,0.0,0.0,0.0,0.0
2025/07/05/17:50:10.350065,10652,1751712610,187147008,map,0.12140017357364895,1.4248375338459778,0.0,0.0,0.0,0.0
2025/07/05/17:50:10.511340,10653,1751712610,387147008,map,0.14650183409231163,1.3420272771473718,0.0,0.0,0.0,0.0
2025/07/05/17:50:10.590855,10654,1751712610,387147008,map,0.14650183409231163,1.3420272771473718,0.0,0.0,0.0,0.0
2025/07/05/17:50:10.690710,10655,1751712610,587147008,map,0.26868491643727255,1.3229922205663556,0.0,0.0,0.0,0.0
2025/07/05/17:50:10.791196,10656,1751712610,587147008,map,0.26868491643727255,1.3229922205663556,0.0,0.0,0.0,0.0
2025/07/05/17:50:10.869689,10657,1751712610,787147008,map,0.2740849883997492,1.3729083797303843,0.0,0.0,0.0,0.0
2025/07/05/17:50:10.991952,10658,1751712610,787147008,map,0.2740849883997492,1.3729083797303843,0.0,0.0,0.0,0.0
2025/07/05/17:50:11.071774,10659,1751712610,987147008,map,0.186810224551124,1.367297312219679,0.0,0.0,0.0,0.0
2025/07/05/17:50:11.150120,10660,1751712610,987147008,map,0.186810224551124,1.367297312219679,0.0,0.0,0.0,0.0
2025/07/05/17:50:11.251411,10661,1751712611,187147008,map,0.11987976072289751,1.3647449736009365,0.0,0.0,0.0,0.0
2025/07/05/17:50:11.350038,10662,1751712611,187147008,map,0.11987976072289751,1.3647449736009365,0.0,0.0,0.0,0.0
2025/07/05/17:50:11.529912,10663,1751712611,387147008,map,0.08258468774855598,1.3274335272809235,0.0,0.0,0.0,0.0
2025/07/05/17:50:11.632473,10664,1751712611,587147008,map,0.0961425999683103,1.466852617160747,0.0,0.0,0.0,0.0
2025/07/05/17:50:11.711593,10665,1751712611,587147008,map,0.0961425999683103,1.466852617160747,0.0,0.0,0.0,0.0
2025/07/05/17:50:11.790814,10666,1751712611,587147008,map,0.0961425999683103,1.466852617160747,0.0,0.0,0.0,0.0
2025/07/05/17:50:11.869289,10667,1751712611,787147008,map,0.15279383442553618,1.2607751758983605,0.0,0.0,0.0,0.0
2025/07/05/17:50:11.950614,10668,1751712611,787147008,map,0.15279383442553618,1.2607751758983605,0.0,0.0,0.0,0.0
2025/07/05/17:50:12.051785,10669,1751712611,987147008,map,0.1918470085292466,1.2655412776035317,0.0,0.0,0.0,0.0
2025/07/05/17:50:12.149956,10670,1751712611,987147008,map,0.1918470085292466,1.2655412776035317,0.0,0.0,0.0,0.0
2025/07/05/17:50:12.251464,10671,1751712612,187147008,map,0.2365555883125958,1.2579512922359442,0.0,0.0,0.0,0.0
2025/07/05/17:50:12.349780,10672,1751712612,187147008,map,0.2365555883125958,1.2579512922359442,0.0,0.0,0.0,0.0
2025/07/05/17:50:12.529773,10673,1751712612,387147008,map,0.35133349937875874,1.2931221025928974,0.0,0.0,0.0,0.0
2025/07/05/17:50:12.613765,10674,1751712612,587147008,map,0.41285955372833627,1.1480187232337455,0.0,0.0,0.0,0.0
2025/07/05/17:50:12.691118,10675,1751712612,587147008,map,0.41285955372833627,1.1480187232337455,0.0,0.0,0.0,0.0
2025/07/05/17:50:12.791204,10676,1751712612,587147008,map,0.41285955372833627,1.1480187232337455,0.0,0.0,0.0,0.0
2025/07/05/17:50:12.911131,10677,1751712612,787147008,map,0.491051898504166,1.127726931919006,0.0,0.0,0.0,0.0
2025/07/05/17:50:13.011491,10678,1751712612,987147008,map,0.5411786349329772,1.225857122625667,0.0,0.0,0.0,0.0
2025/07/05/17:50:13.091304,10679,1751712612,987147008,map,0.5411786349329772,1.225857122625667,0.0,0.0,0.0,0.0
2025/07/05/17:50:13.191016,10680,1751712612,987147008,map,0.5411786349329772,1.225857122625667,0.0,0.0,0.0,0.0
2025/07/05/17:50:13.270961,10681,1751712613,187147008,map,0.6831131463939482,1.1060544422512666,0.0,0.0,0.0,0.0
2025/07/05/17:50:13.449798,10682,1751712613,387147008,map,0.5780571429110909,0.9004165366814776,0.0,0.0,0.0,0.0
2025/07/05/17:50:13.590555,10683,1751712613,387147008,map,0.5780571429110909,0.9004165366814776,0.0,0.0,0.0,0.0
2025/07/05/17:50:13.670201,10684,1751712613,587147008,map,0.7570943034438212,0.9820428787445664,0.0,0.0,0.0,0.0
2025/07/05/17:50:13.790499,10685,1751712613,587147008,map,0.7570943034438212,0.9820428787445664,0.0,0.0,0.0,0.0
2025/07/05/17:50:13.869908,10686,1751712613,787147008,map,0.7985683158615513,0.8275195737274408,0.0,0.0,0.0,0.0
2025/07/05/17:50:13.990637,10687,1751712613,787147008,map,0.7985683158615513,0.8275195737274408,0.0,0.0,0.0,0.0
2025/07/05/17:50:14.069904,10688,1751712613,987147008,map,0.8841275529969005,0.91171183497403,0.0,0.0,0.0,0.0
2025/07/05/17:50:14.169104,10689,1751712613,987147008,map,0.8841275529969005,0.91171183497403,0.0,0.0,0.0,0.0
2025/07/05/17:50:14.269499,10690,1751712614,187147008,map,0.9049249627412618,0.8182364033747984,0.0,0.0,0.0,0.0
2025/07/05/17:50:14.411782,10691,1751712614,387147008,map,0.8376636308234188,0.743451169610841,0.0,0.0,0.0,0.0
2025/07/05/17:50:14.570149,10692,1751712614,387147008,map,0.8376636308234188,0.743451169610841,0.0,0.0,0.0,0.0
2025/07/05/17:50:14.670055,10693,1751712614,587147008,map,1.142346337931763,0.6613961325967141,0.0,0.0,0.0,0.0
2025/07/05/17:50:14.770301,10694,1751712614,587147008,map,1.142346337931763,0.6613961325967141,0.0,0.0,0.0,0.0
2025/07/05/17:50:14.870099,10695,1751712614,787147008,map,0.9539690025177868,0.5476706512450882,0.0,0.0,0.0,0.0
2025/07/05/17:50:14.991435,10696,1751712614,787147008,map,0.9539690025177868,0.5476706512450882,0.0,0.0,0.0,0.0
2025/07/05/17:50:15.069742,10697,1751712614,987147008,map,1.0486285095159547,0.5834194451938907,0.0,0.0,0.0,0.0
2025/07/05/17:50:15.190905,10698,1751712614,987147008,map,1.0486285095159547,0.5834194451938907,0.0,0.0,0.0,0.0
2025/07/05/17:50:15.269409,10699,1751712615,187147008,map,1.1248799867557797,0.4975389586718982,0.0,0.0,0.0,0.0
2025/07/05/17:50:15.349488,10700,1751712615,187147008,map,1.1248799867557797,0.4975389586718982,0.0,0.0,0.0,0.0
2025/07/05/17:50:15.529888,10701,1751712615,387147008,map,1.0807312310821333,0.20498781954959355,0.0,0.0,0.0,0.0
2025/07/05/17:50:15.632505,10702,1751712615,587147008,map,1.1233547959007641,0.2892645891338109,0.0,0.0,0.0,0.0
2025/07/05/17:50:15.710338,10703,1751712615,587147008,map,1.1233547959007641,0.2892645891338109,0.0,0.0,0.0,0.0
2025/07/05/17:50:15.791197,10704,1751712615,587147008,map,1.1233547959007641,0.2892645891338109,0.0,0.0,0.0,0.0
2025/07/05/17:50:15.910632,10705,1751712615,787147008,map,1.2964459910509036,0.47289300300177844,0.0,0.0,0.0,0.0
2025/07/05/17:50:16.010705,10706,1751712615,987147008,map,1.149090993653993,0.4920263085479059,0.0,0.0,0.0,0.0
2025/07/05/17:50:16.110743,10707,1751712615,987147008,map,1.149090993653993,0.4920263085479059,0.0,0.0,0.0,0.0
2025/07/05/17:50:16.191337,10708,1751712615,987147008,map,1.149090993653993,0.4920263085479059,0.0,0.0,0.0,0.0
2025/07/05/17:50:16.269432,10709,1751712616,187147008,map,1.2116635414670953,0.4426866411802108,0.0,0.0,0.0,0.0
2025/07/05/17:50:16.349763,10710,1751712616,187147008,map,1.2116635414670953,0.4426866411802108,0.0,0.0,0.0,0.0
2025/07/05/17:50:16.511374,10711,1751712616,387147008,map,1.2186411982613228,0.3575103213897575,0.0,0.0,0.0,0.0
2025/07/05/17:50:16.611216,10712,1751712616,587147008,map,1.0418143861301798,0.3205039545032113,0.0,0.0,0.0,0.0
2025/07/05/17:50:16.691202,10713,1751712616,587147008,map,1.0418143861301798,0.3205039545032113,0.0,0.0,0.0,0.0
2025/07/05/17:50:16.790470,10714,1751712616,587147008,map,1.0418143861301798,0.3205039545032113,0.0,0.0,0.0,0.0
2025/07/05/17:50:16.869664,10715,1751712616,787147008,map,1.2362693408681715,0.3317199373407892,0.0,0.0,0.0,0.0
2025/07/05/17:50:16.990962,10716,1751712616,787147008,map,1.2362693408681715,0.3317199373407892,0.0,0.0,0.0,0.0
2025/07/05/17:50:17.069731,10717,1751712616,987147008,map,1.2481625220675217,0.17230878824379034,0.0,0.0,0.0,0.0
2025/07/05/17:50:17.169305,10718,1751712616,987147008,map,1.2481625220675217,0.17230878824379034,0.0,0.0,0.0,0.0
2025/07/05/17:50:17.269621,10719,1751712617,187147008,map,1.4699394595310762,-0.013341113652452535,0.0,0.0,0.0,0.0
2025/07/05/17:50:17.349288,10720,1751712617,187147008,map,1.4699394595310762,-0.013341113652452535,0.0,0.0,0.0,0.0
2025/07/05/17:50:17.510370,10721,1751712617,387147008,map,1.2467697060595957,-0.08980701560607296,0.0,0.0,0.0,0.0
2025/07/05/17:50:17.612926,10722,1751712617,587147008,map,1.4098625588531188,-0.019686674278194462,0.0,0.0,0.0,0.0
2025/07/05/17:50:17.690465,10723,1751712617,587147008,map,1.4098625588531188,-0.019686674278194462,0.0,0.0,0.0,0.0
2025/07/05/17:50:17.769620,10724,1751712617,587147008,map,1.4098625588531188,-0.019686674278194462,0.0,0.0,0.0,0.0
2025/07/05/17:50:17.890541,10725,1751712617,787147008,map,1.3194526860157365,0.03800801712610784,0.0,0.0,0.0,0.0
2025/07/05/17:50:17.991259,10726,1751712617,987147008,map,1.2973774439165642,0.08253343574892813,0.0,0.0,0.0,0.0
2025/07/05/17:50:18.090664,10727,1751712617,987147008,map,1.2973774439165642,0.08253343574892813,0.0,0.0,0.0,0.0
2025/07/05/17:50:18.191757,10728,1751712618,187147008,map,1.4294968210300127,0.03793202690455203,0.0,0.0,0.0,0.0
2025/07/05/17:50:18.290798,10729,1751712618,187147008,map,1.4294968210300127,0.03793202690455203,0.0,0.0,0.0,0.0
2025/07/05/17:50:18.369785,10730,1751712618,187147008,map,1.4294968210300127,0.03793202690455203,0.0,0.0,0.0,0.0
2025/07/05/17:50:18.549709,10731,1751712618,387147008,map,1.208848348114048,-0.05277945871205642,0.0,0.0,0.0,0.0
2025/07/05/17:50:18.649604,10732,1751712618,587147008,map,1.2823816203852665,-0.13999064146598647,0.0,0.0,0.0,0.0
2025/07/05/17:50:18.769725,10733,1751712618,587147008,map,1.2823816203852665,-0.13999064146598647,0.0,0.0,0.0,0.0
2025/07/05/17:50:18.849566,10734,1751712618,787147008,map,1.334502366857576,-0.2039691958397838,0.0,0.0,0.0,0.0
2025/07/05/17:50:18.949711,10735,1751712618,787147008,map,1.334502366857576,-0.2039691958397838,0.0,0.0,0.0,0.0
2025/07/05/17:50:19.049646,10736,1751712618,987147008,map,1.2356175417573458,-0.24667648955977445,0.0,0.0,0.0,0.0
2025/07/05/17:50:19.149388,10737,1751712618,987147008,map,1.2356175417573458,-0.24667648955977445,0.0,0.0,0.0,0.0
2025/07/05/17:50:19.249777,10738,1751712619,187147008,map,1.252476746054144,-0.34828436742642294,0.0,0.0,0.0,0.0
2025/07/05/17:50:19.390596,10739,1751712619,187147008,map,1.252476746054144,-0.34828436742642294,0.0,0.0,0.0,0.0
2025/07/05/17:50:19.529933,10740,1751712619,388147008,map,1.1948180084225575,-0.4000124082439857,0.0,0.0,0.0,0.0
2025/07/05/17:50:19.632540,10741,1751712619,588147008,map,1.1446974822728746,-0.476725994758144,0.0,0.0,0.0,0.0
2025/07/05/17:50:19.729255,10742,1751712619,588147008,map,1.1446974822728746,-0.476725994758144,0.0,0.0,0.0,0.0
2025/07/05/17:50:19.810223,10743,1751712619,788147008,map,1.1320206106305277,-0.6391629972923084,0.0,0.0,0.0,0.0
2025/07/05/17:50:19.910454,10744,1751712619,788147008,map,1.1320206106305277,-0.6391629972923084,0.0,0.0,0.0,0.0
2025/07/05/17:50:20.032138,10745,1751712619,988147008,map,1.07807689490957,-0.6713048552350416,0.0,0.0,0.0,0.0
2025/07/05/17:50:20.110267,10746,1751712619,988107072,map,1.07807689490957,-0.6713048552350416,0.0,0.0,0.0,0.0
2025/07/05/17:50:20.190458,10747,1751712619,988107072,map,1.07807689490957,-0.6713048552350416,0.0,0.0,0.0,0.0
2025/07/05/17:50:20.269237,10748,1751712620,188107072,map,1.0768899002965453,-0.7974384883107267,0.0,0.0,0.0,0.0
2025/07/05/17:50:20.410754,10749,1751712620,388107072,map,0.9586265722384992,-0.8330276676067041,0.0,0.0,0.0,0.0
2025/07/05/17:50:20.550017,10750,1751712620,388107072,map,0.9586265722384992,-0.8330276676067041,0.0,0.0,0.0,0.0
2025/07/05/17:50:20.632591,10751,1751712620,588107072,map,0.8226536832609436,-0.7746876257029041,0.0,0.0,0.0,0.0
2025/07/05/17:50:20.710188,10752,1751712620,588107072,map,0.8226536832609436,-0.7746876257029041,0.0,0.0,0.0,0.0
2025/07/05/17:50:20.790203,10753,1751712620,588107072,map,0.8226536832609436,-0.7746876257029041,0.0,0.0,0.0,0.0
2025/07/05/17:50:20.869814,10754,1751712620,788107072,map,0.6581341266183379,-0.6850981472608998,0.0,0.0,0.0,0.0
2025/07/05/17:50:20.990598,10755,1751712620,788107072,map,0.6581341266183379,-0.6850981472608998,0.0,0.0,0.0,0.0
2025/07/05/17:50:21.069313,10756,1751712620,988107072,map,0.5425378782399983,-0.6801122338811739,0.0,0.0,0.0,0.0
2025/07/05/17:50:21.190250,10757,1751712620,988107072,map,0.5425378782399983,-0.6801122338811739,0.0,0.0,0.0,0.0
2025/07/05/17:50:21.269882,10758,1751712621,188107072,map,0.474451307692533,-0.6931781564856508,0.0,0.0,0.0,0.0
2025/07/05/17:50:21.370165,10759,1751712621,188107072,map,0.474451307692533,-0.6931781564856508,0.0,0.0,0.0,0.0
2025/07/05/17:50:21.549580,10760,1751712621,388107072,map,0.49733433990524367,-0.6893174554231275,0.0,0.0,0.0,0.0
2025/07/05/17:50:21.649248,10761,1751712621,588107072,map,0.4105848763115194,-0.6156460503765571,0.0,0.0,0.0,0.0
2025/07/05/17:50:21.752997,10762,1751712621,588107072,map,0.4105848763115194,-0.6156460503765571,0.0,0.0,0.0,0.0
2025/07/05/17:50:21.849833,10763,1751712621,788107072,map,0.5396276011231554,-0.7327360043740643,0.0,0.0,0.0,0.0
2025/07/05/17:50:21.949457,10764,1751712621,788107072,map,0.5396276011231554,-0.7327360043740643,0.0,0.0,0.0,0.0
2025/07/05/17:50:22.049753,10765,1751712621,988107072,map,0.43378094939912515,-0.6840570794446862,0.0,0.0,0.0,0.0
2025/07/05/17:50:22.149526,10766,1751712621,988107072,map,0.43378094939912515,-0.6840570794446862,0.0,0.0,0.0,0.0
2025/07/05/17:50:22.249431,10767,1751712622,188107072,map,0.33212124275350174,-0.5235412878769635,0.0,0.0,0.0,0.0
2025/07/05/17:50:22.391100,10768,1751712622,188107072,map,0.33212124275350174,-0.5235412878769635,0.0,0.0,0.0,0.0
2025/07/05/17:50:22.529652,10769,1751712622,388107072,map,0.42050770477848515,-0.7155929500923903,0.0,0.0,0.0,0.0
2025/07/05/17:50:22.610432,10770,1751712622,588107072,map,0.3052084210647458,-0.5396738086206934,0.0,0.0,0.0,0.0
2025/07/05/17:50:22.690491,10771,1751712622,588107072,map,0.3052084210647458,-0.5396738086206934,0.0,0.0,0.0,0.0
2025/07/05/17:50:22.790546,10772,1751712622,588107072,map,0.3052084210647458,-0.5396738086206934,0.0,0.0,0.0,0.0
2025/07/05/17:50:22.870574,10773,1751712622,788107072,map,0.30675014768172687,-0.5272611752227152,0.0,0.0,0.0,0.0
2025/07/05/17:50:22.991311,10774,1751712622,988107072,map,0.3407147065117277,-0.5652552421398914,0.0,0.0,0.0,0.0
2025/07/05/17:50:23.091100,10775,1751712622,988107072,map,0.3407147065117277,-0.5652552421398914,0.0,0.0,0.0,0.0
2025/07/05/17:50:23.169179,10776,1751712622,988107072,map,0.3407147065117277,-0.5652552421398914,0.0,0.0,0.0,0.0
2025/07/05/17:50:23.270005,10777,1751712623,188107072,map,0.3196544227212468,-0.5428821695678966,0.0,0.0,0.0,0.0
2025/07/05/17:50:23.410303,10778,1751712623,388107072,map,0.36717496498799473,-0.5841939276353912,0.0,0.0,0.0,0.0
2025/07/05/17:50:23.569419,10779,1751712623,388107072,map,0.36717496498799473,-0.5841939276353912,0.0,0.0,0.0,0.0
2025/07/05/17:50:23.669800,10780,1751712623,588107072,map,0.24736188065223275,-0.41135398381465876,0.0,0.0,0.0,0.0
2025/07/05/17:50:23.769017,10781,1751712623,588107072,map,0.24736188065223275,-0.41135398381465876,0.0,0.0,0.0,0.0
2025/07/05/17:50:23.869709,10782,1751712623,788107072,map,0.2501257534581876,-0.4672655641677161,0.0,0.0,0.0,0.0
2025/07/05/17:50:23.990431,10783,1751712623,788107072,map,0.2501257534581876,-0.4672655641677161,0.0,0.0,0.0,0.0
2025/07/05/17:50:24.090380,10784,1751712623,988107072,map,0.29895253478357203,-0.5996060222733568,0.0,0.0,0.0,0.0
2025/07/05/17:50:24.190254,10785,1751712623,988107072,map,0.29895253478357203,-0.5996060222733568,0.0,0.0,0.0,0.0
2025/07/05/17:50:24.269506,10786,1751712624,188107072,map,0.20925841668413572,-0.49780610185779023,0.0,0.0,0.0,0.0
2025/07/05/17:50:24.349224,10787,1751712624,188107072,map,0.20925841668413572,-0.49780610185779023,0.0,0.0,0.0,0.0
2025/07/05/17:50:24.529589,10788,1751712624,388107072,map,0.258065207348632,-0.5082345410891584,0.0,0.0,0.0,0.0
2025/07/05/17:50:24.650953,10789,1751712624,588107072,map,0.19534981887329356,-0.41645941971117834,0.0,0.0,0.0,0.0
2025/07/05/17:50:24.769650,10790,1751712624,588107072,map,0.19534981887329356,-0.41645941971117834,0.0,0.0,0.0,0.0
2025/07/05/17:50:24.851661,10791,1751712624,788107072,map,0.29377644066200154,-0.5345983566304384,0.0,0.0,0.0,0.0
2025/07/05/17:50:24.949415,10792,1751712624,788107072,map,0.29377644066200154,-0.5345983566304384,0.0,0.0,0.0,0.0
2025/07/05/17:50:25.049900,10793,1751712624,988107072,map,0.22496300109088105,-0.49090900189361397,0.0,0.0,0.0,0.0
2025/07/05/17:50:25.149273,10794,1751712624,988107072,map,0.22496300109088105,-0.49090900189361397,0.0,0.0,0.0,0.0
2025/07/05/17:50:25.249238,10795,1751712625,188107072,map,0.2052367599798219,-0.34333347106419,0.0,0.0,0.0,0.0
2025/07/05/17:50:25.390851,10796,1751712625,188107072,map,0.2052367599798219,-0.34333347106419,0.0,0.0,0.0,0.0
2025/07/05/17:50:25.510849,10797,1751712625,388107072,map,0.14278085128648055,-0.3521556878795342,0.0,0.0,0.0,0.0
2025/07/05/17:50:25.612517,10798,1751712625,588107072,map,0.16469934146976556,-0.42950451327014666,0.0,0.0,0.0,0.0
