time,.header.seq,.header.stamp.secs,.header.stamp.nsecs,.header.frame_id,.pose.position.x,.pose.position.y,.pose.position.z,.pose.orientation.x,.pose.orientation.y,.pose.orientation.z,.pose.orientation.w
2025/07/05/17:49:30.972025,5716,1751712570,980147008,map,0.25827136635780334,-2.9559223651885986,-1.1270391941070557,-0.04823575707955357,-0.048114415479261735,0.5921074568720106,-0.8029738938960663
2025/07/05/17:49:31.092475,5717,1751712571,101147008,map,0.26293230056762695,-2.9806206226348877,-1.1270805597305298,-0.04792660816790173,-0.048700518819793905,0.5891107357865868,-0.8051582705761582
2025/07/05/17:49:31.192725,5718,1751712571,201147008,map,0.266642302274704,-3.0009777545928955,-1.1278274059295654,-0.04779821521778762,-0.04901976778235104,0.5862093889863232,-0.8072613859542892
2025/07/05/17:49:31.271498,5719,1751712571,281147008,map,0.2668391764163971,-3.0152153968811035,-1.129442811012268,-0.04797162526702975,-0.04890045322150972,0.5831831089592963,-0.8094472992533485
2025/07/05/17:49:31.392601,5720,1751712571,402147008,map,0.2659147083759308,-3.035902738571167,-1.131630539894104,-0.04831761287523649,-0.04855840252214796,0.5800550839535223,-0.8116918069133187
2025/07/05/17:49:31.551558,5721,1751712571,560147008,map,0.2672857642173767,-3.063263177871704,-1.1292201280593872,-0.04795216084644746,-0.04859245589212354,0.5750825707246042,-0.815241927497175
2025/07/05/17:49:31.634884,5722,1751712571,643147008,map,0.2694523334503174,-3.077122449874878,-1.1279654502868652,-0.04700435614066085,-0.04932608644817494,0.5720905256077764,-0.81735546625035
2025/07/05/17:49:31.693327,5723,1751712571,702147008,map,0.2741902768611908,-3.0879409313201904,-1.1275612115859985,-0.04623115088131527,-0.05000878532057574,0.5697481995242644,-0.8189925464971026
2025/07/05/17:49:31.793187,5724,1751712571,802147008,map,0.28090715408325195,-3.1057021617889404,-1.1267662048339844,-0.045891381109925265,-0.05037113908592927,0.5673652361415086,-0.8206420768551292
2025/07/05/17:49:31.912867,5725,1751712571,921147008,map,0.29480382800102234,-3.1289024353027344,-1.1279821395874023,-0.04619920729495192,-0.05021395541483757,0.564323429580184,-0.8227291527311852
2025/07/05/17:49:32.012562,5726,1751712572,21147008,map,0.3039571940898895,-3.1474556922912598,-1.1277133226394653,-0.04698306002069436,-0.04971589449582303,0.5607065105456895,-0.8251843011941322
2025/07/05/17:49:32.092716,5727,1751712572,102147008,map,0.3115047514438629,-3.1660614013671875,-1.1276901960372925,-0.0471896750675959,-0.04973713016485663,0.558379919467595,-0.8267473725300496
2025/07/05/17:49:32.193607,5728,1751712572,202147008,map,0.3192559480667114,-3.1879019737243652,-1.126342535018921,-0.04677124947667585,-0.05022824318772214,0.555601681504972,-0.8286110941313258
2025/07/05/17:49:32.292127,5729,1751712572,302147008,map,0.32765692472457886,-3.2153592109680176,-1.128218650817871,-0.046003093401239856,-0.050848272779650115,0.5529343741030172,-0.830398546776274
2025/07/05/17:49:32.471740,5730,1751712572,480147008,map,0.3438502848148346,-3.26233172416687,-1.1325539350509644,-0.04535489285384895,-0.05123812478124834,0.5502444670166687,-0.8321950581328028
2025/07/05/17:49:32.572543,5731,1751712572,580147008,map,0.3549283742904663,-3.2890806198120117,-1.1345617771148682,-0.04519883876233255,-0.051309548568896315,0.5459265651688814,-0.8350380713734553
2025/07/05/17:49:32.672405,5732,1751712572,681147008,map,0.3663525879383087,-3.3140134811401367,-1.1352299451828003,-0.04555658377607384,-0.05140421269427996,0.5426836883257963,-0.837124016509528
2025/07/05/17:49:32.772078,5733,1751712572,781147008,map,0.37716495990753174,-3.3373239040374756,-1.1340361833572388,-0.04565160881063236,-0.05169626234809942,0.5399785777029267,-0.8388483550047422
2025/07/05/17:49:32.872779,5734,1751712572,881147008,map,0.39235028624534607,-3.3619518280029297,-1.1351534128189087,-0.04537227335207892,-0.052029810728552714,0.5373216856454403,-0.8405472394467535
2025/07/05/17:49:32.971954,5735,1751712572,981147008,map,0.4084939658641815,-3.3865201473236084,-1.1361091136932373,-0.04481065562269457,-0.052315745255816205,0.5347445445128503,-0.8422014842392151
2025/07/05/17:49:33.071925,5736,1751712573,81147008,map,0.42536887526512146,-3.4098737239837646,-1.1375678777694702,-0.044486779088978724,-0.052400337986892746,0.5321531875056789,-0.8438531365662473
2025/07/05/17:49:33.173315,5737,1751712573,181147008,map,0.44131749868392944,-3.4321467876434326,-1.1395598649978638,-0.04454361655086836,-0.0524154570628735,0.5294980495956507,-0.8455177712856552
2025/07/05/17:49:33.292783,5738,1751712573,301147008,map,0.4607431888580322,-3.4558939933776855,-1.1410157680511475,-0.04469052922621372,-0.05249958763226692,0.5267210116948088,-0.8472375851761536
2025/07/05/17:49:33.371521,5739,1751712573,381147008,map,0.47302407026290894,-3.471292495727539,-1.1401054859161377,-0.044562310001548235,-0.052855596203093345,0.5239800778990829,-0.8489201166436171
2025/07/05/17:49:33.551432,5740,1751712573,560147008,map,0.49947211146354675,-3.5169641971588135,-1.135319471359253,-0.04223012835843667,-0.051944929419719135,0.5188733506655997,-0.8522257837776699
2025/07/05/17:49:33.615326,5741,1751712573,624147008,map,0.5091946721076965,-3.5353641510009766,-1.1333235502243042,-0.03780360189318414,-0.05314077645602389,0.5128753946066178,-0.8559823451267313
2025/07/05/17:49:33.712705,5742,1751712573,721147008,map,0.5303658246994019,-3.5689585208892822,-1.1291307210922241,-0.03703587475528694,-0.05354514054922718,0.5075961228364092,-0.8591317931412614
2025/07/05/17:49:33.812521,5743,1751712573,822147008,map,0.5500832200050354,-3.60501766204834,-1.1253491640090942,-0.03859203150261953,-0.053552149226141016,0.49992696453384355,-0.8635484077628418
2025/07/05/17:49:33.912815,5744,1751712573,921147008,map,0.5825265645980835,-3.646505832672119,-1.1235605478286743,-0.04062359719310788,-0.05330828698407524,0.4931624398618608,-0.8673515768126626
2025/07/05/17:49:33.992728,5745,1751712574,2147008,map,0.6069690585136414,-3.6813533306121826,-1.123279333114624,-0.042489869289781504,-0.053059855777852195,0.48456813655065056,-0.8721083555111719
2025/07/05/17:49:34.092866,5746,1751712574,102147008,map,0.6355358362197876,-3.7254104614257812,-1.1225606203079224,-0.04276472809640905,-0.05320698088205476,0.47597101499274597,-0.8768077258458848
2025/07/05/17:49:34.212584,5747,1751712574,221147008,map,0.6690009236335754,-3.78139591217041,-1.121160626411438,-0.04143654636388776,-0.05412173392821614,0.4671564126817386,-0.8815433832956638
2025/07/05/17:49:34.292807,5748,1751712574,302147008,map,0.6962639093399048,-3.822611093521118,-1.1211669445037842,-0.039524506507717605,-0.05535430446542108,0.4579461066941717,-0.8863741183755994
2025/07/05/17:49:34.512839,5749,1751712574,521147008,map,0.7810941934585571,-3.9367856979370117,-1.1227959394454956,-0.037637873459092835,-0.05641749277014766,0.4485001791718263,-0.8912059505377234
2025/07/05/17:49:34.592782,5750,1751712574,602147008,map,0.8156835436820984,-3.978665828704834,-1.1243594884872437,-0.03594110353752461,-0.056682657884364766,0.4284406771324014,-0.9010737481194303
2025/07/05/17:49:34.692691,5751,1751712574,702147008,map,0.8613377809524536,-4.028133869171143,-1.1226633787155151,-0.0362645077441722,-0.056458469980486245,0.41776288901270586,-0.9060747735199857
2025/07/05/17:49:34.793032,5752,1751712574,801147008,map,0.9079360961914062,-4.079142093658447,-1.1192896366119385,-0.036825084194818156,-0.05621335341857581,0.40697025298298245,-0.9109660725067922
2025/07/05/17:49:34.912868,5753,1751712574,922147008,map,0.9619901180267334,-4.145833492279053,-1.11726975440979,-0.03610739492818339,-0.05691305788160327,0.39603335882374663,-0.9157591050996146
2025/07/05/17:49:35.012661,5754,1751712575,22147008,map,1.0081368684768677,-4.203487873077393,-1.1154680252075195,-0.034007992227819445,-0.05786245127348742,0.3831904238865795,-0.9212277092222527
2025/07/05/17:49:35.092926,5755,1751712575,102147008,map,1.046573519706726,-4.240269660949707,-1.1130107641220093,-0.03298708211675761,-0.058228226147571505,0.3749148087485509,-0.9246405854569477
2025/07/05/17:49:35.212801,5756,1751712575,221147008,map,1.1126375198364258,-4.295413017272949,-1.107073426246643,-0.03793894301994799,-0.056082017592026606,0.3683823118111983,-0.9272054336822955
2025/07/05/17:49:35.292474,5757,1751712575,301147008,map,1.1630048751831055,-4.332495212554932,-1.0999616384506226,-0.04689409340535334,-0.05305421827392341,0.3661104363251653,-0.9278735594577691
2025/07/05/17:49:35.412787,5758,1751712575,422147008,map,1.2422603368759155,-4.388777732849121,-1.0923715829849243,-0.04963954837788055,-0.052153665639605044,0.3660077601731671,-0.9278223051264795
2025/07/05/17:49:35.551651,5759,1751712575,560147008,map,1.3429946899414062,-4.447593688964844,-1.081557035446167,-0.05052357373952823,-0.051829501270937293,0.37322904790892164,-0.9249114277008323
2025/07/05/17:49:35.634447,5760,1751712575,643147008,map,1.4026708602905273,-4.480595111846924,-1.0744420289993286,-0.05061128971533503,-0.052346098171756485,0.3861072484657492,-0.919575758728856
2025/07/05/17:49:35.711874,5761,1751712575,721147008,map,1.4641873836517334,-4.512241840362549,-1.06842041015625,-0.04816241954199219,-0.05328226063597394,0.39650382773539433,-0.9152191522452763
2025/07/05/17:49:35.792723,5762,1751712575,802147008,map,1.525932788848877,-4.545654296875,-1.0649182796478271,-0.044928021244619074,-0.05414997491573421,0.4077066878529516,-0.9103979952765959
2025/07/05/17:49:35.892969,5763,1751712575,902147008,map,1.5986154079437256,-4.59420108795166,-1.0590193271636963,-0.04156868071696561,-0.054379450759499535,0.42214494883913034,-0.9039405745336107
2025/07/05/17:49:36.012778,5764,1751712576,22147008,map,1.680086612701416,-4.662294864654541,-1.05167555809021,-0.03620478033693386,-0.05586707936807659,0.4351311536244618,-0.8979025350610613
2025/07/05/17:49:36.092701,5765,1751712576,101147008,map,1.7257986068725586,-4.711833953857422,-1.0479717254638672,-0.022687623342460855,-0.06176358705386238,0.43573115260105144,-0.8976685879066226
2025/07/05/17:49:36.192700,5766,1751712576,201147008,map,1.7819414138793945,-4.776005744934082,-1.0459085702896118,-0.009463258889381904,-0.06824064127573182,0.43119368185069684,-0.8996252944095722
2025/07/05/17:49:36.292660,5767,1751712576,301147008,map,1.8443506956100464,-4.839692115783691,-1.0425167083740234,-0.006766650977125546,-0.07010452081754226,0.42282515004828913,-0.9034702325379284
2025/07/05/17:49:36.371675,5768,1751712576,381147008,map,1.8945670127868652,-4.891707897186279,-1.0396170616149902,-0.016591238922215555,-0.06598064588615747,0.4114206261321681,-0.9089028295436681
2025/07/05/17:49:36.571509,5769,1751712576,580147008,map,2.0100717544555664,-5.0201735496521,-1.0283387899398804,-0.036357788250841336,-0.056983841318207634,0.38923216341122785,-0.9186562338700717
2025/07/05/17:49:36.671923,5770,1751712576,681147008,map,2.0709705352783203,-5.0875468254089355,-1.021627426147461,-0.040249083613745754,-0.054368728718262475,0.3694667412311373,-0.9267784955046472
2025/07/05/17:49:36.751691,5771,1751712576,760147008,map,2.12176513671875,-5.142377853393555,-1.0140166282653809,-0.03662745766741233,-0.055582917098463955,0.358548202496986,-0.9311348748477994
2025/07/05/17:49:36.833968,5772,1751712576,844147008,map,2.176276683807373,-5.195838928222656,-1.007851243019104,-0.029994163169865015,-0.05851730044916901,0.34497184116854646,-0.9363068431474078
2025/07/05/17:49:36.951768,5773,1751712576,960147008,map,2.268618106842041,-5.271512508392334,-0.999089241027832,-0.02596528190684498,-0.06038706818775632,0.3339055238064968,-0.9403118138695771
2025/07/05/17:49:37.051673,5774,1751712577,60147008,map,2.3478450775146484,-5.33244514465332,-0.9931703209877014,-0.024764017588469564,-0.061056895530709,0.3165074185099091,-0.9462990293608163
2025/07/05/17:49:37.151802,5775,1751712577,161147008,map,2.429609775543213,-5.390941619873047,-0.9885205030441284,-0.02703489564549889,-0.06030625561691558,0.30098499807074036,-0.9513360609622978
2025/07/05/17:49:37.251591,5776,1751712577,260147008,map,2.5096020698547363,-5.447742462158203,-0.9822120070457458,-0.029678507555097548,-0.059230628345249385,0.2854277008080656,-0.9561077065197989
2025/07/05/17:49:37.331672,5777,1751712577,340147008,map,2.571744203567505,-5.491633415222168,-0.9758612513542175,-0.030755470657018936,-0.05876483956456573,0.27286807320074874,-0.9597623712582856
2025/07/05/17:49:37.511591,5778,1751712577,521147008,map,2.7077813148498535,-5.586615085601807,-0.9605384469032288,-0.030599549994428144,-0.05879810355776664,0.257042588179616,-0.9641242442860116
2025/07/05/17:49:37.592864,5779,1751712577,602147008,map,2.769967794418335,-5.627051830291748,-0.9546440243721008,-0.029319689457196662,-0.05955947376396225,0.23319614104537434,-0.9701611127522267
2025/07/05/17:49:37.692625,5780,1751712577,702147008,map,2.8491508960723877,-5.660898685455322,-0.9487674236297607,-0.030234679640343712,-0.05944679200693245,0.2235363098947007,-0.9724111585259554
2025/07/05/17:49:37.792199,5781,1751712577,801147008,map,2.934784173965454,-5.68913459777832,-0.9437704086303711,-0.042384841280689194,-0.057542534745097254,0.2188721811224349,-0.9731327505820715
2025/07/05/17:49:37.871541,5782,1751712577,880147008,map,2.9992661476135254,-5.712568759918213,-0.9412510991096497,-0.05406264022085578,-0.056216771795449635,0.2197605991895325,-0.9724310693026557
2025/07/05/17:49:37.992200,5783,1751712578,2147008,map,3.1025209426879883,-5.745728492736816,-0.9427707195281982,-0.056626850364034365,-0.05673449680281731,0.22675966058203173,-0.9706465129093608
2025/07/05/17:49:38.071664,5784,1751712578,80147008,map,3.1693499088287354,-5.766503810882568,-0.9462800025939941,-0.051887129805998494,-0.05822999017096275,0.234496571773458,-0.9689831535334763
2025/07/05/17:49:38.170801,5785,1751712578,180147008,map,3.254718780517578,-5.791632652282715,-0.950330913066864,-0.04354229905596405,-0.05970687969828744,0.2474898637137728,-0.9660682812661605
2025/07/05/17:49:38.291781,5786,1751712578,301147008,map,3.3462166786193848,-5.8266520500183105,-0.9590332508087158,-0.03468644276663082,-0.06057506304931824,0.26149492827863763,-0.962677471902879
2025/07/05/17:49:38.412774,5787,1751712578,422147008,map,3.441399097442627,-5.8641533851623535,-0.9656715989112854,-0.028389156395685344,-0.06119944206429005,0.2750742815991709,-0.9590530870045
2025/07/05/17:49:38.551486,5788,1751712578,561147008,map,3.5534682273864746,-5.899251937866211,-0.9713584184646606,-0.027187902679629124,-0.060251208526155335,0.2961954187484289,-0.9528372808257783
2025/07/05/17:49:38.651586,5789,1751712578,660147008,map,3.632758140563965,-5.931303024291992,-0.9762395024299622,-0.03061837411644461,-0.05885468963181896,0.3069285704920664,-0.9494174494343909
2025/07/05/17:49:38.730873,5790,1751712578,740147008,map,3.696572780609131,-5.959798812866211,-0.9799560308456421,-0.0326818018408225,-0.058047164487817354,0.3152442612062081,-0.9466696796137042
2025/07/05/17:49:38.814429,5791,1751712578,824147008,map,3.7619740962982178,-5.99149751663208,-0.9834314584732056,-0.033760982307793744,-0.057844917439604106,0.3256007893726322,-0.9431321686592695
2025/07/05/17:49:38.931705,5792,1751712578,940147008,map,3.8607518672943115,-6.050724029541016,-0.9887290596961975,-0.03323879260690721,-0.057811171665396295,0.3333561718087671,-0.9404396385806548
2025/07/05/17:49:39.012192,5793,1751712579,22147008,map,3.922135591506958,-6.096728324890137,-0.9915726780891418,-0.018962641344240524,-0.061857657515643656,0.33713199952017747,-0.9392316345499943
2025/07/05/17:49:39.130836,5794,1751712579,140147008,map,3.9966249465942383,-6.1671223640441895,-0.9921318292617798,-0.001479388253142378,-0.06762862333770317,0.33176859445424306,-0.9409323995110912
2025/07/05/17:49:39.215692,5795,1751712579,221147008,map,4.047921180725098,-6.213346004486084,-0.9926984906196594,0.007963485155403781,-0.07121829720590418,0.3214494736958594,-0.9442111908402304
2025/07/05/17:49:39.311675,5796,1751712579,321147008,map,4.108421325683594,-6.2647271156311035,-0.9926485419273376,0.00031973816899555623,-0.06947859384979173,0.30786286910651683,-0.9488904449880728
2025/07/05/17:49:39.492827,5797,1751712579,502147008,map,4.2334065437316895,-6.361224174499512,-0.9949178099632263,-0.016223895264967734,-0.06452943818756726,0.2921156521297156,-0.9540656070787055
2025/07/05/17:49:39.592586,5798,1751712579,602147008,map,4.310556888580322,-6.416337490081787,-0.9985479116439819,-0.03348275686372975,-0.05847887105928595,0.26538981847286447,-0.9617834324230046
2025/07/05/17:49:39.671768,5799,1751712579,681147008,map,4.377354621887207,-6.4611992835998535,-0.9973526000976562,-0.033374800533490304,-0.058461398025690295,0.24898669844640858,-0.9661645882700262
2025/07/05/17:49:39.771404,5800,1751712579,781147008,map,4.463516712188721,-6.516180038452148,-0.9943990707397461,-0.027621459191050697,-0.06010248847407513,0.23303793713713694,-0.9702154738645683
2025/07/05/17:49:39.892900,5801,1751712579,901147008,map,4.566709518432617,-6.577616214752197,-0.9906706809997559,-0.021698530199609167,-0.06148534353219856,0.2179889968153374,-0.9737707756886871
2025/07/05/17:49:39.973516,5802,1751712579,981147008,map,4.639066219329834,-6.6103620529174805,-0.9886474013328552,-0.027040758579575615,-0.060490101411154455,0.20899286676677603,-0.9756698861025249
2025/07/05/17:49:40.073062,5803,1751712580,81147008,map,4.73160982131958,-6.645195007324219,-0.9837879538536072,-0.045881836639739555,-0.05775900484868908,0.20798756530310875,-0.9753460550516102
2025/07/05/17:49:40.191751,5804,1751712580,201147008,map,4.844488620758057,-6.681526184082031,-0.9804136753082275,-0.06269537697722238,-0.05581735582738782,0.21362201543231885,-0.9733033170686087
2025/07/05/17:49:40.272826,5805,1751712580,281147008,map,4.914212226867676,-6.712331771850586,-0.9787120223045349,-0.062350668074053046,-0.056695651551647866,0.2226009115126475,-0.9712604344250781
2025/07/05/17:49:40.450305,5806,1751712580,460147008,map,5.064585208892822,-6.796208381652832,-0.9796130657196045,-0.04012349646399412,-0.060537988905952834,0.22864002417152235,-0.9707981233385096
2025/07/05/17:49:40.551515,5807,1751712580,560147008,map,5.148211479187012,-6.837541103363037,-0.9752108454704285,0.01064946490711842,-0.06888034697380567,0.22131364734062753,-0.9727087725515526
2025/07/05/17:49:40.634048,5808,1751712580,643147008,map,5.216425895690918,-6.8703742027282715,-0.9734472036361694,0.017573140996904345,-0.06984330403287792,0.21045723342867328,-0.9749465885343784
2025/07/05/17:49:40.711892,5809,1751712580,721147008,map,5.288983345031738,-6.904005527496338,-0.970659077167511,0.007352664480878562,-0.06779579921103807,0.1992558265250715,-0.977571881515717
2025/07/05/17:49:40.812912,5810,1751712580,821147008,map,5.380517959594727,-6.945256233215332,-0.969276487827301,-0.01394346049377833,-0.06407746816913541,0.18342658884493462,-0.9808436901398727
2025/07/05/17:49:40.951594,5811,1751712580,961147008,map,5.504446983337402,-7.003933429718018,-0.9645921587944031,-0.0296837126285822,-0.0615362125521263,0.16675841923109125,-0.9836278774846059
2025/07/05/17:49:41.033976,5812,1751712581,44147008,map,5.575562953948975,-7.0358967781066895,-0.9613951444625854,-0.030912484395948563,-0.06077885423993339,0.14473220512541635,-0.9871185025037702
2025/07/05/17:49:41.130354,5813,1751712581,140147008,map,5.662487506866455,-7.072349548339844,-0.9549580216407776,-0.024009209208880052,-0.061430495058682276,0.1328882955589495,-0.9889340488897359
2025/07/05/17:49:41.211556,5814,1751712581,221147008,map,5.733222007751465,-7.100067138671875,-0.9505845308303833,-0.01616363710063106,-0.06243318136736132,0.12125042941621361,-0.9905246933148173
2025/07/05/17:49:41.291763,5815,1751712581,301147008,map,5.805693626403809,-7.121054172515869,-0.9463006854057312,-0.010769530525635411,-0.0636736619156765,0.10964211976149013,-0.9918711043097852
2025/07/05/17:49:41.414578,5816,1751712581,424147008,map,5.916812419891357,-7.153680324554443,-0.9461545944213867,-0.009133599446049063,-0.06437024386072401,0.09732511194028742,-0.9931268154935101
2025/07/05/17:49:41.530800,5817,1751712581,540147008,map,6.034271717071533,-7.187328338623047,-0.9506272673606873,-0.013475250854156648,-0.06441618148317367,0.07350243107857451,-0.9951212819566688
2025/07/05/17:49:41.612455,5818,1751712581,622147008,map,6.1126508712768555,-7.207659721374512,-0.9531520009040833,-0.01983786494586988,-0.0642408962954223,0.05345793427857747,-0.996304077889987
2025/07/05/17:49:41.711842,5819,1751712581,721147008,map,6.209985256195068,-7.230008602142334,-0.9527164101600647,-0.023485954529588713,-0.06443036083544618,0.0418361214881141,-0.9967682165284365
2025/07/05/17:49:41.833410,5820,1751712581,843147008,map,6.32818078994751,-7.240458965301514,-0.9518901109695435,-0.03503061290997762,-0.06507223735926351,0.03481899978497698,-0.996657462390256
2025/07/05/17:49:41.930848,5821,1751712581,940147008,map,6.427793979644775,-7.23652982711792,-0.9527139663696289,-0.04556611064203293,-0.06634415082195547,0.03452814430368744,-0.9961576132638927
2025/07/05/17:49:42.033612,5822,1751712582,43147008,map,6.527185440063477,-7.229860782623291,-0.9569001197814941,-0.04699449368488462,-0.06796323165920823,0.04185216079061154,-0.9957012169033916
2025/07/05/17:49:42.112055,5823,1751712582,121147008,map,6.609547138214111,-7.223430633544922,-0.9632400274276733,-0.04035485416675154,-0.06833474457776262,0.052945824683207514,-0.9954388921863999
2025/07/05/17:49:42.211781,5824,1751712582,222147008,map,6.711980819702148,-7.215052604675293,-0.9716877937316895,-0.03355786697656531,-0.06803278239267535,0.06378082638731042,-0.9950765881424635
2025/07/05/17:49:42.291483,5825,1751712582,302147008,map,6.788112163543701,-7.207499980926514,-0.9762492775917053,-0.02652878120559695,-0.06735691781272844,0.07563232018966909,-0.994504410011963
2025/07/05/17:49:42.433328,5826,1751712582,444147008,map,6.922352313995361,-7.204200744628906,-0.9819488525390625,-0.017305030508660262,-0.0666601097349527,0.08869454810523131,-0.9936751193552281
2025/07/05/17:49:42.592266,5827,1751712582,602147008,map,7.069987773895264,-7.220755100250244,-0.9893000721931458,0.014232291413912046,-0.06771731602288088,0.0885788865790943,-0.9936627133208604
2025/07/05/17:49:42.691527,5828,1751712582,702147008,map,7.160665512084961,-7.229557514190674,-0.994124174118042,0.019908306105450947,-0.06822796425243546,0.07664769021212359,-0.9945218629206332
2025/07/05/17:49:42.791989,5829,1751712582,802147008,map,7.252854347229004,-7.238768577575684,-0.9979690909385681,0.007851526393494337,-0.06745029817417236,0.06321968180340737,-0.9956867392117781
2025/07/05/17:49:42.911798,5830,1751712582,921147008,map,7.355669975280762,-7.243521690368652,-1.001993179321289,-0.00922153341271338,-0.0665604300906927,0.048480054546462696,-0.9965612659434602
2025/07/05/17:49:43.012075,5831,1751712583,22147008,map,7.444199085235596,-7.239479064941406,-1.0059007406234741,-0.028108285021164855,-0.065291587541223,0.036998508452848404,-0.996783849829932
2025/07/05/17:49:43.111914,5832,1751712583,121147008,map,7.536617755889893,-7.223453998565674,-1.011482834815979,-0.04546542093056872,-0.06564816857796033,0.039346466219242975,-0.9960296527001713
2025/07/05/17:49:43.212383,5833,1751712583,222147008,map,7.630512237548828,-7.205954074859619,-1.017043113708496,-0.05251015313458296,-0.06670308687149501,0.04908538697435421,-0.9951803890778667
2025/07/05/17:49:43.311934,5834,1751712583,321147008,map,7.723604202270508,-7.188137054443359,-1.0263645648956299,-0.04503517703338992,-0.06681466263171856,0.06282529680745469,-0.9947666137180298
2025/07/05/17:49:43.450358,5835,1751712583,460147008,map,7.855644702911377,-7.168593883514404,-1.0408005714416504,-0.032389289484566396,-0.06639871357710297,0.07524753485950875,-0.9944244331569683
2025/07/05/17:49:43.591597,5836,1751712583,602147008,map,7.992187976837158,-7.159091472625732,-1.0514450073242188,-0.0034248946630359243,-0.06459897187461391,0.1007840136103842,-0.992803014464537
2025/07/05/17:49:43.691435,5837,1751712583,702147008,map,8.08678150177002,-7.16279411315918,-1.0560634136199951,0.0031152167025622745,-0.06455040647186518,0.10549527087981353,-0.9923176347678235
2025/07/05/17:49:43.792033,5838,1751712583,802147008,map,8.179821014404297,-7.176149845123291,-1.0603597164154053,0.013789665802087575,-0.06619324297569901,0.09837876924390193,-0.9928493931425258
2025/07/05/17:49:43.930366,5839,1751712583,940147008,map,8.306198120117188,-7.191329479217529,-1.0683480501174927,0.014428260643155838,-0.06747045121751226,0.08666072219306442,-0.9938458043058265
2025/07/05/17:49:44.015173,5840,1751712584,24147008,map,8.38049030303955,-7.2015533447265625,-1.0721510648727417,0.002113698296999754,-0.06720843135942883,0.06905802860099719,-0.9953439343862291
2025/07/05/17:49:44.092882,5841,1751712584,102147008,map,8.458989143371582,-7.214341163635254,-1.075994610786438,-0.0074464100091654,-0.06668174011485549,0.05627885275772098,-0.9961580131914339
2025/07/05/17:49:44.212797,5842,1751712584,222147008,map,8.57859992980957,-7.227480411529541,-1.0810354948043823,-0.01621706461638629,-0.06596330517524762,0.041780163115101736,-0.9968150616617211
2025/07/05/17:49:44.291818,5843,1751712584,301147008,map,8.661078453063965,-7.228524208068848,-1.0837606191635132,-0.02627962780300371,-0.06576861663465498,0.03427660063597542,-0.996899686466668
2025/07/05/17:49:44.413216,5844,1751712584,422147008,map,8.784971237182617,-7.2217302322387695,-1.0859043598175049,-0.03786686674011682,-0.06642767390196001,0.035624757408004075,-0.9964358189080127
2025/07/05/17:49:44.551110,5845,1751712584,560147008,map,8.930047035217285,-7.213096618652344,-1.0932488441467285,-0.04570427730644966,-0.06747068353220374,0.04698454439084664,-0.9955658082155979
2025/07/05/17:49:44.633703,5846,1751712584,643147008,map,9.011743545532227,-7.206486701965332,-1.0961275100708008,-0.037145042663466896,-0.06758214719826164,0.06265189677959643,-0.9950515760580054
2025/07/05/17:49:44.711952,5847,1751712584,721147008,map,9.091156005859375,-7.201133728027344,-1.0981982946395874,-0.028562064415105236,-0.06728030982249433,0.07467899010604795,-0.9945253223640298
2025/07/05/17:49:44.812772,5848,1751712584,822147008,map,9.190438270568848,-7.19978141784668,-1.0999149084091187,-0.016187438679985122,-0.06644224840739307,0.08744162201391259,-0.9938195798006436
2025/07/05/17:49:44.891943,5849,1751712584,901147008,map,9.266290664672852,-7.2088165283203125,-1.1005072593688965,-0.003802920792605068,-0.0658918693768561,0.09212574127936168,-0.993557571123685
2025/07/05/17:49:45.012064,5850,1751712585,22147008,map,9.379495620727539,-7.229884147644043,-1.1012417078018188,0.021474926987648784,-0.06740251201245458,0.08447942595240343,-0.9939109394085761
2025/07/05/17:49:45.091991,5851,1751712585,101147008,map,9.46311092376709,-7.248416900634766,-1.1013399362564087,0.025566724419581275,-0.06835722474591717,0.075922838203272,-0.9944392163760686
2025/07/05/17:49:45.211587,5852,1751712585,221147008,map,9.588123321533203,-7.273871421813965,-1.101037859916687,0.014596783048824521,-0.06864539837642059,0.0619628284648378,-0.9956080308509996
2025/07/05/17:49:45.291638,5853,1751712585,302147008,map,9.674931526184082,-7.284692287445068,-1.1013705730438232,-0.004445999561080835,-0.0680941604319205,0.04564772172332159,-0.9966241537833832
2025/07/05/17:49:45.433893,5854,1751712585,444147008,map,9.826570510864258,-7.300537109375,-1.1025876998901367,-0.018661903786252185,-0.06748902185382125,0.02890046355462583,-0.997126736419506
2025/07/05/17:49:45.591554,5855,1751712585,602147008,map,10.00048828125,-7.2998833656311035,-1.1022231578826904,-0.038112546431301346,-0.06758239222161061,0.016650482777465277,-0.9968464352594151
2025/07/05/17:49:45.671264,5856,1751712585,681147008,map,10.084063529968262,-7.293222904205322,-1.1019374132156372,-0.04581700288562845,-0.06884701414672628,0.02228697752116465,-0.9963253391953002
2025/07/05/17:49:45.771225,5857,1751712585,781147008,map,10.187456130981445,-7.282278537750244,-1.1027154922485352,-0.044260253811384494,-0.06959824832177855,0.03370916357429043,-0.9960224927451256
2025/07/05/17:49:45.891602,5858,1751712585,901147008,map,10.31131362915039,-7.265958786010742,-1.1070926189422607,-0.033875083808445526,-0.06933909959895883,0.04831192104317266,-0.9958466379161476
2025/07/05/17:49:45.971082,5859,1751712585,981147008,map,10.39438533782959,-7.255970478057861,-1.1115260124206543,-0.021339611093049726,-0.06818063845540953,0.06398764415220382,-0.9953901762294326
2025/07/05/17:49:46.071402,5860,1751712586,81147008,map,10.49722957611084,-7.25053596496582,-1.1169016361236572,-0.011938737542701963,-0.06645969132854906,0.07816679249957365,-0.9946509581379436
2025/07/05/17:49:46.172296,5861,1751712586,181147008,map,10.5988130569458,-7.252554416656494,-1.1243188381195068,-0.006518915158859594,-0.06519580685679463,0.08818653665804449,-0.9939467517255149
2025/07/05/17:49:46.291656,5862,1751712586,301147008,map,10.720609664916992,-7.270975589752197,-1.129279613494873,0.0018987207486948889,-0.06548587182303656,0.09069028503829757,-0.9937219267233504
2025/07/05/17:49:46.392178,5863,1751712586,402147008,map,10.821694374084473,-7.291841983795166,-1.1341060400009155,0.015711081449320367,-0.06748440883875251,0.08306282447317798,-0.9941325785195427
2025/07/05/17:49:46.551156,5864,1751712586,560147008,map,10.993558883666992,-7.325061321258545,-1.1463818550109863,0.013482144909414314,-0.06933788256063332,0.06275239597112153,-0.9955263063377748
2025/07/05/17:49:46.651814,5865,1751712586,661147008,map,11.10096263885498,-7.346627235412598,-1.1543972492218018,-0.002284051977147873,-0.06888916001269912,0.04369361464429799,-0.9966644042899424
2025/07/05/17:49:46.751799,5866,1751712586,760147008,map,11.20860481262207,-7.367705345153809,-1.1623984575271606,-0.012383057270331588,-0.06759068881606048,0.026643435217911512,-0.9972804450292801
2025/07/05/17:49:46.833314,5867,1751712586,843147008,map,11.295629501342773,-7.3800859451293945,-1.167094349861145,-0.01664131927948209,-0.06685770865508557,0.014427298023807152,-0.997519406506842
2025/07/05/17:49:46.931237,5868,1751712586,941147008,map,11.404806137084961,-7.3868231773376465,-1.1684515476226807,-0.02240725240700314,-0.0669305838787773,0.004655174101761912,-0.9974951334895308
2025/07/05/17:49:47.012501,5869,1751712587,22147008,map,11.492446899414062,-7.385992050170898,-1.168882966041565,-0.032930763754864575,-0.0684438961024415,0.003435089321107361,-0.9971054096965855
2025/07/05/17:49:47.111723,5870,1751712587,121147008,map,11.594265937805176,-7.385462284088135,-1.1678407192230225,-0.038465742963551854,-0.06959660592254095,0.006340834914659306,-0.996813168489918
2025/07/05/17:49:47.211942,5871,1751712587,222147008,map,11.698165893554688,-7.3808183670043945,-1.1697965860366821,-0.03875991159882649,-0.07031450346823814,0.014324441513793248,-0.9966686260890247
2025/07/05/17:49:47.293401,5872,1751712587,302147008,map,11.782684326171875,-7.378570079803467,-1.172444224357605,-0.03412635624325361,-0.06994288551486788,0.02347113299416192,-0.9966907697432454
2025/07/05/17:49:47.511767,5873,1751712587,521147008,map,12.028337478637695,-7.372054576873779,-1.1813557147979736,-0.02327118099880053,-0.06839215650912145,0.03560560728406447,-0.9967513259549174
2025/07/05/17:49:47.611674,5874,1751712587,621147008,map,12.147445678710938,-7.369228363037109,-1.1844360828399658,-0.012835325151124807,-0.06632374565147017,0.06376674739545501,-0.9956757590288257
2025/07/05/17:49:47.691993,5875,1751712587,701147008,map,12.24217700958252,-7.372649669647217,-1.1852028369903564,-0.016270543858163605,-0.06591915112999666,0.07399288278727628,-0.9949447161594903
2025/07/05/17:49:47.792248,5876,1751712587,802147008,map,12.363037109375,-7.377687931060791,-1.1852110624313354,-0.021296249839508896,-0.06491597969537623,0.08677541164227554,-0.9938824946930478
2025/07/05/17:49:47.891521,5877,1751712587,901147008,map,12.484649658203125,-7.3870158195495605,-1.1850064992904663,-0.023492153819037822,-0.0639274149592522,0.09957381346724126,-0.9926965598797859
2025/07/05/17:49:48.012019,5878,1751712588,22147008,map,12.634222030639648,-7.4015350341796875,-1.1833709478378296,-0.021541917903099925,-0.06296519106706745,0.11436357691690452,-0.99120749732925
2025/07/05/17:49:48.111948,5879,1751712588,121147008,map,12.756616592407227,-7.413691520690918,-1.1806761026382446,-0.018624452696076182,-0.06241055205659313,0.1268237263013362,-0.9897847216444629
2025/07/05/17:49:48.211905,5880,1751712588,221147008,map,12.882522583007812,-7.428884506225586,-1.1770999431610107,-0.01505070598402535,-0.06216046192219137,0.13868126325659103,-0.9882697306123254
2025/07/05/17:49:48.291708,5881,1751712588,302147008,map,12.978385925292969,-7.448697566986084,-1.1730817556381226,-0.013552727703142439,-0.061608376886987906,0.14762690773104203,-0.9870293955009272
2025/07/05/17:49:48.433582,5882,1751712588,444147008,map,13.150188446044922,-7.486902713775635,-1.1682372093200684,-0.012116174563578807,-0.060992706086677256,0.1573135927100166,-0.9855889212378739
2025/07/05/17:49:48.591666,5883,1751712588,602147008,map,13.345290184020996,-7.546844482421875,-1.1652476787567139,-0.004260357480121278,-0.0620280544330254,0.16605555168614733,-0.9841544205924212
2025/07/05/17:49:48.670928,5884,1751712588,681147008,map,13.44068717956543,-7.586758136749268,-1.1629236936569214,0.014647163350424113,-0.06594602279298208,0.15715475551555447,-0.985260861651583
2025/07/05/17:49:48.771229,5885,1751712588,781147008,map,13.561666488647461,-7.638113021850586,-1.15955650806427,0.026801053095028,-0.06842617164669233,0.14166776301476386,-0.9871827629720688
2025/07/05/17:49:48.892828,5886,1751712588,902147008,map,13.710613250732422,-7.699291229248047,-1.1550265550613403,0.02276291014976104,-0.06791737782324256,0.12258714513537883,-0.9898694214686534
2025/07/05/17:49:48.992999,5887,1751712589,2147008,map,13.840137481689453,-7.749441623687744,-1.154866337776184,0.008380640279515935,-0.06522936243365779,0.1010225105299829,-0.9927080877635799
2025/07/05/17:49:49.071595,5888,1751712589,81147008,map,13.944140434265137,-7.781057834625244,-1.1534125804901123,-0.005700244358635384,-0.06278848429951699,0.0783189126262005,-0.9949327923928686
2025/07/05/17:49:49.192743,5889,1751712589,202147008,map,14.103837013244629,-7.823678493499756,-1.1514627933502197,-0.013660587802496906,-0.06135486583238081,0.055270458321816644,-0.9964909157721795
2025/07/05/17:49:49.270783,5890,1751712589,281147008,map,14.208547592163086,-7.847070693969727,-1.1484897136688232,-0.015095275127636873,-0.060751947311936366,0.03319767685152419,-0.9974864649799967
2025/07/05/17:49:49.392075,5891,1751712589,402147008,map,14.370573997497559,-7.8750529289245605,-1.1456133127212524,-0.014736484733789487,-0.060743547818683095,0.013095775806824746,-0.9979586955741743
2025/07/05/17:49:49.551429,5892,1751712589,560147008,map,14.583108901977539,-7.872365951538086,-1.1393675804138184,-0.04807286196443583,-0.06338159107712348,0.0027697576712726285,-0.9968270172389604
2025/07/05/17:49:49.651759,5893,1751712589,660147008,map,14.715558052062988,-7.860496997833252,-1.134253978729248,-0.0696924916704908,-0.06628686545029533,0.012787836519957237,-0.9952816080440108
2025/07/05/17:49:49.730285,5894,1751712589,740147008,map,14.821235656738281,-7.851003646850586,-1.1315743923187256,-0.07437077103772408,-0.06844016898276815,0.02616681331586784,-0.9945351826686459
2025/07/05/17:49:49.833479,5895,1751712589,843147008,map,14.955053329467773,-7.840273857116699,-1.1302968263626099,-0.060739789422902854,-0.06804845534993409,0.04599867793366135,-0.9947684189466935
2025/07/05/17:49:49.930758,5896,1751712589,940147008,map,15.087018013000488,-7.8293328285217285,-1.1297601461410522,-0.04287068008386156,-0.06566320993071725,0.06359875353658856,-0.9948897658531493
2025/07/05/17:49:50.033696,5897,1751712590,43147008,map,15.220419883728027,-7.822587490081787,-1.1288763284683228,-0.020219140132598862,-0.06187935780870164,0.09119250584291227,-0.9937032043460317
2025/07/05/17:49:50.111619,5898,1751712590,121147008,map,15.324265480041504,-7.819671630859375,-1.1280744075775146,-0.012059670261281285,-0.06016116794093133,0.10835132255798063,-0.9922173094262712
2025/07/05/17:49:50.212034,5899,1751712590,222147008,map,15.455004692077637,-7.821292877197266,-1.1257566213607788,-0.010844244917437651,-0.05949491117078049,0.12845522525197095,-0.9898696949611181
2025/07/05/17:49:50.291836,5900,1751712590,301147008,map,15.557908058166504,-7.831353664398193,-1.124578595161438,-0.012705276866198429,-0.059518093205622395,0.1424700650491572,-0.9879263399089069
2025/07/05/17:49:50.412283,5901,1751712590,422147008,map,15.71355152130127,-7.863697528839111,-1.1224898099899292,-0.011224032714928266,-0.05973361228886231,0.15271780855064476,-0.9863991015831404
2025/07/05/17:49:50.551503,5902,1751712590,560147008,map,15.895149230957031,-7.934553623199463,-1.1222305297851562,0.022023597639286133,-0.06469451314025763,0.14936159183865738,-0.9864181141889021
2025/07/05/17:49:50.633626,5903,1751712590,643147008,map,15.999995231628418,-7.974641799926758,-1.1222814321517944,0.0445039998372443,-0.06980534181749719,0.13198073349346268,-0.9877892964791412
2025/07/05/17:49:50.711349,5904,1751712590,721147008,map,16.105411529541016,-8.009698867797852,-1.1249340772628784,0.039879766626181666,-0.07089210722270693,0.11726915439340369,-0.9897635367981696
2025/07/05/17:49:50.833790,5905,1751712590,843147008,map,16.26461410522461,-8.063608169555664,-1.128479242324829,0.019062628529369123,-0.06860088471630321,0.09573678871270935,-0.9928569897506234
2025/07/05/17:49:50.930941,5906,1751712590,941147008,map,16.391916275024414,-8.111028671264648,-1.1292999982833862,-0.003947622841702541,-0.06501812608502094,0.07258213986292622,-0.9952330845220182
2025/07/05/17:49:51.012553,5907,1751712591,22147008,map,16.496503829956055,-8.146614074707031,-1.1288604736328125,-0.01804009045786153,-0.06188525740688799,0.04532126405727604,-0.9968905421741175
2025/07/05/17:49:51.111863,5908,1751712591,121147008,map,16.63066864013672,-8.195473670959473,-1.1281583309173584,-0.0180067248915752,-0.06129299269393511,0.028629513992777907,-0.9975466294032764
2025/07/05/17:49:51.211827,5909,1751712591,222147008,map,16.767261505126953,-8.238593101501465,-1.1253588199615479,-0.012078993135345132,-0.06205522616123399,0.008848904430846679,-0.9979603918599615
2025/07/05/17:49:51.291647,5910,1751712591,301147008,map,16.871097564697266,-8.265049934387207,-1.1241436004638672,-0.007015599330297514,-0.06242447921708001,-0.007046935334204866,-0.9980001535385195
2025/07/05/17:49:51.371132,5911,1751712591,381147008,map,16.977039337158203,-8.288695335388184,-1.1228920221328735,-0.004512558515057186,-0.06284997158705763,-0.02294467904108272,-0.9977489962865691
2025/07/05/17:49:51.571384,5912,1751712591,581147008,map,17.248661041259766,-8.326316833496094,-1.1283209323883057,-0.007219058085408065,-0.06241721839759342,-0.056187151605434534,-0.9964411573406301
2025/07/05/17:49:51.672216,5913,1751712591,681147008,map,17.384838104248047,-8.331650733947754,-1.1311681270599365,-0.013588169579275168,-0.0625144400711312,-0.08541544864365558,-0.994289448582796
2025/07/05/17:49:51.751837,5914,1751712591,760147008,map,17.495222091674805,-8.33143138885498,-1.1325191259384155,-0.015769197202380365,-0.06295420728215008,-0.10153344054276181,-0.9927129799980545
2025/07/05/17:49:51.830226,5915,1751712591,841147008,map,17.603191375732422,-8.32502555847168,-1.1332615613937378,-0.015543311766937391,-0.06292909946405757,-0.12103132515098486,-0.9905300360070638
2025/07/05/17:49:51.952354,5916,1751712591,960147008,map,17.761850357055664,-8.307798385620117,-1.1338179111480713,-0.013769527491521072,-0.0629786746640693,-0.13604345785394423,-0.9886031884559949
2025/07/05/17:49:52.033495,5917,1751712592,43147008,map,17.86726951599121,-8.294776916503906,-1.1337401866912842,-0.01050006756375369,-0.06329695239974337,-0.1548735303883605,-0.9858485857286132
2025/07/05/17:49:52.111875,5918,1751712592,121147008,map,17.971385955810547,-8.278308868408203,-1.1322704553604126,-0.008087815470131125,-0.06322518553911184,-0.16966264386534047,-0.9834387375078779
2025/07/05/17:49:52.212294,5919,1751712592,222147008,map,18.101930618286133,-8.256499290466309,-1.1287891864776611,-0.005443325677204613,-0.06269844478996722,-0.1883574723168699,-0.9800820056754899
2025/07/05/17:49:52.293277,5920,1751712592,302147008,map,18.20547866821289,-8.229562759399414,-1.1275956630706787,-0.004520806136214583,-0.06258532228437126,-0.2028911715597645,-0.9771887290843803
2025/07/05/17:49:52.450466,5921,1751712592,461147008,map,18.409727096557617,-8.171638488769531,-1.1275824308395386,-0.003911020949966852,-0.06290542551032008,-0.22102627758021565,-0.9732291590244961
2025/07/05/17:49:52.591852,5922,1751712592,602147008,map,18.58209800720215,-8.112499237060547,-1.1299219131469727,-0.003065771196539172,-0.06369676165661811,-0.25729500454485826,-0.9642264278880205
2025/07/05/17:49:52.691616,5923,1751712592,702147008,map,18.70981788635254,-8.06611156463623,-1.1335190534591675,-0.002131065173292098,-0.06385155222687289,-0.275114759940064,-0.9592863528178471
2025/07/05/17:49:52.811780,5924,1751712592,821147008,map,18.862018585205078,-8.007562637329102,-1.135167121887207,-0.00102065498279411,-0.06382807245043806,-0.29287547136555175,-0.9540172397305373
2025/07/05/17:49:52.911694,5925,1751712592,921147008,map,18.983980178833008,-7.953421592712402,-1.1369469165802002,0.00044559087356254695,-0.06363090297987904,-0.3101562806123568,-0.9485536311835232
2025/07/05/17:49:53.013874,5926,1751712593,22147008,map,19.1031551361084,-7.897891521453857,-1.1394985914230347,0.0025603978826353965,-0.06294162550359873,-0.33135569039115736,-0.9414006599673951
2025/07/05/17:49:53.111918,5927,1751712593,121147008,map,19.223691940307617,-7.834726333618164,-1.1415530443191528,0.0035793239172316454,-0.06261245990421171,-0.34845771590276425,-0.9352240846625302
2025/07/05/17:49:53.211656,5928,1751712593,222147008,map,19.34151840209961,-7.770017623901367,-1.1422654390335083,0.0043751513988270225,-0.06307665817031255,-0.365086847368863,-0.9288238730365233
2025/07/05/17:49:53.291703,5929,1751712593,302147008,map,19.431753158569336,-7.717113971710205,-1.141029715538025,0.00516341233119503,-0.0632511745638602,-0.3785390322208342,-0.9234071849269445
2025/07/05/17:49:53.470622,5930,1751712593,481147008,map,19.627614974975586,-7.584782600402832,-1.1350117921829224,0.006231829748018587,-0.06310582169471338,-0.39481046912261886,-0.9165716082431334
2025/07/05/17:49:53.591456,5931,1751712593,602147008,map,19.751869201660156,-7.4873576164245605,-1.1321519613265991,0.00903136639796183,-0.06152285849936494,-0.42747438513064645,-0.9018863688737226
2025/07/05/17:49:53.691554,5932,1751712593,702147008,map,19.852609634399414,-7.402010440826416,-1.130260944366455,0.010673474812733064,-0.061042885887178835,-0.44358842306296453,-0.8940856524642922
2025/07/05/17:49:53.811584,5933,1751712593,821147008,map,19.970134735107422,-7.297260284423828,-1.1285979747772217,0.011696024465037735,-0.061407286340874764,-0.45980300756636294,-0.8858180075099455
2025/07/05/17:49:53.930446,5934,1751712593,940147008,map,20.07483673095703,-7.190601348876953,-1.1269927024841309,0.012367893318881324,-0.061373248610195746,-0.4756814031943727,-0.8773867802884407
2025/07/05/17:49:54.013678,5935,1751712594,24147008,map,20.1434268951416,-7.117117881774902,-1.1260559558868408,0.01310213066022292,-0.06101517396306945,-0.49460555383266436,-0.8668741712822584
2025/07/05/17:49:54.091324,5936,1751712594,102147008,map,20.20939064025879,-7.03955602645874,-1.1280279159545898,0.013807089506001971,-0.06072409288032271,-0.5071941875925905,-0.8595789695516797
2025/07/05/17:49:54.192019,5937,1751712594,202147008,map,20.289796829223633,-6.941468715667725,-1.1297212839126587,0.015028816880057416,-0.060372520412121725,-0.5219993773327202,-0.8506738173392467
2025/07/05/17:49:54.291474,5938,1751712594,301147008,map,20.369415283203125,-6.840689182281494,-1.13089120388031,0.016578527349957916,-0.05955467608225646,-0.5370786452759162,-0.8412638835563019
2025/07/05/17:49:54.371081,5939,1751712594,380147008,map,20.430505752563477,-6.759927272796631,-1.1314646005630493,0.01717669553474218,-0.0593565389576424,-0.548911081495247,-0.8335936582203556
2025/07/05/17:49:54.530440,5940,1751712594,540147008,map,20.543167114257812,-6.581704139709473,-1.1353623867034912,0.0194706396709311,-0.058314363118412545,-0.5722872275688082,-0.8177454728743573
2025/07/05/17:49:54.633588,5941,1751712594,643147008,map,20.608240127563477,-6.467309474945068,-1.1390924453735352,0.020781746962882184,-0.05782434359495231,-0.5866124641843472,-0.8075334551240287
2025/07/05/17:49:54.711869,5942,1751712594,721147008,map,20.658029556274414,-6.3750128746032715,-1.1407054662704468,0.021394873401472034,-0.05772476482601037,-0.5976687812304071,-0.7993760935007229
2025/07/05/17:49:54.811705,5943,1751712594,821147008,map,20.717851638793945,-6.259947776794434,-1.1405514478683472,0.02174369491646267,-0.05751543354766777,-0.611745690544726,-0.7886611418950219
2025/07/05/17:49:54.952342,5944,1751712594,960147008,map,20.794939041137695,-6.097960948944092,-1.1374841928482056,0.02218206988760003,-0.05727457173263894,-0.6283080813339477,-0.7755362880863782
2025/07/05/17:49:55.033399,5945,1751712595,43147008,map,20.835590362548828,-6.0049872398376465,-1.1358096599578857,0.023683326636713423,-0.05665745007186844,-0.6445194389537545,-0.7621179214540948
2025/07/05/17:49:55.131824,5946,1751712595,140147008,map,20.881847381591797,-5.887753486633301,-1.1340522766113281,0.024724201622829692,-0.05619573608011015,-0.6550296300563667,-0.7531048644436894
2025/07/05/17:49:55.211639,5947,1751712595,222147008,map,20.916433334350586,-5.793760299682617,-1.1327530145645142,0.025510277551777493,-0.05580003701239881,-0.6652808347849951,-0.7440678681924293
2025/07/05/17:49:55.311413,5948,1751712595,321147008,map,20.953535079956055,-5.6701860427856445,-1.130255103111267,0.02670018262240442,-0.05501469255243315,-0.6781859883408803,-0.7323416204677945
2025/07/05/17:49:55.511072,5949,1751712595,521147008,map,21.014219284057617,-5.424323081970215,-1.1232948303222656,0.027256183226354935,-0.05493560425618802,-0.6932623820193488,-0.7180713401451122
2025/07/05/17:49:55.611450,5950,1751712595,621147008,map,21.038663864135742,-5.302004337310791,-1.1192982196807861,0.02853948223946985,-0.054231070262224075,-0.7153333465625036,-0.6960910086097977
2025/07/05/17:49:55.690846,5951,1751712595,702147008,map,21.05404281616211,-5.199461460113525,-1.1133532524108887,0.02914334499345681,-0.05376267140836612,-0.7248594433028016,-0.6861771112915243
2025/07/05/17:49:55.792083,5952,1751712595,802147008,map,21.070722579956055,-5.071524620056152,-1.1082502603530884,0.029905661157097113,-0.05368630829691994,-0.7365588337314897,-0.6735759171647341
2025/07/05/17:49:55.911735,5953,1751712595,921147008,map,21.08732795715332,-4.911408424377441,-1.102925419807434,0.030650865753454597,-0.05354473624271408,-0.7479728053829514,-0.6608556332943067
2025/07/05/17:49:55.992096,5954,1751712596,2147008,map,21.095699310302734,-4.805577754974365,-1.0998873710632324,0.03190308113379669,-0.05265660787869837,-0.7592233233681249,-0.6479115837170524
2025/07/05/17:49:56.111711,5955,1751712596,121147008,map,21.105741500854492,-4.64439582824707,-1.0945709943771362,0.03346038105681112,-0.050801576660449606,-0.770261440921132,-0.6348203803742021
2025/07/05/17:49:56.192781,5956,1751712596,202147008,map,21.10903549194336,-4.539309978485107,-1.090984582901001,0.03466799498397372,-0.0495608892727171,-0.7808937777464474,-0.6217288446382159
2025/07/05/17:49:56.291620,5957,1751712596,302147008,map,21.10025978088379,-4.395506381988525,-1.083037257194519,0.03536429173792762,-0.04900924637833436,-0.7913571718446125,-0.6083595049059387
2025/07/05/17:49:56.470787,5958,1751712596,481147008,map,21.0672664642334,-4.143648624420166,-1.0725511312484741,0.03573549409796906,-0.04905511809183665,-0.8015329234970946,-0.594862624814142
2025/07/05/17:49:56.551942,5959,1751712596,561147008,map,21.041799545288086,-4.032366752624512,-1.0646735429763794,0.036798901203217126,-0.04839364232630589,-0.8177516156387117,-0.5723514579110515
2025/07/05/17:49:56.630478,5960,1751712596,641147008,map,21.013748168945312,-3.9207818508148193,-1.0565955638885498,0.03800844954538756,-0.04700107355523663,-0.8278522870242648,-0.5576798792466022
2025/07/05/17:49:56.730472,5961,1751712596,740147008,map,20.974834442138672,-3.7826478481292725,-1.044108510017395,0.03888141265646052,-0.046037224436973355,-0.8357261893710064,-0.5458301440149623
2025/07/05/17:49:56.814172,5962,1751712596,824147008,map,20.941251754760742,-3.6735000610351562,-1.032725214958191,0.03946808630554381,-0.04542215416579638,-0.8452757151219565,-0.5309313171205686
2025/07/05/17:49:56.931304,5963,1751712596,941147008,map,20.88492774963379,-3.5062921047210693,-1.0148066282272339,0.03988764436798585,-0.04490998922772856,-0.852911444196787,-0.5185886009665943
2025/07/05/17:49:57.014493,5964,1751712597,24147008,map,20.845657348632812,-3.3977160453796387,-1.005010962486267,0.04086963138911053,-0.044378439074350094,-0.8638492059297892,-0.5001247612245516
2025/07/05/17:49:57.130700,5965,1751712597,140147008,map,20.782005310058594,-3.235589027404785,-0.9900894165039062,0.04186488545895835,-0.044395841717300974,-0.8707273911615008,-0.4879653172970465
2025/07/05/17:49:57.211827,5966,1751712597,222147008,map,20.737873077392578,-3.1313371658325195,-0.983314037322998,0.04286635157563461,-0.04437407280394984,-0.878962085653707,-0.4728837801708464
2025/07/05/17:49:57.311146,5967,1751712597,321147008,map,20.678861618041992,-3.000256299972534,-0.9734622240066528,0.04369570212604216,-0.044188622229724174,-0.8868319057499097,-0.4578943352184368
2025/07/05/17:49:57.491459,5968,1751712597,502147008,map,20.57004737854004,-2.7708053588867188,-0.9589409828186035,0.044560059973729235,-0.04273458236187328,-0.8944069416461977,-0.4429722104834443
2025/07/05/17:49:57.591289,5969,1751712597,602147008,map,20.50722312927246,-2.6467151641845703,-0.9526444673538208,0.04635116586743192,-0.03953735623228934,-0.9077078831589548,-0.4151563148212732
2025/07/05/17:49:57.691529,5970,1751712597,701147008,map,20.439531326293945,-2.5221145153045654,-0.9458692669868469,0.04685481439378804,-0.03932670752457845,-0.9146824335715341,-0.39951731146354064
2025/07/05/17:49:57.811625,5971,1751712597,821147008,map,20.353313446044922,-2.37935733795166,-0.9383068680763245,0.04721258353102092,-0.040222856567250165,-0.9214818652620773,-0.38343743395633634
2025/07/05/17:49:57.911636,5972,1751712597,921147008,map,20.276256561279297,-2.2724642753601074,-0.9322717785835266,0.0466117873101762,-0.042116753877883335,-0.9271543731031862,-0.3693755389331817
2025/07/05/17:49:57.991447,5973,1751712598,2147008,map,20.206066131591797,-2.1980443000793457,-0.9265396595001221,0.0405401058646476,-0.06131532410848715,-0.9270472440051882,-0.36766878876012776
2025/07/05/17:49:58.091453,5974,1751712598,101147008,map,20.112876892089844,-2.1056981086730957,-0.9208966493606567,0.03474425285876468,-0.0832627785012918,-0.9224722148483687,-0.37537336005938987
2025/07/05/17:49:58.170852,5975,1751712598,181147008,map,20.035995483398438,-2.034106492996216,-0.9177853465080261,0.03357173104764045,-0.09324956127380213,-0.916717213715402,-0.38704910318275937
2025/07/05/17:49:58.270827,5976,1751712598,281147008,map,19.942031860351562,-1.9395860433578491,-0.917364239692688,0.037151122453897206,-0.08720111091262198,-0.9092781881213579,-0.4052516958172547
2025/07/05/17:49:58.351949,5977,1751712598,361147008,map,19.868600845336914,-1.8610483407974243,-0.9177830219268799,0.04240759830786329,-0.07103391529596786,-0.9032664279830449,-0.4210291421769222
2025/07/05/17:49:58.530566,5978,1751712598,540147008,map,19.72072410583496,-1.665144920349121,-0.915424644947052,0.0565092622360136,-0.028933922774652048,-0.8947621451635572,-0.4420070530848137
2025/07/05/17:49:58.612240,5979,1751712598,622147008,map,19.663602828979492,-1.5710363388061523,-0.9118736386299133,0.07278084064696377,0.010775429061122232,-0.8939760367039851,-0.44203357922481995
2025/07/05/17:49:58.691236,5980,1751712598,702147008,map,19.60875701904297,-1.4743545055389404,-0.9071863889694214,0.07937147125531994,0.023170213282964695,-0.8968117901977,-0.4346169850909928
2025/07/05/17:49:58.811732,5981,1751712598,822147008,map,19.524290084838867,-1.332909107208252,-0.9031071662902832,0.076122505161574,0.012928652202980076,-0.9034283029496905,-0.42172919698496425
2025/07/05/17:49:58.910957,5982,1751712598,921147008,map,19.452180862426758,-1.2099294662475586,-0.9052433967590332,0.06553428679623058,-0.012440980247613889,-0.9119991748987095,-0.4047319906415371
2025/07/05/17:49:59.011667,5983,1751712599,21147008,map,19.378196716308594,-1.0904690027236938,-0.9074534177780151,0.05383712646355274,-0.037323534778777576,-0.9221295709757238,-0.3812945998803187
2025/07/05/17:49:59.110807,5984,1751712599,121147008,map,19.301664352416992,-0.9677006006240845,-0.9096627831459045,0.05021521083406686,-0.04305908127750742,-0.9298237795462778,-0.36201116987007737
2025/07/05/17:49:59.211794,5985,1751712599,222147008,map,19.22136116027832,-0.8508779406547546,-0.9095652103424072,0.051434989006312264,-0.03775774954420994,-0.9367263984865978,-0.3441982693646278
2025/07/05/17:49:59.292832,5986,1751712599,302147008,map,19.15503692626953,-0.7577263116836548,-0.9092327952384949,0.05401817553854483,-0.030596008298757416,-0.9416778956495456,-0.33073956798773413
2025/07/05/17:49:59.470877,5987,1751712599,481147008,map,18.996658325195312,-0.5610125064849854,-0.9103919267654419,0.05692210882429597,-0.023601842906765598,-0.9474694307802589,-0.3138542723547527
2025/07/05/17:49:59.571245,5988,1751712599,580147008,map,18.90074920654297,-0.4613088369369507,-0.9123927354812622,0.057046473004268454,-0.025925053895692794,-0.9559085527541464,-0.2869014295359159
2025/07/05/17:49:59.651867,5989,1751712599,660147008,map,18.814453125,-0.39450502395629883,-0.9126104116439819,0.05229646218193151,-0.045042646871427394,-0.9580129040994975,-0.27829393738440783
2025/07/05/17:49:59.752103,5990,1751712599,760147008,map,18.70082664489746,-0.3209691047668457,-0.9099939465522766,0.044816840646900495,-0.07882454423175882,-0.9545682347595751,-0.2838619861994112
2025/07/05/17:49:59.852186,5991,1751712599,860147008,map,18.59004783630371,-0.248159259557724,-0.9075289964675903,0.041806245297598986,-0.09795044762504612,-0.9488351201416048,-0.2972706888511485
2025/07/05/17:49:59.951372,5992,1751712599,961147008,map,18.48086929321289,-0.17059683799743652,-0.9092026948928833,0.04529069449159282,-0.08871374505248511,-0.9437907214748011,-0.3151788357255387
2025/07/05/17:50:00.071262,5993,1751712600,81147008,map,18.351802825927734,-0.06842070817947388,-0.9151685237884521,0.05329032986731017,-0.051637016186359366,-0.9385936443572771,-0.33695063447651824
2025/07/05/17:50:00.191782,5994,1751712600,201147008,map,18.225852966308594,0.04272228479385376,-0.9232869744300842,0.06052998300851623,-0.016335638167104635,-0.9346592788241459,-0.3499732855384671
2025/07/05/17:50:00.270727,5995,1751712600,281147008,map,18.14226722717285,0.12035316228866577,-0.9250640869140625,0.06521965275602701,0.004922380312840499,-0.9320001657227444,-0.35650786549417973
2025/07/05/17:50:00.433887,5996,1751712600,443147008,map,17.98250961303711,0.28363561630249023,-0.9237496852874756,0.06965520186088736,0.016354247951304305,-0.9336307204332833,-0.3510190440572914
2025/07/05/17:50:00.551133,5997,1751712600,560147008,map,17.85817527770996,0.4096657633781433,-0.9231605529785156,0.06892365051108715,0.0036041585755177013,-0.9424050872693793,-0.327275406851755
2025/07/05/17:50:00.612627,5998,1751712600,622147008,map,17.79633331298828,0.47147035598754883,-0.923189103603363,0.06372963539132376,-0.013608243284949311,-0.9490517387335267,-0.30830852484882204
2025/07/05/17:50:00.712032,5999,1751712600,721147008,map,17.690196990966797,0.5733522772789001,-0.9227976202964783,0.058872053677555575,-0.025467819731643804,-0.9540679362222217,-0.29264286173862797
2025/07/05/17:50:00.811747,6000,1751712600,821147008,map,17.57939338684082,0.6667110323905945,-0.9225375056266785,0.05353735970330739,-0.037465612841960684,-0.9586311517026627,-0.27704944316060487
2025/07/05/17:50:00.911672,6001,1751712600,921147008,map,17.46262550354004,0.7490626573562622,-0.9194853901863098,0.04975709681538662,-0.05066503388812373,-0.9595636652354975,-0.2723873308680817
2025/07/05/17:50:01.011568,6002,1751712601,22147008,map,17.343076705932617,0.8228884935379028,-0.9187713861465454,0.04629220942174039,-0.07038483220781815,-0.9571029892254986,-0.27723072477188776
2025/07/05/17:50:01.091734,6003,1751712601,101147008,map,17.249608993530273,0.8796005249023438,-0.9193218350410461,0.04709262555265171,-0.07770957976278593,-0.9528112122984314,-0.28964512692265787
2025/07/05/17:50:01.191298,6004,1751712601,202147008,map,17.133228302001953,0.9484976530075073,-0.9207173585891724,0.05027428913459265,-0.07038441246173799,-0.9477558765769796,-0.30704613455998475
2025/07/05/17:50:01.291841,6005,1751712601,301147008,map,17.01759910583496,1.0256224870681763,-0.9244111776351929,0.053395501383758835,-0.05305583863403437,-0.942403093995722,-0.3258993814754897
2025/07/05/17:50:01.450420,6006,1751712601,461147008,map,16.84363555908203,1.16409170627594,-0.9299605488777161,0.05585502865148553,-0.03028426941098136,-0.9379566540146567,-0.3408817888802721
2025/07/05/17:50:01.611829,6007,1751712601,621147008,map,16.69336700439453,1.322115182876587,-0.9302749633789062,0.0672368473777871,0.01459669623520241,-0.9373006442007269,-0.34166305798932345
2025/07/05/17:50:01.691705,6008,1751712601,702147008,map,16.616729736328125,1.401967167854309,-0.9307649731636047,0.07150551572080388,0.018528336478949827,-0.9414318174924534,-0.32901336596205477
2025/07/05/17:50:01.771138,6009,1751712601,781147008,map,16.539287567138672,1.4809162616729736,-0.9334524869918823,0.07082744739503286,0.01040513577783246,-0.9459497073006732,-0.3163137004663557
2025/07/05/17:50:01.871664,6010,1751712601,881147008,map,16.441606521606445,1.5780268907546997,-0.9364370107650757,0.06667282649886057,-0.005916951430267711,-0.9522034302680746,-0.2980408550486606
2025/07/05/17:50:01.991380,6011,1751712602,2147008,map,16.318241119384766,1.6878671646118164,-0.9413376450538635,0.05833772175732985,-0.025472498262600278,-0.9589367487758494,-0.2763841057290192
2025/07/05/17:50:02.091541,6012,1751712602,102147008,map,16.211345672607422,1.7688802480697632,-0.9430113434791565,0.052164075250456174,-0.04086401179365344,-0.9620566860308539,-0.2646808921262049
2025/07/05/17:50:02.192640,6013,1751712602,202147008,map,16.09705352783203,1.8357625007629395,-0.9419634938240051,0.04711232383395989,-0.06464140368323218,-0.9604329813493933,-0.2667778218089753
2025/07/05/17:50:02.291561,6014,1751712602,301147008,map,15.982403755187988,1.898667573928833,-0.9419536590576172,0.045780266376225655,-0.07933849077616942,-0.9568733995598409,-0.27568617721364735
2025/07/05/17:50:02.411030,6015,1751712602,422147008,map,15.843687057495117,1.9747498035430908,-0.9412363767623901,0.047887865831078104,-0.08101107601009784,-0.9517714247891531,-0.29201902818935677
2025/07/05/17:50:02.551076,6016,1751712602,560147008,map,15.690808296203613,2.07712721824646,-0.9382249712944031,0.05357649872498941,-0.05347919145070502,-0.9452879887464871,-0.31733287443593217
2025/07/05/17:50:02.633975,6017,1751712602,644147008,map,15.609236717224121,2.1458473205566406,-0.9356552958488464,0.06200526158654474,-0.002641924675946401,-0.9425073304022304,-0.3283721972208541
2025/07/05/17:50:02.730366,6018,1751712602,740147008,map,15.513432502746582,2.2350735664367676,-0.9292749166488647,0.06982396003771432,0.026683056055333044,-0.943591282938503,-0.32256490802111376
2025/07/05/17:50:02.811747,6019,1751712602,822147008,map,15.435816764831543,2.3064732551574707,-0.9245498776435852,0.07488833307748861,0.03757055134246283,-0.9469950548905712,-0.3101299038362837
