time,.header.seq,.header.stamp.secs,.header.stamp.nsecs,.header.frame_id,.twist.linear.x,.twist.linear.y,.twist.linear.z,.twist.angular.x,.twist.angular.y,.twist.angular.z
2025/07/05/17:49:30.972055,10278,1751712570,980147008,base_link,0.18617660032789154,-0.05912241360189442,0.03435830668324083,-0.01168871857225895,0.004158601630479106,0.0719638392329216
2025/07/05/17:49:31.092516,10279,1751712571,101147008,base_link,0.18478434105334893,-0.056488526840640874,0.03068429186802539,-0.016771523281931877,0.00599764473736287,0.071419857442379
2025/07/05/17:49:31.192772,10280,1751712571,201147008,base_link,0.18245151436485638,-0.05559786311410191,0.02669114482352511,-0.011379501782357693,0.0035487073473632422,0.06960573047399521
2025/07/05/17:49:31.271529,10281,1751712571,281147008,base_link,0.17944229159772562,-0.05707794173392939,0.02486121329946423,-0.0006538545712828636,0.00040591601282359053,0.07207375764846802
2025/07/05/17:49:31.392709,10282,1751712571,402147008,base_link,0.1737838568330505,-0.060361776690496395,0.027171103827465487,0.004426470957696438,-0.001195227727293959,0.07524549961090088
2025/07/05/17:49:31.551587,10283,1751712571,560147008,base_link,0.16701812426328635,-0.061699894631465316,0.03195325494871478,-0.012638567946851254,-0.0015185619704425246,0.07295415550470352
2025/07/05/17:49:31.634946,10284,1751712571,643147008,base_link,0.1649870990229101,-0.06077610146480095,0.030652910550623656,-0.028365161269903183,0.001211396418511876,0.06918467581272125
2025/07/05/17:49:31.693345,10285,1751712571,702147008,base_link,0.164590560762199,-0.0574337691275467,0.029453555085710386,-0.03082231804728508,0.003030325984582313,0.06723479181528091
2025/07/05/17:49:31.793208,10286,1751712571,802147008,base_link,0.16311958908543955,-0.05314711320596762,0.025511691406756194,-0.020271647721529007,0.002679647179320463,0.06858322769403458
2025/07/05/17:49:31.912928,10287,1751712571,921147008,base_link,0.16371228032202914,-0.04675681854952824,0.02495643649806976,0.0013195015490055084,0.00037874537520111485,0.07163453847169876
2025/07/05/17:49:32.012562,10288,1751712572,21147008,base_link,0.1617196510030437,-0.045440099576074235,0.02760255607390756,0.013025334104895592,3.0621886253365695e-05,0.07152236998081207
2025/07/05/17:49:32.092757,10289,1751712572,102147008,base_link,0.1631991468623276,-0.045320799359406506,0.028739176742564366,0.004032772034406662,0.0018787937005981888,0.06861516833305359
2025/07/05/17:49:32.193640,10290,1751712572,202147008,base_link,0.16341331569934073,-0.044587976135575684,0.028177148162587977,-0.015044129453599453,0.0031160467769950706,0.0635630339384079
2025/07/05/17:49:32.292181,10291,1751712572,302147008,base_link,0.1686561979627139,-0.04296903673383989,0.025892390216883623,-0.02459152415394783,0.001364382449537523,0.06020546332001686
2025/07/05/17:49:32.471769,10292,1751712572,480147008,base_link,0.17384723324588983,-0.04176183440279923,0.02611495471033555,-0.020479358732700348,-0.0018847268074750827,0.0604415163397789
2025/07/05/17:49:32.572759,10293,1751712572,580147008,base_link,0.17557742018716857,-0.04347753480295599,0.027434996061262616,-0.0036639440804719925,-0.001106626354157917,0.06139814481139183
2025/07/05/17:49:32.672539,10294,1751712572,681147008,base_link,0.17793189928616512,-0.04354031342482582,0.027421979250793593,0.0002789301797747612,0.0037052128463983614,0.06201029568910599
2025/07/05/17:49:32.772301,10295,1751712572,781147008,base_link,0.17933305469717897,-0.04051261593374372,0.026083740123745137,-0.004326709546148777,0.005813966970890768,0.06102733314037323
2025/07/05/17:49:32.872931,10296,1751712572,881147008,base_link,0.18343686652836155,-0.036633841917391136,0.02466042485406133,-0.011565422639250755,0.002716344548389323,0.05954157933592796
2025/07/05/17:49:32.972078,10297,1751712572,981147008,base_link,0.18647030649264046,-0.033946974453125216,0.025057493066480686,-0.015385294333100319,-0.0017884504050016334,0.057470232248306274
2025/07/05/17:49:33.072043,10298,1751712573,81147008,base_link,0.18948736985611841,-0.03252436014149415,0.026989223747604263,-0.011086591519415379,-0.003157791215926402,0.05776241049170494
2025/07/05/17:49:33.173523,10299,1751712573,181147008,base_link,0.19054333961294806,-0.03121570465383266,0.026822551874574968,-0.002214718610048294,-0.0003054703120142148,0.059592343866825104
2025/07/05/17:49:33.292788,10300,1751712573,301147008,base_link,0.1928823983725091,-0.02626296143175447,0.024915855215875637,-0.0009242016822099686,0.0028814657125622108,0.06188945472240448
2025/07/05/17:49:33.371651,10301,1751712573,381147008,base_link,0.2172742958401135,-0.025133043022872552,0.022985623647211965,-0.009489230811595917,0.002703694393858321,0.06140508875250816
2025/07/05/17:49:33.551508,10302,1751712573,560147008,base_link,0.30434954079766885,-0.05579680810512878,0.03653116417783742,-0.026579242199659348,-0.030320189893245687,0.0739666149020195
2025/07/05/17:49:33.615394,10303,1751712573,624147008,base_link,0.32552067277688834,-0.05704568193454104,0.04197500682867164,-0.09467463940382004,-0.026329793035984022,0.12835828959941864
2025/07/05/17:49:33.712751,10304,1751712573,721147008,base_link,0.36134003218675215,-0.05894086549747908,0.05100547501659432,-0.051028236746788025,-0.006583207286894304,0.14468997716903687
2025/07/05/17:49:33.812546,10305,1751712573,822147008,base_link,0.3889732123233311,-0.06508518236870944,0.057967576537562605,0.013052942231297493,0.015020533464849016,0.1706496775150299
2025/07/05/17:49:33.912824,10306,1751712573,921147008,base_link,0.43100234470493537,-0.06077576788426801,0.06291491424634868,0.03862486779689789,0.021355116739869142,0.18690012395381927
2025/07/05/17:49:33.992781,10307,1751712574,2147008,base_link,0.4606066321438782,-0.0596545575337366,0.06669227314172954,0.027703553438186646,0.01518791820853951,0.19402152299880981
2025/07/05/17:49:34.092875,10308,1751712574,102147008,base_link,0.4957985374088579,-0.06782723703066142,0.07769314337428279,-0.007970428094267845,0.00587024632841351,0.19096413254737854
2025/07/05/17:49:34.212824,10309,1751712574,221147008,base_link,0.5341694257742748,-0.06891594382049668,0.08118201412932008,-0.04201819747686386,0.0030907534528523918,0.19050933420658112
2025/07/05/17:49:34.292838,10310,1751712574,302147008,base_link,0.5592687952955175,-0.07445723849936203,0.08631645575021712,-0.06266884505748749,0.004509954247623706,0.19728407263755798
2025/07/05/17:49:34.512857,10311,1751712574,521147008,base_link,0.6298990550279381,-0.059439324063457796,0.09231747688583275,-0.05577681586146355,0.0018743394175544628,0.20197463035583496
2025/07/05/17:49:34.592833,10312,1751712574,602147008,base_link,0.6472160722891368,-0.08432372955804884,0.09626465343015031,-0.024503344669938087,-0.005909791216254207,0.2186843305826187
2025/07/05/17:49:34.692729,10313,1751712574,702147008,base_link,0.6728781668111947,-0.07854653572494887,0.10331409042481922,-0.004284988157451153,-0.002918102312833043,0.22714707255363464
2025/07/05/17:49:34.793071,10314,1751712574,801147008,base_link,0.6947388846332465,-0.08219624011359815,0.10674161801987156,-0.002254325896501541,0.0027385791763663574,0.23131589591503143
2025/07/05/17:49:34.912944,10315,1751712574,922147008,base_link,0.7257069465570093,-0.07771126419603172,0.11314183891108902,-0.02764163352549076,0.006643993780016927,0.22824934124946594
2025/07/05/17:49:35.012689,10316,1751712575,22147008,base_link,0.7435602595848241,-0.09188555610683223,0.1149808046109812,-0.058167606592178345,0.0026219037827104603,0.22152367234230042
2025/07/05/17:49:35.093004,10317,1751712575,102147008,base_link,0.762912490503044,-0.050671629288200036,0.1183515688261676,-0.04756183922290802,-0.0009533020202070209,0.21721914410591125
2025/07/05/17:49:35.212801,10318,1751712575,221147008,base_link,0.785022674511504,0.014745268824298859,0.12273893507179698,0.07704520225524902,-0.00033686286769805496,0.15032464265823364
2025/07/05/17:49:35.292478,10319,1751712575,301147008,base_link,0.8030660721715714,0.02887842908825427,0.12028568597459889,0.19936609268188477,0.010021824389696128,0.05356692150235176
2025/07/05/17:49:35.412813,10320,1751712575,422147008,base_link,0.8252784985397511,0.0914597592889068,0.12578451913928737,0.10337220132350922,0.0059552276507020005,0.008746590465307236
2025/07/05/17:49:35.551839,10321,1751712575,560147008,base_link,0.8379716760021274,0.16572805542011795,0.13192631548474565,0.018688414245843887,-0.0015102315228432584,-0.13618947565555573
2025/07/05/17:49:35.634473,10322,1751712575,643147008,base_link,0.8417819728543056,0.2023563635706673,0.12815168182476647,0.018757067620754242,0.002186054131016105,-0.24843347072601318
2025/07/05/17:49:35.711897,10323,1751712575,721147008,base_link,0.8508796099248428,0.22869481391591867,0.1327174401185312,-0.030448351055383682,-0.0043014017865062116,-0.29088595509529114
2025/07/05/17:49:35.792784,10324,1751712575,802147008,base_link,0.8556635552889535,0.25330440686558536,0.12766595604605321,-0.060152314603328705,-0.014107462950050869,-0.317559152841568
2025/07/05/17:49:35.893015,10325,1751712575,902147008,base_link,0.8666530959058616,0.24576368110716892,0.13754146451741234,-0.04350215196609497,-0.0272973515093327,-0.3308165371417999
2025/07/05/17:49:36.012793,10326,1751712576,22147008,base_link,0.8856688868488335,0.11940068966173373,0.14878539195013546,-0.07201848924160004,-0.019684474915266068,-0.25404471158981323
2025/07/05/17:49:36.092755,10327,1751712576,101147008,base_link,0.8814939285221886,0.06252267260828194,0.15671692441027008,-0.29180148243904114,-0.01413981802761556,-0.09745784103870392
2025/07/05/17:49:36.192705,10328,1751712576,201147008,base_link,0.8884053519824284,0.0456768234898194,0.16115452583987855,-0.40800991654396057,-0.0032104300335049547,0.06841778010129929
2025/07/05/17:49:36.292689,10329,1751712576,301147008,base_link,0.8948749251245248,0.02442991965558427,0.15478183961896955,-0.11662119626998901,0.006373083218932173,0.1684972643852234
2025/07/05/17:49:36.371691,10330,1751712576,381147008,base_link,0.9121234620140504,0.00787985758954751,0.1543123454625468,0.18764469027519226,0.0026666719932109425,0.2524932622909546
2025/07/05/17:49:36.571773,10331,1751712576,580147008,base_link,0.9302143779875635,-0.024719668698143994,0.1565731788538486,0.24625468254089355,-0.005962583236396274,0.31894102692604065
2025/07/05/17:49:36.672022,10332,1751712576,681147008,base_link,0.9385870266195561,-0.05288620376607012,0.16495628918317862,0.023818794637918472,-0.008512344211339914,0.30210041999816895
2025/07/05/17:49:36.751709,10333,1751712576,760147008,base_link,0.9427990392389568,-0.06344402521984337,0.1678473956564273,-0.09635784476995468,-0.00280337617732581,0.28327077627182007
2025/07/05/17:49:36.833993,10334,1751712576,844147008,base_link,0.9498823350312282,-0.07496190489261645,0.17328503894152453,-0.16637331247329712,0.007929461076855692,0.2723039984703064
2025/07/05/17:49:36.951809,10335,1751712576,960147008,base_link,0.9613003523180719,-0.06808031656605894,0.1729006084001366,-0.1433967649936676,0.009675348177552256,0.27400216460227966
2025/07/05/17:49:37.051690,10336,1751712577,60147008,base_link,0.9703131079954382,-0.08056691612166796,0.1737431530288646,-0.03826688602566719,0.003475714474916494,0.2954736053943634
2025/07/05/17:49:37.151912,10337,1751712577,161147008,base_link,0.9790760531373061,-0.08709417053475889,0.1715127980932596,0.02760673128068447,-0.00046395743265744137,0.3174351453781128
2025/07/05/17:49:37.251602,10338,1751712577,260147008,base_link,0.9838455969503569,-0.08922611617545032,0.17566591813927934,0.04067431762814522,-0.004961747210472783,0.32066240906715393
2025/07/05/17:49:37.331661,10339,1751712577,340147008,base_link,0.9854762795431291,-0.09912952201159461,0.1787087077424056,0.017406728118658066,-0.0037090331315993872,0.3173507750034332
2025/07/05/17:49:37.511876,10340,1751712577,521147008,base_link,0.9842826972013042,-0.07917165336883955,0.18425205220957397,-0.02370034158229828,0.003250528359785715,0.3177697956562042
2025/07/05/17:49:37.592916,10341,1751712577,602147008,base_link,0.9844321683430377,-0.07888864890266468,0.18482925075651271,-0.04177239164710045,0.008871005848050154,0.29310956597328186
2025/07/05/17:49:37.692743,10342,1751712577,702147008,base_link,0.9826514687377238,0.03407385205166138,0.19279933914144184,-0.012937504798173904,0.005745048634707959,0.2543175220489502
2025/07/05/17:49:37.792228,10343,1751712577,801147008,base_link,0.9759425702336156,0.07817889839128353,0.1877463523020192,0.2187018096446991,0.018110290169715895,0.11307422816753387
2025/07/05/17:49:37.871573,10344,1751712577,880147008,base_link,0.9679877646687256,0.12172911319530115,0.1905221865220477,0.2621552050113678,0.027352182194590565,-0.015506913885474208
2025/07/05/17:49:37.992223,10345,1751712578,2147008,base_link,0.9660111737858819,0.1691408625679031,0.18227120783911183,0.04521934688091278,0.013159770518541319,-0.13476808369159698
2025/07/05/17:49:38.071738,10346,1751712578,80147008,base_link,0.9612554800159612,0.20869358084867184,0.17581053655764697,-0.08838038891553879,0.0023945295251905667,-0.20700380206108093
2025/07/05/17:49:38.171013,10347,1751712578,180147008,base_link,0.9554601746357833,0.2343195202451198,0.16517525767254573,-0.1527814418077469,-0.015932817012071644,-0.28733503818511963
2025/07/05/17:49:38.291781,10348,1751712578,301147008,base_link,0.9470795064704202,0.24968101960706254,0.16864742217876696,-0.1541709154844284,-0.03399772569537167,-0.31416693329811096
2025/07/05/17:49:38.412935,10349,1751712578,422147008,base_link,0.9453696080420676,0.24594503850415264,0.16605602955028298,-0.11238992214202881,-0.025577979162335434,-0.30354660749435425
2025/07/05/17:49:38.551672,10350,1751712578,561147008,base_link,0.933506479295637,0.2679531795498371,0.16436905795719556,0.03832617774605751,-0.010063849389553101,-0.24794869124889374
2025/07/05/17:49:38.651645,10351,1751712578,660147008,base_link,0.9307773649225477,0.27336812819267464,0.15889012659821786,0.09516825526952744,-0.005366100464016228,-0.23215283453464508
2025/07/05/17:49:38.730928,10352,1751712578,740147008,base_link,0.9292339175137728,0.27545547546081206,0.15837657669054456,0.07895378768444061,-0.0026205938775092637,-0.22443728148937225
2025/07/05/17:49:38.814486,10353,1751712578,824147008,base_link,0.9312556668400607,0.2785767118034349,0.15408503702506207,0.04067717492580414,-2.6307534426728124e-06,-0.22651074826717377
2025/07/05/17:49:38.931802,10354,1751712578,940147008,base_link,0.9453922754296654,0.19835523637582242,0.1524564196817817,0.011704953387379646,-0.00439001806080344,-0.21937379240989685
2025/07/05/17:49:39.012192,10355,1751712579,22147008,base_link,0.9320068919178998,0.0778510836537168,0.1604541155651707,-0.2423591911792755,-0.01926889829337598,-0.0924055352807045
2025/07/05/17:49:39.130867,10356,1751712579,140147008,base_link,0.9238350062458663,0.04092318353120674,0.16482958995576763,-0.4718239903450012,-0.017353439703583707,0.07358607649803162
2025/07/05/17:49:39.215745,10357,1751712579,221147008,base_link,0.9230047617888868,0.011947534454047786,0.16739188370227298,-0.25855007767677307,-0.0031594594474881653,0.1906190812587738
2025/07/05/17:49:39.311750,10358,1751712579,321147008,base_link,0.9184291663810631,-0.008855736067428312,0.15594904911890733,0.11436726152896881,0.00734696071594957,0.28282737731933594
2025/07/05/17:49:39.492827,10359,1751712579,502147008,base_link,0.9265097819711449,-0.024417587033389063,0.1548516256745384,0.3281303346157074,0.0016362169990316454,0.3439677953720093
2025/07/05/17:49:39.592623,10360,1751712579,602147008,base_link,0.9308691002694395,-0.06342584245754737,0.15610767747653295,0.17213164269924164,-0.00924352556467052,0.3551793396472931
2025/07/05/17:49:39.671794,10361,1751712579,681147008,base_link,0.9384913955563107,-0.0781760629883504,0.15685942525482516,-0.011666212230920792,-8.378457278009173e-05,0.3312325179576874
2025/07/05/17:49:39.771541,10362,1751712579,781147008,base_link,0.9466340796880666,-0.08725583449356838,0.15769757542243332,-0.13681510090827942,0.004473479464650192,0.31206566095352173
2025/07/05/17:49:39.892986,10363,1751712579,901147008,base_link,0.9604735974657225,-0.00022638086179197945,0.15744451934290438,-0.1520041972398758,-0.0006951335817575093,0.29586493968963623
2025/07/05/17:49:39.973679,10364,1751712579,981147008,base_link,0.9581471687129013,0.057256852012967374,0.1664699042121085,0.06246039271354675,0.0007468340918421985,0.19577568769454956
2025/07/05/17:49:40.073221,10365,1751712580,81147008,base_link,0.9508816750739122,0.13289902720265515,0.17289468202233044,0.37147387862205505,0.022544719278812412,0.04232942312955856
2025/07/05/17:49:40.191786,10366,1751712580,201147008,base_link,0.9493033545110356,0.15816368328230357,0.16127914896525616,0.37163159251213074,0.02934128418564795,-0.10045307129621506
2025/07/05/17:49:40.272969,10367,1751712580,281147008,base_link,0.9570879717617619,0.11976127384038836,0.15618011959366537,0.04484833776950836,0.008981261402368521,-0.19751037657260895
2025/07/05/17:49:40.450317,10368,1751712580,460147008,base_link,0.9585804393719483,-0.02617420816334267,0.17450940741435533,-0.4165942370891571,-0.030254293233156225,-0.17307358980178833
2025/07/05/17:49:40.551554,10369,1751712580,560147008,base_link,0.9597157268072596,-0.03390207156425716,0.16910898736992183,-0.6612744331359863,-0.04505978524684905,0.08105624467134476
2025/07/05/17:49:40.634110,10370,1751712580,643147008,base_link,0.958489106337436,-0.05107222348437039,0.15874979878307666,-0.2022300362586975,-0.021835748106241202,0.19538667798042297
2025/07/05/17:49:40.711963,10371,1751712580,721147008,base_link,0.9628903097187367,-0.054762759115825184,0.16584759139450989,0.18536722660064697,-0.008943859487771955,0.27487850189208984
2025/07/05/17:49:40.813000,10372,1751712580,821147008,base_link,0.9668943242737443,-0.07123146424300329,0.16756875228064344,0.4214722812175751,0.0016835459973663512,0.34391894936561584
2025/07/05/17:49:40.951671,10373,1751712580,961147008,base_link,0.9719135753274607,-0.0840418549238205,0.17146203485491673,0.32491636276245117,0.009636023081839128,0.351395845413208
2025/07/05/17:49:41.033997,10374,1751712581,44147008,base_link,0.9682213006527866,-0.11743357629573413,0.17717635284459518,-0.03579656407237053,-0.0030491854995488748,0.30424338579177856
2025/07/05/17:49:41.130383,10375,1751712581,140147008,base_link,0.9644898747708222,-0.11666125664963298,0.17841891241699312,-0.17841210961341858,-0.00797716341912743,0.28209295868873596
2025/07/05/17:49:41.211573,10376,1751712581,221147008,base_link,0.9610886926593959,-0.11917571493565059,0.18168392748688333,-0.22136005759239197,-0.00043058698065575625,0.27054932713508606
2025/07/05/17:49:41.291844,10377,1751712581,301147008,base_link,0.9579154288061826,-0.12440134012656338,0.17912667141846308,-0.17637254297733307,0.012781968340277705,0.27103230357170105
2025/07/05/17:49:41.414598,10378,1751712581,424147008,base_link,0.9566669884194077,-0.12330163088290438,0.17092234622813585,-0.08448585867881775,0.013168486766517197,0.2899366617202759
2025/07/05/17:49:41.530862,10379,1751712581,540147008,base_link,0.9580037573541983,-0.12917990612804364,0.1752328069367945,0.05453667417168617,0.0031133964657783925,0.339987576007843
2025/07/05/17:49:41.612475,10380,1751712581,622147008,base_link,0.9547970002902357,-0.1343616003234124,0.17703570018367024,0.08866716921329498,0.004150104708969634,0.3320496678352356
2025/07/05/17:49:41.711928,10381,1751712581,721147008,base_link,0.9557504171358365,-0.06065468062046659,0.18390606742943644,0.07295452058315277,0.009586093015968836,0.2978080213069916
2025/07/05/17:49:41.833425,10382,1751712581,843147008,base_link,0.9521787653301163,0.02028676603301762,0.18640372218537482,0.20046111941337585,0.023702125996351263,0.15946926176548004
2025/07/05/17:49:41.930867,10383,1751712581,940147008,base_link,0.9521583856468039,0.07953478789363483,0.18755944590538148,0.23008933663368225,0.03165771812200546,0.011995013803243634
2025/07/05/17:49:42.033668,10384,1751712582,43147008,base_link,0.9576848187250904,0.12495929479227208,0.17798074088914353,0.02843821793794632,0.021966814994811994,-0.1360127180814743
2025/07/05/17:49:42.112118,10385,1751712582,121147008,base_link,0.956309084530255,0.1721812093787344,0.16820877590979508,-0.1156727522611618,-0.005846197251230507,-0.23634934425354004
2025/07/05/17:49:42.211786,10386,1751712582,222147008,base_link,0.9585565964840055,0.19772304967986276,0.1576482486831008,-0.14616647362709045,-0.025106908753514325,-0.2924245595932007
2025/07/05/17:49:42.291507,10387,1751712582,302147008,base_link,0.9593278860724194,0.20946203743481034,0.15904252843519867,-0.15506428480148315,-0.036552492529153865,-0.31636473536491394
2025/07/05/17:49:42.433384,10388,1751712582,444147008,base_link,0.9663820523004202,0.07836066119703061,0.1684142990270659,-0.15696431696414948,-0.03309431672096256,-0.29460012912750244
2025/07/05/17:49:42.592344,10389,1751712582,602147008,base_link,0.9627620546941829,0.014280099447136105,0.16528568096076748,-0.4222128093242645,-0.018094381317496293,0.04548780992627144
2025/07/05/17:49:42.691558,10390,1751712582,702147008,base_link,0.9640925302188555,-0.002972756755584555,0.16096322413469544,-0.10725481808185577,-0.00405793637037275,0.18710993230342865
2025/07/05/17:49:42.792006,10391,1751712582,802147008,base_link,0.9669523265191756,-0.017901688506193496,0.15902309053502825,0.2155408263206482,-0.004258020780980554,0.2687458097934723
2025/07/05/17:49:42.911884,10392,1751712582,921147008,base_link,0.9764855890391146,0.016999499026786047,0.15396153809522517,0.32950133085250854,-0.0006465625483542301,0.3097786605358124
2025/07/05/17:49:43.012120,10393,1751712583,22147008,base_link,0.9654555082449678,0.13459308225669403,0.1569917768325477,0.2978942394256592,-0.004246493335813259,0.20527775585651398
2025/07/05/17:49:43.111983,10394,1751712583,121147008,base_link,0.9601856763363841,0.19663167966331535,0.15417839034326003,0.3528813421726227,0.018358243629336354,-0.017740301787853244
2025/07/05/17:49:43.212425,10395,1751712583,222147008,base_link,0.9563078711347676,0.22504944878820113,0.13612116103495758,0.1813313215970993,0.02086325734853742,-0.19170373678207397
2025/07/05/17:49:43.312067,10396,1751712583,321147008,base_link,0.9495218516991905,0.24645937948874136,0.1244987499582061,-0.1076352670788765,-0.014446015469729937,-0.2931000590324402
2025/07/05/17:49:43.450408,10397,1751712583,460147008,base_link,0.9476168909321091,0.2337345974237892,0.12279863816339598,-0.2735256552696228,-0.04082697629928593,-0.3375036418437958
2025/07/05/17:49:43.591609,10398,1751712583,602147008,base_link,0.953531056502974,0.20978908904786434,0.13940949688551987,-0.23469014465808868,-0.0435903146862984,-0.2544780373573303
2025/07/05/17:49:43.691466,10399,1751712583,702147008,base_link,0.9546024206739905,0.08643773236198826,0.14755835205168116,-0.11863301694393158,-0.016370994970202463,-0.12827198207378387
2025/07/05/17:49:43.792079,10400,1751712583,802147008,base_link,0.9503552032778203,0.04143999298996362,0.14180092448610374,-0.2131854146718979,0.008030978031456483,0.0997229740023613
2025/07/05/17:49:43.930386,10401,1751712583,940147008,base_link,0.9534850984503578,0.013220237133084215,0.1339205309825465,-0.059919536113739014,0.0187228433787823,0.22413189709186554
2025/07/05/17:49:44.015284,10402,1751712584,24147008,base_link,0.9563136542171511,-0.009439922689956583,0.1333551366964914,0.19706226885318756,0.007000763900578058,0.2992597818374634
2025/07/05/17:49:44.092903,10403,1751712584,102147008,base_link,0.9657680814697449,-0.020173116499129593,0.13100319322850734,0.230034738779068,0.00011721183545891438,0.3240066468715668
2025/07/05/17:49:44.212887,10404,1751712584,222147008,base_link,0.9815266808194076,0.04410373940658009,0.13777566280596332,0.1623331755399704,-0.0047452789731323355,0.298830509185791
2025/07/05/17:49:44.291849,10405,1751712584,301147008,base_link,0.9844901224792308,0.12674332153169507,0.14100657662706526,0.17676638066768646,0.0016230588080361691,0.16848573088645935
2025/07/05/17:49:44.413264,10406,1751712584,422147008,base_link,0.9848811659783552,0.1790820032631835,0.13741327667132372,0.28278693556785583,0.019502190873026848,0.005563945509493348
2025/07/05/17:49:44.551181,10407,1751712584,560147008,base_link,0.9850640468203095,0.21472765269006744,0.12049729976756003,0.10992583632469177,0.011898523196578003,-0.18581590056419373
2025/07/05/17:49:44.633747,10408,1751712584,643147008,base_link,0.9812209846180302,0.24006580597756141,0.11895616556671838,-0.13151682913303375,-0.018058851361274754,-0.2846190631389618
2025/07/05/17:49:44.712010,10409,1751712584,721147008,base_link,0.9843731353974167,0.23106639892797673,0.11727412797992416,-0.18953336775302887,-0.028975073248148003,-0.32446715235710144
2025/07/05/17:49:44.812823,10410,1751712584,822147008,base_link,0.9984540139444116,0.17334761517798306,0.12169447251970755,-0.2202666997909546,-0.041110347956419026,-0.2922945022583008
2025/07/05/17:49:44.892021,10411,1751712584,901147008,base_link,0.9905807527958796,0.046219535196600554,0.1299490121204652,-0.27298611402511597,-0.043780606240034124,-0.18245908617973328
2025/07/05/17:49:45.012151,10412,1751712585,22147008,base_link,0.9866758646781593,0.015676709726221257,0.14144819879886697,-0.437721848487854,-0.01467621140182017,0.09431323409080505
2025/07/05/17:49:45.092010,10413,1751712585,101147008,base_link,0.9936928955232381,-0.007648701244334048,0.13380554701676614,-0.20448175072669983,0.006662834435701393,0.1869419366121292
2025/07/05/17:49:45.211657,10414,1751712585,221147008,base_link,1.003538937497988,-0.02997564387534902,0.13403102215350937,0.1808125525712967,0.010823509655892884,0.2789299488067627
2025/07/05/17:49:45.291718,10415,1751712585,302147008,base_link,1.010554766966402,-0.056080040434635686,0.13480049893132864,0.36476191878318787,0.006730125285685104,0.3411371111869812
2025/07/05/17:49:45.433915,10416,1751712585,444147008,base_link,1.0293757475262093,-0.0022937612406979282,0.1385820076797993,0.28197383880615234,-0.0009532975964247754,0.34819310903549194
2025/07/05/17:49:45.591655,10417,1751712585,602147008,base_link,1.0348727333047416,0.12965444541060048,0.14280221650350047,0.24504375457763672,0.012461478821933278,0.06655290722846985
2025/07/05/17:49:45.671362,10418,1751712585,681147008,base_link,1.0294635684930586,0.16001215497329796,0.12988370244992029,0.18497596681118011,0.02331791818141936,-0.10810840129852295
2025/07/05/17:49:45.771371,10419,1751712585,781147008,base_link,1.026383608149541,0.19914122490148536,0.12602885057972701,0.004148597829043865,0.007689541205763788,-0.23694923520088196
2025/07/05/17:49:45.891657,10420,1751712585,901147008,base_link,1.0284861475368186,0.21736148727383517,0.11735181320664273,-0.17839178442955017,-0.022880507633090057,-0.3142959773540497
2025/07/05/17:49:45.971133,10421,1751712585,981147008,base_link,1.031098763351754,0.23016736705562799,0.11821813279583993,-0.22959421575069427,-0.043778616935014766,-0.34228262305259705
2025/07/05/17:49:46.071433,10422,1751712586,81147008,base_link,1.0364223564935904,0.20732455864087823,0.12336627984153586,-0.17106376588344574,-0.049888830631971394,-0.3110804557800293
2025/07/05/17:49:46.172400,10423,1751712586,181147008,base_link,1.0383942253195877,0.1644986268759335,0.12513006421222372,-0.09310899674892426,-0.03597588464617732,-0.22598867118358612
2025/07/05/17:49:46.291678,10424,1751712586,301147008,base_link,1.036831676037535,0.030951504139038653,0.1321392181799744,-0.1457582712173462,-0.012110748328268538,-0.0864182859659195
2025/07/05/17:49:46.392214,10425,1751712586,402147008,base_link,1.0392644492648437,0.0005455813820226791,0.132219908487403,-0.29482439160346985,0.013123900629580035,0.11441179364919662
2025/07/05/17:49:46.551183,10426,1751712586,560147008,base_link,1.054457984039586,-0.045036802950777825,0.12618112122325242,0.06952982395887375,0.016951177269220383,0.26597926020622253
2025/07/05/17:49:46.651874,10427,1751712586,661147008,base_link,1.0640517847976618,-0.08181940877563905,0.12115842208551503,0.2520582675933838,-0.0007518909405916526,0.32897046208381653
2025/07/05/17:49:46.752006,10428,1751712586,760147008,base_link,1.0724145976936035,-0.09286519050618897,0.12153098964743277,0.19446143507957458,-0.019657608121633488,0.3463529944419861
2025/07/05/17:49:46.833456,10429,1751712586,843147008,base_link,1.0832191576113699,-0.06488914797538554,0.12716914514788824,0.09852779656648636,-0.01773325726389881,0.31818830966949463
2025/07/05/17:49:46.931356,10430,1751712586,941147008,base_link,1.0847575529186806,0.006151405684333058,0.1287039519903268,0.08934187889099121,0.0020952553022653116,0.20497873425483704
2025/07/05/17:49:47.012540,10431,1751712587,22147008,base_link,1.0893248230801784,0.04986201860708163,0.13231777819676277,0.20588834583759308,0.029622079804539684,0.039878502488136285
2025/07/05/17:49:47.111780,10432,1751712587,121147008,base_link,1.090183940811711,0.08189886824689532,0.13077132485684353,0.17210432887077332,0.03226839378476142,-0.05915618687868119
2025/07/05/17:49:47.212007,10433,1751712587,222147008,base_link,1.0894705772354145,0.12527077676816242,0.12317931433360851,0.0272691510617733,0.010885001160204391,-0.16172106564044952
2025/07/05/17:49:47.293465,10434,1751712587,302147008,base_link,1.0933150098464732,0.13270764772118498,0.11785992565839962,-0.07398374378681183,-0.013176716864109069,-0.2369067519903183
2025/07/05/17:49:47.511755,10435,1751712587,521147008,base_link,1.123353672800069,0.14251222987236267,0.12752034585749328,-0.19648203253746033,-0.042808674275875126,-0.2665588855743408
2025/07/05/17:49:47.611696,10436,1751712587,621147008,base_link,1.1472182698721534,0.19117854638330561,0.12482266355959577,-0.006995894014835358,-0.012647844851017031,-0.2677055299282074
2025/07/05/17:49:47.692000,10437,1751712587,701147008,base_link,1.1682042565601247,0.19791730366917548,0.12613834871275326,0.08733025938272476,-0.006625243462622198,-0.2596830725669861
2025/07/05/17:49:47.792272,10438,1751712587,802147008,base_link,1.1926393210249961,0.20107253328232658,0.1264194042391456,0.12564727663993835,-0.01283656619489196,-0.2545732259750366
2025/07/05/17:49:47.891540,10439,1751712587,901147008,base_link,1.2155187432822736,0.20262861403052054,0.12548899678105657,0.07142776250839233,-0.01924617774784568,-0.2598942518234253
2025/07/05/17:49:48.012046,10440,1751712588,22147008,base_link,1.2497611577530592,0.21723815790311848,0.1262013534697858,-0.012165350839495659,-0.021557925269007714,-0.25903502106666565
2025/07/05/17:49:48.111994,10441,1751712588,121147008,base_link,1.2769424667566625,0.20857506864018507,0.13561752031128343,-0.0473981574177742,-0.019460586830973656,-0.25981491804122925
2025/07/05/17:49:48.211927,10442,1751712588,221147008,base_link,1.3007232071609398,0.2195813634941286,0.13536318653031046,-0.04579377546906471,-0.01627178490161899,-0.25648340582847595
2025/07/05/17:49:48.291795,10443,1751712588,302147008,base_link,1.301808002163737,0.1980832167678926,0.14091092973535688,-0.030802663415670395,-0.0157518703490496,-0.24228225648403168
2025/07/05/17:49:48.433659,10444,1751712588,444147008,base_link,1.3218827256466612,0.15514952731136736,0.150917084295744,-0.014727067202329636,-0.013657873496413257,-0.2140650749206543
2025/07/05/17:49:48.591731,10445,1751712588,602147008,base_link,1.3606131789805171,-0.017104520714384435,0.16158787366222185,-0.10215914994478226,-0.00010986556299031876,-0.08943868428468704
2025/07/05/17:49:48.670980,10446,1751712588,681147008,base_link,1.3585221135197552,-0.08091473186541034,0.16239640792647214,-0.38674280047416687,0.012724966742098347,0.12600065767765045
2025/07/05/17:49:48.771347,10447,1751712588,781147008,base_link,1.390537926207218,-0.12978132668812753,0.15756607685427163,-0.301070898771286,0.007906986400485073,0.2794712483882904
2025/07/05/17:49:48.892884,10448,1751712588,902147008,base_link,1.3929483488865655,-0.1661331670799013,0.15729880932098977,0.032319530844688416,-0.017649939283728554,0.3731015622615814
2025/07/05/17:49:48.993037,10449,1751712589,2147008,base_link,1.4043403018687781,-0.21408092470124707,0.15357830322575608,0.26077577471733093,-0.03253046423196787,0.43793487548828125
2025/07/05/17:49:49.071625,10450,1751712589,81147008,base_link,1.4161907317584936,-0.25331414686082043,0.1581437997173317,0.27284735441207886,-0.030249366536736433,0.46653759479522705
2025/07/05/17:49:49.192760,10451,1751712589,202147008,base_link,1.42079251180288,-0.26516036913778174,0.16376359693943265,0.1502385139465332,-0.01686642132699484,0.45990049839019775
2025/07/05/17:49:49.270840,10452,1751712589,281147008,base_link,1.4100626074012077,-0.2821110571749158,0.16542532096812307,0.007468665950000286,-0.0045630745589732595,0.43364524841308594
2025/07/05/17:49:49.392109,10453,1751712589,402147008,base_link,1.4156996558445307,-0.19252738162967276,0.17344234696239716,-0.04136466234922409,0.0012104948982596883,0.39592278003692627
2025/07/05/17:49:49.551466,10454,1751712589,560147008,base_link,1.3949361268244227,0.028534097784319416,0.19988068302546036,0.5244483947753906,0.04482805728912354,0.0318864993751049
2025/07/05/17:49:49.651834,10455,1751712589,660147008,base_link,1.4006085876790857,0.11184363951162221,0.1988231635854372,0.49391821026802063,0.057253312319517115,-0.17699943482875824
2025/07/05/17:49:49.730338,10456,1751712589,740147008,base_link,1.4048114224668122,0.14348260466957788,0.18122751519984592,0.22540777921676636,0.0417312383651733,-0.31948792934417725
2025/07/05/17:49:49.833525,10457,1751712589,843147008,base_link,1.4106063841153822,0.1831711346095152,0.15790297356516209,-0.22015061974525452,-0.038839150220155765,-0.4219158887863159
2025/07/05/17:49:49.930855,10458,1751712589,940147008,base_link,1.4056578759338751,0.213118569613722,0.14810806258559864,-0.4039158225059509,-0.0968585833907128,-0.471187025308609
2025/07/05/17:49:50.033735,10459,1751712590,43147008,base_link,1.3945652014120657,0.25413903498481927,0.15442108923672188,-0.34432119131088257,-0.10591819137334829,-0.4955146908760071
2025/07/05/17:49:50.111672,10460,1751712590,121147008,base_link,1.380299857177544,0.2702192080405708,0.15098519002507763,-0.2008216232061386,-0.06991387158632284,-0.46468019485473633
2025/07/05/17:49:50.212214,10461,1751712590,222147008,base_link,1.386360519091226,0.26268087805245477,0.16403974877090252,-0.006742911413311958,-0.0179447010159493,-0.417263925075531
2025/07/05/17:49:50.291875,10462,1751712590,301147008,base_link,1.3911479848028327,0.2240972409873926,0.16731223713589738,0.07178429514169693,0.007866483181714966,-0.3723364472389221
2025/07/05/17:49:50.412301,10463,1751712590,422147008,base_link,1.396910327191717,0.023000261706770705,0.16522051218410447,0.017681635916233063,0.008670236915349924,-0.2958679795265198
2025/07/05/17:49:50.551568,10464,1751712590,560147008,base_link,1.4051462492521614,-0.08434084442911452,0.19187993083424845,-0.5600040555000305,-0.006196436472237104,0.04763108491897583
2025/07/05/17:49:50.633657,10465,1751712590,643147008,base_link,1.4002948578171306,-0.13771596781067738,0.17458759503736648,-0.4203015863895416,0.018978564068675072,0.26682180166244507
2025/07/05/17:49:50.711374,10466,1751712590,721147008,base_link,1.414802595651402,-0.16553917451532965,0.1659614293134421,-0.00932035967707634,0.01863057166337971,0.353307843208313
2025/07/05/17:49:50.833816,10467,1751712590,843147008,base_link,1.4314628326817007,-0.20617170004665214,0.16040692510071353,0.3887985944747925,-0.011588351801037735,0.44511058926582336
2025/07/05/17:49:50.931298,10468,1751712590,941147008,base_link,1.4140474053119696,-0.24534109173463273,0.16345974584685044,0.44926223158836365,-0.03877683728933328,0.48733243346214294
2025/07/05/17:49:51.012598,10469,1751712591,22147008,base_link,1.399567785340448,-0.29396831139317076,0.1660555779155701,0.20830562710762024,-0.03535733371973032,0.4632038474082947
2025/07/05/17:49:51.111937,10470,1751712591,121147008,base_link,1.4013029584001464,-0.29714275106181254,0.17405163719134017,0.0051002176478505135,-0.015639858320355363,0.42064133286476135
2025/07/05/17:49:51.211955,10471,1751712591,222147008,base_link,1.3953775176191483,-0.3208374108211826,0.17114271208884135,-0.14722281694412231,0.01161234453320508,0.38020914793014526
2025/07/05/17:49:51.291772,10472,1751712591,301147008,base_link,1.3778982078539705,-0.32825226952385456,0.16654247413559695,-0.16098591685295105,0.015604962594807195,0.37691730260849
2025/07/05/17:49:51.371187,10473,1751712591,381147008,base_link,1.3787290990759373,-0.34219919256977077,0.1672925736595842,-0.11135648936033249,0.009691676124930429,0.38407036662101746
2025/07/05/17:49:51.571427,10474,1751712591,581147008,base_link,1.350515231875221,-0.3343921420436229,0.15347008169943105,0.030622143298387527,-0.0066124014556407425,0.4122667610645294
2025/07/05/17:49:51.672343,10475,1751712591,681147008,base_link,1.3335339291009838,-0.3538936773517063,0.15837447732122792,0.06841716915369034,-0.0022310463245957582,0.4146387279033661
2025/07/05/17:49:51.751874,10476,1751712591,760147008,base_link,1.3192936206822796,-0.3613411151806876,0.1564721262366487,0.04269002750515938,0.005915959831327249,0.40046006441116333
2025/07/05/17:49:51.830270,10477,1751712591,841147008,base_link,1.3145535938951265,-0.36373514930725975,0.15377602378189398,-0.020445087924599648,0.011284814216196584,0.38629549741744995
2025/07/05/17:49:51.952367,10478,1751712591,960147008,base_link,1.295054439940954,-0.346072238192337,0.1568430831904364,-0.06095238775014877,0.013451823033392474,0.36917492747306824
2025/07/05/17:49:52.033554,10479,1751712592,43147008,base_link,1.2904864386092283,-0.34959652182037926,0.15181070886759224,-0.08606550842523575,0.018601844087243125,0.36662203073501587
2025/07/05/17:49:52.112028,10480,1751712592,121147008,base_link,1.2923499178481006,-0.3543338418821578,0.1559090139529041,-0.08600257337093353,0.013737820088863418,0.3637399971485138
2025/07/05/17:49:52.212350,10481,1751712592,222147008,base_link,1.2796669400212064,-0.34598301503450996,0.14996579536101837,-0.07417809963226318,0.0046096937730908845,0.3655647337436676
2025/07/05/17:49:52.293401,10482,1751712592,302147008,base_link,1.2766973265349006,-0.34019734282074654,0.15291660264784623,-0.051826559007167816,0.004389235284179493,0.3624292016029358
2025/07/05/17:49:52.450493,10483,1751712592,461147008,base_link,1.2737400210906804,-0.30657740789434396,0.14669220727010687,-0.03197106719017029,0.01276568137109284,0.36050981283187866
2025/07/05/17:49:52.591916,10484,1751712592,602147008,base_link,1.2640370488336277,-0.3258670673671733,0.14991627329961987,-0.02809133566915989,0.012563950382173106,0.36471283435821533
2025/07/05/17:49:52.691738,10485,1751712592,702147008,base_link,1.2601744256577874,-0.3266386440852225,0.146803715173214,-0.036243438720703125,0.012231940403580709,0.3589574694633484
2025/07/05/17:49:52.811820,10486,1751712592,821147008,base_link,1.2568879694869233,-0.3157421818957455,0.14303470650385336,-0.044082120060920715,0.009596027433872266,0.3587251305580139
2025/07/05/17:49:52.911761,10487,1751712592,921147008,base_link,1.2541832959920143,-0.3165663234674938,0.14442477321349745,-0.05209220573306084,0.007546599023044153,0.35259363055229187
2025/07/05/17:49:53.013932,10488,1751712593,22147008,base_link,1.2580110853954745,-0.3259434526059674,0.14294013733702052,-0.05973421037197113,0.005249563604593321,0.3624705374240875
2025/07/05/17:49:53.111984,10489,1751712593,121147008,base_link,1.249349598749202,-0.32571420336061635,0.13874914301230976,-0.04256363585591316,0.005311938934028192,0.3551236689090729
2025/07/05/17:49:53.211748,10490,1751712593,222147008,base_link,1.2531874396793026,-0.32706780556355236,0.13952336671928825,-0.03674797713756561,0.016302896663546604,0.3520418703556061
2025/07/05/17:49:53.291771,10491,1751712593,302147008,base_link,1.2470802596591528,-0.32387960473131894,0.13947200475214075,-0.03560589998960495,0.017637748271226925,0.3512881398200989
2025/07/05/17:49:53.470753,10492,1751712593,481147008,base_link,1.2571513765545268,-0.28928293696262797,0.1468021816427709,-0.044195398688316345,0.010230461135506672,0.34406426548957825
2025/07/05/17:49:53.591476,10493,1751712593,602147008,base_link,1.2437195622987132,-0.3144241040011812,0.1445644803909666,-0.05266101285815239,0.0008734175935388037,0.3474995493888855
2025/07/05/17:49:53.691564,10494,1751712593,702147008,base_link,1.2355419865304345,-0.316477965983778,0.13909612808712482,-0.05181916058063507,0.010489881038665813,0.3459433317184448
2025/07/05/17:49:53.811742,10495,1751712593,821147008,base_link,1.240756486270888,-0.301467122854564,0.14081252985658788,-0.0404985174536705,0.01706762425601487,0.3563041090965271
2025/07/05/17:49:53.930466,10496,1751712593,940147008,base_link,1.2377231047646855,-0.29380880982554636,0.14665883412241254,-0.03256192058324814,0.011486731469631238,0.3501931428909302
2025/07/05/17:49:54.013693,10497,1751712594,24147008,base_link,1.2286138116601617,-0.31153940477325287,0.14311097985456722,-0.03656163811683655,0.005649632774293466,0.3506346344947815
2025/07/05/17:49:54.091346,10498,1751712594,102147008,base_link,1.2250360496522772,-0.3005258137435975,0.1400481519462979,-0.04040723294019699,0.006393930874764963,0.35624971985816956
2025/07/05/17:49:54.192050,10499,1751712594,202147008,base_link,1.221953387915531,-0.3020855203575817,0.13718082104446247,-0.045725710690021515,0.009840178303420585,0.3399337828159332
2025/07/05/17:49:54.291502,10500,1751712594,301147008,base_link,1.2191993175978557,-0.2972513466692625,0.13470169986054306,-0.0549379363656044,0.008635244332253975,0.3451113998889923
2025/07/05/17:49:54.371207,10501,1751712594,380147008,base_link,1.2181965448404002,-0.3020552680479808,0.13368129998693692,-0.03935907036066055,0.007681813556700987,0.3482588827610016
2025/07/05/17:49:54.530484,10502,1751712594,540147008,base_link,1.2214021018581522,-0.2968397167827344,0.13435693071068028,-0.05728236585855484,0.00870805419981484,0.34922119975090027
2025/07/05/17:49:54.633604,10503,1751712594,643147008,base_link,1.2254338155061677,-0.2897961493599399,0.1341748987260059,-0.050998978316783905,0.009778972715139432,0.34775790572166443
2025/07/05/17:49:54.711969,10504,1751712594,721147008,base_link,1.2197020775626186,-0.29395397018156244,0.13224213504853657,-0.03256376087665558,0.009873449802398723,0.337852418422699
2025/07/05/17:49:54.811790,10505,1751712594,821147008,base_link,1.2193844548711223,-0.2922332401895073,0.13186751748086042,-0.03310856968164444,0.004757301881909413,0.3491933345794678
2025/07/05/17:49:54.952416,10506,1751712594,960147008,base_link,1.2192147141784198,-0.2872427870632953,0.12802947228767475,-0.02752511575818062,0.0058077168650925584,0.348728746175766
2025/07/05/17:49:55.033481,10507,1751712595,43147008,base_link,1.2122744789026887,-0.30368155344923875,0.1309647533140386,-0.05023670196533203,0.012970766983926338,0.3453681766986847
2025/07/05/17:49:55.131852,10508,1751712595,140147008,base_link,1.2063083726231418,-0.28665177434403255,0.128157988378165,-0.0509677454829216,0.013334162533283275,0.3427773714065552
2025/07/05/17:49:55.211722,10509,1751712595,222147008,base_link,1.2049517925893323,-0.29394234689467363,0.13210430306871304,-0.047002144157886505,0.010139564052224201,0.3394419848918915
2025/07/05/17:49:55.311475,10510,1751712595,321147008,base_link,1.2093401756837585,-0.2890316431342819,0.1341782783118121,-0.04884307086467743,0.008021966554224533,0.3446212708950043
2025/07/05/17:49:55.511106,10511,1751712595,521147008,base_link,1.2074976397831434,-0.25419611582731566,0.13632387277689573,-0.03009505569934845,0.009432656690478367,0.3437820076942444
2025/07/05/17:49:55.611807,10512,1751712595,621147008,base_link,1.1934709967104182,-0.27807827105904853,0.1325096495406668,-0.03957253694534302,0.00926843471825127,0.3442351520061493
2025/07/05/17:49:55.690885,10513,1751712595,702147008,base_link,1.192016118225243,-0.2766991448633208,0.13429949692834642,-0.04182665795087814,0.006896885111928028,0.3417585790157318
2025/07/05/17:49:55.792113,10514,1751712595,802147008,base_link,1.1971767711497814,-0.28109484161659165,0.1399996098574501,-0.034349873661994934,0.01222746539860968,0.3422674834728241
2025/07/05/17:49:55.911892,10515,1751712595,921147008,base_link,1.199751008005387,-0.27216351565066826,0.14179111696899435,-0.029890786856412888,0.015181712806224865,0.34331661462783813
2025/07/05/17:49:55.992108,10516,1751712596,2147008,base_link,1.2022600033680175,-0.28157424184201196,0.1463600141740823,-0.05283728986978531,0.010280424728989643,0.34329354763031006
2025/07/05/17:49:56.111792,10517,1751712596,121147008,base_link,1.2022164988479476,-0.2709352348097196,0.146998239112179,-0.06852419674396515,0.004230491351336282,0.34094110131263733
2025/07/05/17:49:56.192830,10518,1751712596,202147008,base_link,1.1998441103035469,-0.28033780567509076,0.1477237417678676,-0.05929446965456009,0.0043053417466581275,0.33603569865226746
2025/07/05/17:49:56.291886,10519,1751712596,302147008,base_link,1.210215125769398,-0.2770577330611986,0.14872709744233048,-0.03935065492987633,0.008096495643258136,0.33946314454078674
2025/07/05/17:49:56.470832,10520,1751712596,481147008,base_link,1.2268718673783958,-0.23335922233449385,0.15405116080457024,-0.027292270213365555,0.008825442753732246,0.34058111906051636
2025/07/05/17:49:56.552112,10521,1751712596,561147008,base_link,1.2276065613818112,-0.27030844359407347,0.15922390934218505,-0.03563778102397919,0.007802502252161545,0.34725654125213623
2025/07/05/17:49:56.630511,10522,1751712596,641147008,base_link,1.2296338958523205,-0.2689052526794919,0.1589501996450088,-0.052709199488162994,0.008371396921575113,0.3543459177017212
2025/07/05/17:49:56.730556,10523,1751712596,740147008,base_link,1.2312222964297432,-0.24926302134314815,0.16298910160297522,-0.054885901510715485,0.00854706205427651,0.35734355449676514
2025/07/05/17:49:56.814247,10524,1751712596,824147008,base_link,1.2380235300190703,-0.2556283169709512,0.16854836596904982,-0.03942364826798439,0.00627447105944161,0.3552144467830658
2025/07/05/17:49:56.931324,10525,1751712596,941147008,base_link,1.2437483002249012,-0.23384181110294933,0.17218930630368093,-0.034966908395290375,0.005433183629065796,0.3607434034347534
2025/07/05/17:49:57.014521,10526,1751712597,24147008,base_link,1.2449442271695512,-0.25191468898081776,0.175823021742217,-0.03834507614374161,0.0119698997586966,0.36084258556365967
2025/07/05/17:49:57.131121,10527,1751712597,140147008,base_link,1.2584376342758758,-0.2244737283902455,0.18366869699919258,-0.03576044738292694,0.021210948005318687,0.35414618253707886
2025/07/05/17:49:57.211864,10528,1751712597,222147008,base_link,1.255756075011124,-0.2355463775877767,0.1895985290308555,-0.03080761432647705,0.02400571480393414,0.3467254042625427
2025/07/05/17:49:57.311195,10529,1751712597,321147008,base_link,1.2623026634125072,-0.22877118983330424,0.1995513501021133,-0.03620454668998718,0.016318755224347156,0.3475279211997986
2025/07/05/17:49:57.491602,10530,1751712597,502147008,base_link,1.2666488795260475,-0.2008718439259971,0.2026942271136294,-0.04921456426382065,0.00810920260846619,0.33743399381637573
2025/07/05/17:49:57.591309,10531,1751712597,602147008,base_link,1.2651886953532208,-0.2393309034829072,0.19934659508663966,-0.06138404458761215,0.006165256258100314,0.3472614288330078
2025/07/05/17:49:57.691757,10532,1751712597,701147008,base_link,1.2618117839061718,-0.24215062905283455,0.19544318903976163,-0.029580269008874893,0.011126000434160274,0.3470086455345154
2025/07/05/17:49:57.811757,10533,1751712597,821147008,base_link,1.275912093489128,-0.20454702956414805,0.19476066892167318,-0.011979052796959877,0.01608597114682202,0.3572744131088257
2025/07/05/17:49:57.911687,10534,1751712597,921147008,base_link,1.2553217913846797,-0.019008579325252944,0.20430883327575583,0.015937646850943565,0.008843440562486688,0.3195323646068573
2025/07/05/17:49:57.991560,10535,1751712598,2147008,base_link,1.2478094093006853,0.044378793749258946,0.21311276104492066,0.3583064079284668,0.027816705405712138,0.08551868051290512
2025/07/05/17:49:58.091502,10536,1751712598,101147008,base_link,1.2431782635809472,0.13141944893510238,0.22719847610935867,0.4882323741912842,0.04831871762871741,-0.13728933036327362
2025/07/05/17:49:58.170978,10537,1751712598,181147008,base_link,1.2493870816184478,0.16468336548026352,0.21162780969210465,0.3341096043586731,0.0521314553916454,-0.27870672941207886
2025/07/05/17:49:58.270871,10538,1751712598,281147008,base_link,1.2580029606243,0.1912162957883625,0.18931372113929273,-0.08354098349809647,-0.00041947280988101967,-0.39002445340156555
2025/07/05/17:49:58.351993,10539,1751712598,361147008,base_link,1.2707699324249322,0.1780771967184132,0.18718848842902305,-0.35331833362579346,-0.0612646602094174,-0.4345310628414154
2025/07/05/17:49:58.530718,10540,1751712598,540147008,base_link,1.2999846752134083,-0.014688942722497655,0.21728116127172994,-0.6362387537956238,-0.08944563567638401,-0.3414517343044281
2025/07/05/17:49:58.612275,10541,1751712598,622147008,base_link,1.30273213147288,-0.061863870377363184,0.2186239042026923,-0.7279606461524963,-0.05042447522282601,-0.0360523872077465
2025/07/05/17:49:58.691273,10542,1751712598,702147008,base_link,1.3096497239634222,-0.08710418790194475,0.20315615829210426,-0.4862947165966034,-0.009077188558876495,0.15970532596111298
2025/07/05/17:49:58.811848,10543,1751712598,822147008,base_link,1.3154907995824265,-0.12823394256665432,0.1916970217475138,0.14392633736133575,0.011088968254625835,0.3062520921230316
2025/07/05/17:49:58.911021,10544,1751712598,921147008,base_link,1.3271921482982856,-0.17417104343376805,0.18866131510733636,0.5251948237419128,0.0012220921926200902,0.4187219738960266
2025/07/05/17:49:59.011693,10545,1751712599,21147008,base_link,1.3201711699439154,-0.2259491835039529,0.19684862194001027,0.43607577681541443,-0.019036835059523527,0.4638468027114868
2025/07/05/17:49:59.110899,10546,1751712599,121147008,base_link,1.3213245584243154,-0.2538436880749365,0.20756244134928392,0.1279575675725937,-0.020793210715055414,0.43499046564102173
2025/07/05/17:49:59.211847,10547,1751712599,222147008,base_link,1.3166777860295225,-0.2644802720874053,0.2096943285895467,-0.1260703057050705,-0.010046106763184024,0.3830253481864929
2025/07/05/17:49:59.292910,10548,1751712599,302147008,base_link,1.3156469421724826,-0.276796766891767,0.20758596605612578,-0.21456879377365112,0.0007928339764476257,0.35460421442985535
2025/07/05/17:49:59.470953,10549,1751712599,481147008,base_link,1.3117146895194076,-0.2387855089001898,0.1983783217467876,-0.18791306018829346,0.009667539037764116,0.3519270718097687
2025/07/05/17:49:59.571296,10550,1751712599,580147008,base_link,1.3026548817231673,-0.1830624480076199,0.20212852950298305,0.04106144607067108,0.008317057043314023,0.361004114151001
2025/07/05/17:49:59.651926,10551,1751712599,660147008,base_link,1.2942731756229677,-0.04857186499365278,0.2253116240092859,0.32529494166374207,0.01463362667709592,0.2376406192779541
2025/07/05/17:49:59.752304,10552,1751712599,760147008,base_link,1.2764005902272473,0.0659103117742315,0.23667633487540657,0.7114332914352417,0.042729958891868584,-0.05778851732611657
2025/07/05/17:49:59.852338,10553,1751712599,860147008,base_link,1.2784042229322556,0.1006316375743738,0.21711067610869456,0.4618244469165802,0.040776252746582003,-0.25153928995132446
2025/07/05/17:49:59.951527,10554,1751712599,961147008,base_link,1.2954190376724088,0.11373482257064282,0.18702763830230681,-0.1314641684293747,-0.014316549524664924,-0.3688032031059265
2025/07/05/17:50:00.071345,10555,1751712600,81147008,base_link,1.3276123462151281,0.0670653271011763,0.17700093736871633,-0.6268306374549866,-0.096908450126648,-0.40975505113601685
2025/07/05/17:50:00.191829,10556,1751712600,201147008,base_link,1.3454264450834683,0.028623554100694695,0.1853781411702843,-0.7149913311004639,-0.11325996369123463,-0.32013455033302307
2025/07/05/17:50:00.270820,10557,1751712600,281147008,base_link,1.3538849938870114,-0.06365828833629085,0.19447871814635675,-0.45594045519828796,-0.06502831727266314,-0.1741197109222412
2025/07/05/17:50:00.433892,10558,1751712600,443147008,base_link,1.3602531768487025,-0.12893708258616504,0.1863497617397678,-0.24879468977451324,-0.004272687248885621,0.08448874950408936
2025/07/05/17:50:00.551225,10559,1751712600,560147008,base_link,1.3571728471552469,-0.19057801822538725,0.18737015529197815,0.19699539244174957,0.030467618256807372,0.3697820007801056
2025/07/05/17:50:00.612661,10560,1751712600,622147008,base_link,1.3535972500373554,-0.2290414724752775,0.1868073976744671,0.33713746070861816,0.00023756525479262398,0.4320007860660553
2025/07/05/17:50:00.712085,10561,1751712600,721147008,base_link,1.3638025374878437,-0.21144797551389835,0.19432433140226843,0.3056509494781494,-0.027551649138331358,0.44466495513916016
2025/07/05/17:50:00.811780,10562,1751712600,821147008,base_link,1.3732099910644788,-0.13194997615882445,0.21133667371417747,0.2413865029811859,-0.03343018889427181,0.3614455759525299
2025/07/05/17:50:00.911746,10563,1751712600,921147008,base_link,1.3615176162700038,-0.006625449840381546,0.21597857401024878,0.2976670265197754,-0.008134187199175334,0.19760388135910034
2025/07/05/17:50:01.011625,10564,1751712601,22147008,base_link,1.3513308013904028,0.06782500881940037,0.20763882291840377,0.40840959548950195,0.03740732371807098,-0.06196456030011178
2025/07/05/17:50:01.091801,10565,1751712601,101147008,base_link,1.3503046793474007,0.11995142541171927,0.19898247712220776,0.17953255772590637,0.04618668183684346,-0.23920802772045135
2025/07/05/17:50:01.191327,10566,1751712601,202147008,base_link,1.3509607946736497,0.1513130076683476,0.1813747366396583,-0.11340831965208054,0.006863700225949243,-0.3625331521034241
2025/07/05/17:50:01.291837,10567,1751712601,301147008,base_link,1.3611189126055192,0.13900623684854235,0.1759358605638146,-0.3158000707626343,-0.06098457798361783,-0.40836048126220703
2025/07/05/17:50:01.450467,10568,1751712601,461147008,base_link,1.3746189930001131,-0.03433474942050523,0.2138958573783974,-0.43193909525871277,-0.11243253201246266,-0.34460991621017456
2025/07/05/17:50:01.611864,10569,1751712601,621147008,base_link,1.3713593949363934,-0.124546208195133,0.19740059250905007,-0.48104792833328247,-0.021872401237487783,0.08691082894802094
2025/07/05/17:50:01.691784,10570,1751712601,702147008,base_link,1.3758925930707249,-0.1650523991043283,0.18502510386826515,-0.15689495205879211,0.04087613150477413,0.26481568813323975
2025/07/05/17:50:01.771290,10571,1751712601,781147008,base_link,1.3637180324113953,-0.19320924538612808,0.17243120125676473,0.1316678524017334,0.046092242002487224,0.3490573465824127
2025/07/05/17:50:01.871796,10572,1751712601,881147008,base_link,1.3652301243652611,-0.22131651412963269,0.18098633728878097,0.31386223435401917,0.008272268809378197,0.41479867696762085
2025/07/05/17:50:01.991426,10573,1751712602,2147008,base_link,1.3696577403490737,-0.17255632820653735,0.19254874924954118,0.32974115014076233,-0.04462423175573344,0.4100589454174042
2025/07/05/17:50:02.091601,10574,1751712602,102147008,base_link,1.3573931314831655,-0.018955850666413136,0.21443444322896765,0.3103275001049042,-0.03741821646690365,0.2852990925312042
2025/07/05/17:50:02.192773,10575,1751712602,202147008,base_link,1.3416245475436046,0.061305688682962,0.21647441512372628,0.47244584560394287,0.021890485659241676,0.010530193336307999
2025/07/05/17:50:02.291570,10576,1751712602,301147008,base_link,1.3367447496649567,0.10665717049698045,0.20080236251321082,0.4303075969219208,0.05695270001888273,-0.18263430893421173
2025/07/05/17:50:02.411122,10577,1751712602,422147008,base_link,1.342473872075798,0.12253971138922579,0.18203101851990028,0.08312904834747314,0.038797754794359166,-0.3306157886981964
2025/07/05/17:50:02.551148,10578,1751712602,560147008,base_link,1.365333419444233,0.030452754016259555,0.18782158941904023,-0.41564804315567017,-0.07157377898693089,-0.39406895637512207
2025/07/05/17:50:02.634024,10579,1751712602,644147008,base_link,1.357924445148812,-0.08922032306376963,0.19156248395714434,-0.7453545928001404,-0.1274603456258774,-0.178030252456665
2025/07/05/17:50:02.730417,10580,1751712602,740147008,base_link,1.34138984102809,-0.12105535683681258,0.19189204662319714,-0.8160400390625,-0.07733568549156188,0.0629977658390999
2025/07/05/17:50:02.811789,10581,1751712602,822147008,base_link,1.339268207005344,-0.15597388214179933,0.18202989285419455,-0.32453545928001404,0.005482161417603523,0.2495325207710266
2025/07/05/17:50:02.930619,10582,1751712602,940147008,base_link,1.3459082589521099,-0.16534861695263553,0.17164810671507225,0.16866493225097656,0.03474568948149685,0.35924404859542847
2025/07/05/17:50:03.013750,10583,1751712603,24147008,base_link,1.3485154580277199,-0.12394765267083947,0.18508471405626073,0.5720242261886597,0.012335542589426094,0.4364880323410034
2025/07/05/17:50:03.110747,10584,1751712603,121147008,base_link,1.3433105437289254,-0.045717673830031946,0.21374835748865234,0.7536001801490784,-0.016433129087090447,0.36875781416893005
2025/07/05/17:50:03.211853,10585,1751712603,222147008,base_link,1.336849696679055,0.019035396382682992,0.23498841897783107,0.7037913799285889,-0.014228833839297272,0.19019541144371033
2025/07/05/17:50:03.291587,10586,1751712603,302147008,base_link,1.330006075311091,0.04618536072912504,0.22270426426747475,0.42162296175956726,0.012766762636601918,-0.062109604477882385
2025/07/05/17:50:03.433399,10587,1751712603,443147008,base_link,1.3468981918950518,-0.0022504633621435203,0.19386245687760414,-0.12467603385448456,0.010859732516109916,-0.2216150164604187
2025/07/05/17:50:03.570744,10588,1751712603,581147008,base_link,1.3589781644233883,-0.0779866613053299,0.19114778093009663,-0.7080023288726807,-0.05491722747683528,-0.21916697919368744
2025/07/05/17:50:03.670921,10589,1751712603,681147008,base_link,1.3553668952740043,-0.16840807359436674,0.18942300613993027,-0.6956086754798889,-0.06839853525161743,0.006009083706885585
2025/07/05/17:50:03.790848,10590,1751712603,801147008,base_link,1.3511280777386274,-0.1913012891529015,0.17373134895849007,-0.3754364550113678,-0.025848673656582805,0.23831957578659058
2025/07/05/17:50:03.893278,10591,1751712603,901147008,base_link,1.3429291234051637,-0.21318850805850734,0.17673633641248165,0.16794516146183014,0.005500190891325521,0.3792082369327545
2025/07/05/17:50:03.970992,10592,1751712603,981147008,base_link,1.3406785424427508,-0.25746307836094745,0.18835028239414153,0.4794009327888489,-0.007039668038487377,0.4645482897758484
2025/07/05/17:50:04.091034,10593,1751712604,101147008,base_link,1.325183175422248,-0.24662019319273662,0.20549343528531155,0.4512898027896881,-0.022432642057537974,0.48642298579216003
2025/07/05/17:50:04.171802,10594,1751712604,181147008,base_link,1.3243778470642613,-0.16647692903929606,0.21755356098123788,0.2455698847770691,-0.01091573107987637,0.4186762869358063
2025/07/05/17:50:04.271476,10595,1751712604,280147008,base_link,1.3041695745282356,0.0035456896780060422,0.21621279949018596,0.3527718484401703,0.027044700458645838,0.13604684174060822
2025/07/05/17:50:04.392263,10596,1751712604,402147008,base_link,1.2944981049891524,0.09082539007483927,0.20160480161540803,0.4326772093772888,0.061889462172985056,-0.15827691555023193
2025/07/05/17:50:04.551068,10597,1751712604,560147008,base_link,1.293611799248601,0.16776249934947965,0.17603137023112186,-0.1674235612154007,0.005584422498941375,-0.38223469257354736
2025/07/05/17:50:04.651727,10598,1751712604,661147008,base_link,1.2844690120333095,0.2201677243191303,0.17507937185378647,-0.3736017942428589,-0.06997271627187734,-0.45328474044799805
2025/07/05/17:50:04.751687,10599,1751712604,760147008,base_link,1.2755103313146852,0.2490640349528845,0.18661927043205925,-0.2577999532222748,-0.10015507787466055,-0.45889636874198914
2025/07/05/17:50:04.832606,10600,1751712604,843147008,base_link,1.2672284480839078,0.2544600026836677,0.18763715973304262,-0.09895770996809006,-0.07979994267225271,-0.43155065178871155
